,ID,WMO_CODE,NAME_EN,Region,Latitude,Longitude,00Z,01Z,02Z,03Z,04Z,05Z,06Z,07Z,08Z,09Z,10Z,11Z,12Z,13Z,14Z,15Z,16Z,17Z,18Z,19Z,20Z,21Z,22Z,23Z,sum,year,month,day
0,1,300,Mae Hong Son,Northern,19.29897222,97.97577778,0.8999999761581421,-,-,-,-,-,-,-,-,-,-,1.659999966621399,-,-,-,-,-,-,-,-,1.840000033378601,-,-,-,4.400000095367432,2020,07,12
1,2,325,Mae Sariang,Northern,18.16666667,97.93333333,-,-,-,-,-,-,-,-,-,-,-,-,-,1.1100000143051147,4.46999979019165,3.5799999237060547,9.579999923706055,5.03000020980835,2.2799999713897705,-,1.0099999904632568,0.30000001192092896,1.1100000143051147,-,28.470001220703125,2020,07,12
2,3,303,Chiang Rai,Northern,19.96138889,99.88138889,-,-,-,-,-,-,-,-,0.41999998688697815,-,1.7699999809265137,0.3799999952316284,-,-,-,-,-,-,-,-,-,-,-,-,2.570000171661377,2020,07,12
3,4,304,Chiang Rai (1),Northern,19.87083333,99.78277778,-,-,-,-,-,-,-,-,-,0.23999999463558197,1.6399999856948853,1.0700000524520874,-,-,-,-,-,0.14000000059604645,-,-,-,-,-,-,3.0900001525878906,2020,07,12
4,5,310,Phayao,Northern,19.13333333,99.9,3.4700000286102295,-,-,-,-,-,-,-,-,-,0.6200000047683716,0.05000000074505806,5.159999847412109,1.7999999523162842,0.7699999809265137,1.0199999809265137,5.570000171661377,-,0.05000000074505806,0.8100000023841858,2.880000114440918,-,-,-,22.19999885559082,2020,07,12
5,6,327,Chiang Mai,Northern,18.79,98.97694444,0.12999999523162842,-,-,-,-,-,-,-,-,-,-,0.4699999988079071,-,1.8600000143051147,4.130000114440918,-,-,0.949999988079071,3.9600000381469727,-,0.07000000029802322,4.070000171661377,6.679999828338623,1.1100000143051147,23.43000030517578,2020,07,12
6,7,302,Doi Angkhlang,Northern,19.93138889,99.04833333,1.2599999904632568,-,-,-,-,-,-,-,-,-,-,7.53000020980835,11.760000228881836,3.25,-,-,-,-,-,-,-,-,1.399999976158142,-,25.200000762939453,2020,07,12
7,8,331,Nan,Northern,18.77972222,100.7777778,3.4800000190734863,-,-,-,-,-,-,-,-,-,0.019999999552965164,-,-,0.17000000178813934,-,-,4.150000095367432,-,-,-,-,-,-,-,7.820000171661377,2020,07,12
8,9,333,Nan (1),Northern,18.86666667,100.75,28.09000015258789,-,-,-,-,-,-,-,-,-,0.699999988079071,-,0.2199999988079071,0.41999998688697815,-,-,4.630000114440918,-,-,-,-,-,-,-,34.060001373291016,2020,07,12
9,10,315,Tha Wang Pha (2),Northern,19.11055556,100.8025,0.9300000071525574,-,-,-,-,-,-,-,-,1.409999966621399,0.019999999552965164,-,1.9800000190734863,0.41999998688697815,-,3.25,7.239999771118164,-,3.430000066757202,0.5,0.10999999940395355,-,-,-,19.290000915527344,2020,07,12
10,11,307,Thung Chang (2),Northern,19.41194444,100.8835278,-,-,1.6799999475479126,-,-,-,-,-,-,1.409999966621399,1.2799999713897705,0.12999999523162842,1.0299999713897705,2.6600000858306885,-,6.789999961853027,2.5199999809265137,-,2.930000066757202,1.5299999713897705,0.019999999552965164,-,-,-,21.98000144958496,2020,07,12
11,12,329,Lamphun,Northern,18.56666667,99.03333333,-,-,-,-,-,-,-,-,-,-,-,3.4800000190734863,2.0399999618530273,1.1399999856948853,-,-,-,-,3.4600000381469727,0.7900000214576721,1.2599999904632568,4.53000020980835,-,1.1100000143051147,17.810001373291016,2020,07,12
12,13,328,Lampang,Northern,18.33333333,99.51666667,-,-,-,-,-,-,-,-,-,-,0.699999988079071,0.3799999952316284,0.1599999964237213,0.05000000074505806,-,-,1.9299999475479126,0.14000000059604645,0.07000000029802322,-,0.27000001072883606,-,-,0.10000000149011612,3.799999713897705,2020,07,12
13,14,334,Lampang (1),Northern,18.31666667,99.28333333,0.5,-,-,-,-,-,-,-,-,-,-,-,0.6899999976158142,-,-,-,0.09000000357627869,-,6.239999771118164,-,-,0.03999999910593033,3.609999895095825,-,11.169999122619629,2020,07,12
14,15,324,Thoen,Northern,17.63661111,99.24475,0.9900000095367432,0.05000000074505806,-,-,-,-,-,-,-,0.1599999964237213,-,-,-,-,-,-,-,0.07000000029802322,2.5999999046325684,7.039999961853027,25.31999969482422,9.5600004196167,9.130000114440918,3.690000057220459,58.61000061035156,2020,07,12
15,16,330,Phrae,Northern,18.16666667,100.1666667,-,-,-,-,-,-,-,-,-,-,1.4600000381469727,0.07999999821186066,-,0.05000000074505806,-,-,-,-,0.3100000023841858,1.25,-,-,5.760000228881836,1.4199999570846558,10.329999923706055,2020,07,12
16,17,351,Uttaradit,Northern,17.61666667,100.1000028,-,1.9299999475479126,2.0299999713897705,-,3.619999885559082,-,-,-,-,0.03999999910593033,-,-,-,0.019999999552965164,-,-,-,-,-,0.5400000214576721,1.0199999809265137,3.130000114440918,0.9700000286102295,-,13.30000114440918,2020,07,12
17,18,372,Sukhothai,Northern,17.10611111,99.8,-,-,-,-,-,-,-,-,-,-,-,0.949999988079071,-,-,-,-,-,-,-,2.440000057220459,10.520000457763672,4.429999828338623,1.440000057220459,0.1899999976158142,19.970001220703125,2020,07,12
18,19,373,Si Samrong (1),Northern,17.77361111,99.24944444,-,0.009999999776482582,-,-,-,-,-,-,-,-,-,-,-,-,-,-,-,4.579999923706055,4.579999923706055,8.930000305175781,31.770000457763672,6.940000057220459,2.2300000190734863,2.6700000762939453,61.709999084472656,2020,07,12
19,20,377,Bhumibol Dam,Northern,17.24391667,99.00252778,0.3100000023841858,-,-,-,-,-,-,-,-,-,-,-,-,-,-,-,-,-,-,0.5400000214576721,2.819999933242798,4.429999828338623,16.709999084472656,3.380000114440918,28.190000534057617,2020,07,12
20,21,376,Tak,Northern,16.87836111,99.14336111,-,-,-,-,0.46000000834465027,-,-,-,-,-,-,-,0.6100000143051147,-,-,-,-,-,2.130000114440918,5.380000114440918,11.289999961853027,4.46999979019165,7.170000076293945,3.380000114440918,34.88999938964844,2020,07,12
21,22,375,Mae Sot,Northern,16.65916667,98.55086111,0.7200000286102295,-,-,-,-,-,-,-,-,-,-,-,-,-,-,-,-,-,0.6299999952316284,3.009999990463257,3.8399999141693115,1.7100000381469727,6.699999809265137,4.519999980926514,21.1299991607666,2020,07,12
22,23,385,Umphang (2),Northern,16.02472222,98.86444444,-,-,-,-,-,-,0.009999999776482582,0.019999999552965164,-,-,-,-,1.7799999713897705,4.349999904632568,0.20999999344348907,1.659999966621399,37.529998779296875,1.0399999618530273,14.6899995803833,11.319999694824219,10.989999771118164,7.230000019073486,4.619999885559082,-,95.45000457763672,2020,07,12
23,24,387,Doi Muser (1),Northern,16.75,98.93333611,0.10000000149011612,-,-,-,-,-,-,-,-,-,-,-,1.059999942779541,-,-,-,-,-,1.0199999809265137,3.4200000762939453,8.0,8.149999618530273,7.53000020980835,3.0299999713897705,32.30999755859375,2020,07,12
24,25,378,Phitsanulok,Northern,16.79622222,100.2759444,-,-,-,-,-,-,-,0.7599999904632568,-,-,0.3799999952316284,8.210000038146973,5.320000171661377,3.1700000762939453,-,-,-,-,-,-,2.2899999618530273,-,-,-,20.130001068115234,2020,07,12
25,26,374,Lom Sak (2),Northern,16.77363889,101.2494722,-,0.20000000298023224,-,-,-,-,-,-,0.6100000143051147,3.1700000762939453,2.109999895095825,0.09000000357627869,0.7599999904632568,-,-,-,-,-,-,-,-,-,-,-,6.940000534057617,2020,07,12
26,27,379,Phetchabun,Northern,16.43333611,101.15,-,-,-,-,-,-,-,0.7200000286102295,-,8.430000305175781,0.23999999463558197,-,-,-,-,-,-,0.6100000143051147,-,4.889999866485596,3.5899999141693115,-,-,-,18.479999542236328,2020,07,12
27,28,413,Wichian Buri (2),Northern,15.65694444,101.1083333,-,-,-,-,-,1.7200000286102295,1.2100000381469727,-,-,0.17000000178813934,0.009999999776482582,-,-,-,-,-,-,4.619999885559082,16.729999542236328,0.6399999856948853,3.4200000762939453,3.8299999237060547,1.4299999475479126,-,33.779998779296875,2020,07,12
28,29,380,Kamphaeng Phet,Northern,16.48680556,99.52697222,-,-,-,-,-,-,-,-,-,-,-,1.9500000476837158,6.070000171661377,0.7400000095367432,-,-,6.230000019073486,-,-,13.010000228881836,10.880000114440918,7.710000038146973,3.190000057220459,-,49.779998779296875,2020,07,12
29,30,386,Phicit (1),Northern,16.33861111,100.3671111,-,-,-,-,-,-,-,-,-,0.8999999761581421,-,-,-,0.07000000029802322,-,-,-,-,-,-,2.240000009536743,4.170000076293945,6.050000190734863,-,13.430000305175781,2020,07,12
30,31,352,Nong Khai,Northeastern,17.86716667,102.7330278,-,-,-,-,-,-,0.03999999910593033,2.549999952316284,0.550000011920929,1.4500000476837158,6.039999961853027,1.5099999904632568,1.5199999809265137,0.49000000953674316,0.18000000715255737,-,-,-,-,-,-,-,-,-,14.329999923706055,2020,07,12
31,32,353,Loei,Northeastern,17.45,101.7333333,-,-,-,-,-,-,-,2.440000057220459,3.430000066757202,1.409999966621399,2.440000057220459,0.49000000953674316,0.6100000143051147,-,-,-,1.850000023841858,-,-,-,0.6200000047683716,-,-,-,13.289999008178711,2020,07,12
32,33,350,Loei (1),Northeastern,17.4,101.7333333,-,-,-,-,-,-,-,3.109999895095825,4.039999961853027,1.5199999809265137,2.140000104904175,-,-,0.17000000178813934,-,0.05000000074505806,1.1399999856948853,-,-,1.159999966621399,-,-,-,-,13.330000877380371,2020,07,12
33,34,354,Udon Thani,Northeastern,17.38333333,102.8,-,-,-,-,-,-,-,1.0,-,3.049999952316284,0.09000000357627869,0.27000001072883606,5.5,-,-,-,-,-,-,-,-,-,-,0.8799999952316284,10.789999961853027,2020,07,12
34,35,357,Nakhon Phanom,Northeastern,17.41083333,104.7825,-,-,-,-,-,-,-,0.7599999904632568,-,-,-,-,-,-,-,-,-,-,-,-,-,-,-,-,0.7599999904632568,2020,07,12
35,36,358,Nakhon Phanom (1),Northeastern,17.44305556,104.7736111,-,-,-,-,-,-,-,2.1600000858306885,-,-,-,-,-,-,-,-,-,-,-,-,-,-,-,-,2.1600000858306885,2020,07,12
36,37,356,Sakon Nakhon,Northeastern,17.15000278,104.1333361,-,1.5800000429153442,-,-,-,-,-,0.8500000238418579,-,3.319999933242798,0.7300000190734863,-,-,0.10999999940395355,-,-,-,-,-,-,-,-,-,-,6.590000152587891,2020,07,12
37,38,355,Sakon Nakhon (1),Northeastern,17.12502778,104.061,-,-,-,-,-,-,-,0.7400000095367432,-,0.2800000011920929,1.6399999856948853,-,-,1.2200000286102295,-,-,-,-,-,-,-,-,-,-,3.879999876022339,2020,07,12
38,39,360,Nong Bua Lumphu,Northeastern,17.2325,102.4294444,-,-,-,-,-,-,-,-,-,5.53000020980835,1.3799999952316284,0.5699999928474426,1.9700000286102295,-,-,-,-,0.75,-,-,-,-,-,-,10.200000762939453,2020,07,12
39,40,383,Mukdahan,Northeastern,16.54955556,104.7308889,-,-,-,-,-,-,-,-,-,-,-,-,-,-,-,-,-,-,-,-,-,-,-,-,-,2020,07,12
40,41,381,Khon Kaen,Northeastern,16.46111111,102.7897222,-,-,-,-,-,-,-,-,-,0.05999999865889549,0.8600000143051147,-,-,-,-,-,-,-,0.3199999928474426,0.9399999976158142,0.6499999761581421,-,-,-,2.8299999237060547,2020,07,12
41,42,384,Tha Pra (1),Northeastern,16.333,102.8166667,-,-,-,-,-,0.20000000298023224,-,-,-,-,0.5799999833106995,-,-,-,-,-,-,-,2.4800000190734863,-,-,-,-,-,3.259999990463257,2020,07,12
42,43,382,Kosum Phisai (2),Northeastern,16.24722222,103.0680556,-,0.12999999523162842,-,-,0.8999999761581421,-,-,1.1299999952316284,-,-,-,1.3700000047683716,-,-,-,-,-,-,-,0.5099999904632568,-,-,-,-,4.039999961853027,2020,07,12
43,44,390,Kamalasai (2),Northeastern,16.3325,103.5883333,-,-,-,-,-,-,-,-,-,-,-,2.549999952316284,3.440000057220459,-,-,-,-,-,-,12.949999809265137,4.349999904632568,-,-,-,23.28999900817871,2020,07,12
44,45,405,Roi Et,Northeastern,16.05000028,103.68333359999998,-,-,-,-,-,-,-,-,-,2.1700000762939453,0.3799999952316284,0.14000000059604645,1.1200000047683716,0.7099999785423279,-,-,-,-,-,0.3700000047683716,-,-,-,-,4.890000343322754,2020,07,12
45,46,404,Roi Et (1),Northeastern,16.07322222,103.6084444,-,-,-,-,-,-,-,-,-,-,0.3799999952316284,0.23000000417232513,1.3700000047683716,1.1200000047683716,-,-,-,-,-,0.07000000029802322,-,-,-,-,3.169999837875366,2020,07,12
46,47,403,Chaiyaphum,Northeastern,15.80000028,102.0333336,0.9800000190734863,-,-,-,-,-,-,-,-,-,-,2.4000000953674316,-,-,-,-,2.8399999141693115,-,7.480000019073486,1.8600000143051147,1.4800000190734863,-,-,0.5400000214576721,17.579999923706055,2020,07,12
47,48,407,Ubon Ratchathani,Northeastern,15.25000278,104.8666694,-,-,-,-,-,-,-,-,-,-,-,-,-,-,-,-,-,-,-,-,-,-,-,-,-,2020,07,12
48,49,408,Ubon Ratchathani (1),Northeastern,15.24072222,105.01966670000002,-,-,-,-,-,-,-,-,-,-,-,-,-,-,-,-,-,-,-,-,-,-,-,-,-,2020,07,12
49,50,409,Si Saket (1),Northeastern,15.00000028,104.0500003,-,-,-,-,-,-,-,-,-,0.3700000047683716,0.03999999910593033,-,-,-,-,-,-,-,-,-,-,-,-,-,0.4099999964237213,2020,07,12
50,51,416,Tha Tum (2),Northeastern,15.31666694,103.68333359999998,-,-,-,-,-,-,-,-,-,0.3799999952316284,-,-,-,-,-,-,-,-,1.8200000524520874,2.2100000381469727,-,1.409999966621399,2.130000114440918,-,7.949999809265137,2020,07,12
51,52,432,Surin,Northeastern,14.88333361,103.5000003,-,-,-,-,-,-,-,-,-,0.10999999940395355,-,-,-,-,-,0.23000000417232513,4.110000133514404,-,-,0.6800000071525574,-,-,-,-,5.130000114440918,2020,07,12
52,53,433,Surin (1),Northeastern,14.88333361,103.4500003,-,-,-,-,-,-,-,-,-,0.8999999761581421,-,-,-,-,-,1.4299999475479126,2.1500000953674316,-,-,0.6200000047683716,0.009999999776482582,-,-,-,5.110000133514404,2020,07,12
53,54,431,Nakhon Ratchasima,Northeastern,14.96830556,102.0860278,0.8500000238418579,-,-,-,-,-,-,-,-,-,-,-,-,0.5600000023841858,27.469999313354492,10.479999542236328,6.28000020980835,8.079999923706055,2.6700000762939453,4.150000095367432,0.6499999761581421,-,-,0.5400000214576721,61.72999572753906,2020,07,12
54,55,435,Pakchong (1),Northeastern,14.64388889,101.3319444,-,-,-,-,-,-,-,-,-,-,0.7400000095367432,-,-,0.029999999329447746,0.800000011920929,15.970000267028809,8.819999694824219,0.6800000071525574,1.090000033378601,-,-,1.4199999570846558,-,-,29.55000114440918,2020,07,12
55,56,434,Chok Chai (2),Northeastern,14.71888889,102.1686111,-,-,-,-,-,-,-,-,-,-,-,0.3100000023841858,1.6100000143051147,2.7699999809265137,0.41999998688697815,4.050000190734863,6.28000020980835,1.309999942779541,1.9500000476837158,0.7400000095367432,-,-,-,3.9000000953674316,23.34000015258789,2020,07,12
56,57,437,Buri Ram,Northeastern,15.22575,103.2480833,-,-,-,-,-,-,-,-,-,-,-,2.4000000953674316,-,-,-,-,-,-,0.23999999463558197,0.1899999976158142,-,-,1.7799999713897705,-,4.610000133514404,2020,07,12
57,58,436,Nang Rong (2),Northeastern,14.58333361,102.8000003,-,-,-,-,-,-,-,-,-,1.7699999809265137,0.4099999964237213,0.4099999964237213,-,-,-,5.539999961853027,5.260000228881836,0.9100000262260437,0.30000001192092896,2.630000114440918,2.950000047683716,0.8100000023841858,-,-,20.989999771118164,2020,07,12
58,59,400,Nakhon Sawan,Central,15.67183333,100.1323611,0.9100000262260437,1.350000023841858,-,-,-,-,0.18000000715255737,-,-,-,1.6799999475479126,-,-,-,-,-,-,-,0.30000001192092896,-,-,3.0,-,2.4000000953674316,9.819999694824219,2020,07,12
59,60,401,Takfa (1),Central,15.34944444,100.5302778,-,-,-,-,-,-,1.309999942779541,-,-,-,2.2100000381469727,-,-,-,-,-,-,2.2300000190734863,3.2699999809265137,2.8399999141693115,1.7200000286102295,3.2100000381469727,0.019999999552965164,10.65999984741211,27.470001220703125,2020,07,12
60,61,402,Chai Nat,Central,15.15000278,100.18333359999998,0.05000000074505806,-,-,-,-,-,1.059999942779541,-,-,-,-,-,-,-,-,-,1.0499999523162842,1.0499999523162842,0.9599999785423279,2.5399999618530273,1.8899999856948853,3.5399999618530273,-,1.0099999904632568,13.15000057220459,2020,07,12
61,62,410,U Thai Thani,Central,15.37416667,100.0388889,1.7799999713897705,-,-,-,-,-,0.18000000715255737,0.18000000715255737,-,-,-,-,-,-,-,-,-,-,0.7599999904632568,0.7300000190734863,1.7799999713897705,3.5999999046325684,-,-,9.010000228881836,2020,07,12
62,63,415,Ayuthaya (1),Central,14.53472222,100.725,-,-,0.5600000023841858,-,-,-,-,-,-,-,-,-,-,0.3400000035762787,-,2.359999895095825,3.130000114440918,-,-,-,1.7400000095367432,0.09000000357627869,-,-,8.220000267028809,2020,07,12
63,64,418,Bua Chum (2),Central,15.10000028,101.6166669,0.2800000011920929,-,-,3.109999895095825,-,-,-,-,-,-,-,-,0.7799999713897705,-,0.6899999976158142,5.53000020980835,1.5299999713897705,-,1.090000033378601,1.2699999809265137,0.4300000071525574,-,-,-,14.710000038146973,2020,07,12
64,65,426,Lop Buri,Central,14.79972222,100.6283333,-,2.5799999237060547,1.7899999618530273,3.1700000762939453,-,-,-,-,-,-,2.2100000381469727,-,-,1.0299999713897705,3.7699999809265137,1.4299999475479126,3.609999895095825,-,1.340000033378601,0.30000001192092896,2.559999942779541,-,-,-,23.78999900817871,2020,07,12
65,66,425,Suphan Buri,Central,14.47444444,100.1388889,-,-,2.200000047683716,0.8100000023841858,0.4099999964237213,-,-,-,-,-,1.100000023841858,2.0199999809265137,0.05999999865889549,2.809999942779541,2.559999942779541,4.309999942779541,3.130000114440918,1.8200000524520874,1.4700000286102295,1.0099999904632568,-,-,-,-,23.709999084472656,2020,07,12
66,67,427,Uthong (1),Central,14.30361111,99.86472222,-,0.47999998927116394,0.75,-,1.7300000190734863,0.7799999713897705,-,-,-,1.1299999952316284,0.4000000059604645,2.5799999237060547,0.10000000149011612,2.809999942779541,1.8799999952316284,2.9800000190734863,2.5799999237060547,6.699999809265137,0.30000001192092896,2.2899999618530273,-,-,-,-,27.490001678466797,2020,07,12
67,68,421,Thong Pha Phum,Central,14.74222222,98.63638889,1.7699999809265137,-,-,-,-,-,-,-,-,-,-,-,-,0.6800000071525574,6.96999979019165,7.090000152587891,0.18000000715255737,-,-,-,3.049999952316284,0.20999999344348907,7.449999809265137,2.190000057220459,29.589998245239258,2020,07,12
68,69,450,Kanchanaburi,Central,14.0225,99.53583333,-,-,-,-,-,0.8700000047683716,0.3199999928474426,-,-,1.3799999952316284,-,-,-,0.9100000262260437,2.309999942779541,2.5399999618530273,5.260000228881836,6.699999809265137,2.2100000381469727,3.4600000381469727,-,-,-,-,25.959999084472656,2020,07,12
69,70,464,Ratcha Buri (1),Central,13.48930556,99.79238889,-,-,-,-,-,-,-,1.4500000476837158,-,-,1.190000057220459,-,0.4099999964237213,-,0.6299999952316284,1.1699999570846558,0.7200000286102295,6.699999809265137,-,-,-,-,0.18000000715255737,-,12.450000762939453,2020,07,12
70,71,451,Kampheang Saen (1),Central,14.01166667,99.97,-,-,-,-,-,-,-,0.28999999165534973,-,1.190000057220459,-,-,-,0.7200000286102295,2.7699999809265137,-,4.110000133514404,3.190000057220459,0.7300000190734863,-,-,3.5799999237060547,-,-,16.579999923706055,2020,07,12
71,72,419,Pathum Thani (1),Central,14.1,100.616,0.09000000357627869,-,0.75,4.260000228881836,3.7799999713897705,-,-,-,-,3.299999952316284,-,0.7799999713897705,-,-,1.8899999856948853,3.4100000858306885,17.31999969482422,3.190000057220459,0.49000000953674316,3.390000104904175,-,-,-,-,42.64999771118164,2020,07,12
72,73,420,Samut Prakan,Central,13.51666694,100.7616667,-,-,-,-,0.9300000071525574,0.8700000047683716,0.949999988079071,-,-,-,-,-,4.809999942779541,2.440000057220459,1.6799999475479126,-,-,-,-,-,-,-,-,18.540000915527344,30.220001220703125,2020,07,12
73,74,429,Suvarnabhumi Airport,Central,13.68638889,100.7675,-,-,-,-,-,-,-,1.0,-,-,-,0.4699999988079071,3.859999895095825,2.9200000762939453,2.680000066757202,0.3400000035762787,-,0.41999998688697815,-,-,-,-,-,-,11.690000534057617,2020,07,12
74,75,456,Don Muang Airport,Central,13.91916667,100.605,-,-,-,-,3.509999990463257,0.1599999964237213,-,-,-,-,-,-,-,-,3.5399999618530273,3.75,8.819999694824219,5.550000190734863,0.49000000953674316,-,2.069999933242798,-,-,-,27.889997482299805,2020,07,12
75,76,455,Sirikit Center,Central,13.72638889,100.56,-,-,-,-,1.2699999809265137,0.009999999776482582,0.3199999928474426,1.75,-,-,-,-,0.33000001311302185,0.7099999785423279,3.3299999237060547,1.2999999523162842,6.28000020980835,4.619999885559082,0.05999999865889549,-,-,-,-,-,19.979997634887695,2020,07,12
76,77,454,Bangkok Port,Central,13.70694444,100.5680556,-,-,-,-,1.2699999809265137,-,0.949999988079071,2.25,-,-,-,-,2.4000000953674316,-,2.440000057220459,0.5299999713897705,5.730000019073486,3.609999895095825,-,-,-,-,-,-,19.18000030517578,2020,07,12
77,78,453,Bang Na (1),Central,13.66638889,100.6061111,-,-,-,-,0.5199999809265137,-,0.949999988079071,3.140000104904175,-,-,-,-,2.950000047683716,-,2.1500000953674316,0.4000000059604645,3.630000114440918,1.8200000524520874,-,-,0.6399999856948853,-,-,-,16.200000762939453,2020,07,12
78,79,457,Bangkok Pilot,Central,13.37722222,100.5994444,-,-,-,4.070000171661377,0.949999988079071,1.6299999952316284,-,-,-,-,-,-,4.650000095367432,4.099999904632568,0.07999999821186066,-,-,-,2.2699999809265137,-,-,5.760000228881836,-,-,23.510000228881836,2020,07,12
79,80,430,Prachin Buri,Eastern,14.05091667,101.3693056,-,-,-,-,2.25,-,-,-,-,-,-,0.6800000071525574,-,3.200000047683716,3.1500000953674316,2.1600000858306885,3.130000114440918,-,0.2199999988079071,-,-,-,-,-,14.790000915527344,2020,07,12
80,81,439,Kabin Buri (2),Eastern,13.98333361,101.7072222,-,-,-,-,3.7699999809265137,-,-,-,-,-,-,-,1.5099999904632568,5.53000020980835,1.840000033378601,4.159999847412109,-,3.240000009536743,0.4699999988079071,0.4399999976158142,0.46000000834465027,-,-,4.389999866485596,25.80999755859375,2020,07,12
81,82,440,Sa Kaeo (2),Eastern,13.78888889,102.0347222,-,-,-,-,-,-,-,-,-,-,-,-,-,14.699999809265137,5.230000019073486,0.15000000596046448,3.630000114440918,0.9100000262260437,0.4699999988079071,0.4399999976158142,-,-,-,-,25.529998779296875,2020,07,12
82,83,462,Aranyaprathet,Eastern,13.70000028,102.5833336,-,-,-,-,-,-,-,-,-,-,0.7300000190734863,6.570000171661377,9.039999961853027,12.119999885559082,6.440000057220459,3.5999999046325684,4.110000133514404,2.75,1.840000033378601,-,-,-,-,-,47.19999694824219,2020,07,12
83,84,458,Chachoengsao (1),Eastern,13.51555556,101.4583333,-,-,-,-,-,-,-,-,-,0.3199999928474426,26.280000686645508,11.619999885559082,5.349999904632568,9.199999809265137,9.079999923706055,3.0,5.260000228881836,-,-,-,-,-,-,-,70.11000061035156,2020,07,12
84,85,459,Chon Buri,Eastern,13.36666694,100.9833336,-,-,-,-,-,0.8700000047683716,1.8799999952316284,2.7200000286102295,-,-,10.4399995803833,7.159999847412109,9.0,2.8499999046325684,3.059999942779541,0.029999999329447746,-,-,-,-,-,-,-,-,38.0099983215332,2020,07,12
85,86,463,Laem Chabang,Eastern,13.07694444,100.8758333,-,-,-,-,0.18000000715255737,-,-,-,-,6.559999942779541,9.859999656677246,7.75,5.550000190734863,0.2199999988079071,7.849999904632568,3.680000066757202,0.4699999988079071,1.8700000047683716,-,-,-,-,-,-,43.98999786376953,2020,07,12
86,87,460,Ko Sichang,Eastern,13.16166667,100.8019444,-,-,-,-,0.949999988079071,0.009999999776482582,-,-,-,-,6.139999866485596,10.220000267028809,7.21999979019165,2.319999933242798,5.929999828338623,0.5400000214576721,-,1.8700000047683716,-,-,-,-,0.18000000715255737,-,35.37999725341797,2020,07,12
87,88,461,Pattaya,Eastern,12.92,100.8694444,-,-,-,-,-,-,-,-,-,1.3700000047683716,6.480000019073486,7.75,4.929999828338623,2.1700000762939453,9.15999984741211,4.739999771118164,0.25,-,-,-,-,-,-,-,36.849998474121094,2020,07,12
88,89,477,Sattahip,Eastern,12.68333361,100.9833336,-,-,-,-,-,24.25,-,-,-,2.630000114440918,3.430000066757202,6.550000190734863,6.360000133514404,1.909999966621399,5.110000133514404,2.369999885559082,-,-,28.149999618530273,1.4700000286102295,1.899999976158142,-,-,-,84.1300048828125,2020,07,12
89,90,478,Rayong,Eastern,12.61702778,101.34075,-,-,-,-,-,-,-,-,-,-,-,0.4699999988079071,9.359999656677246,6.840000152587891,3.9700000286102295,-,-,-,3.490000009536743,10.600000381469727,4.679999828338623,2.369999885559082,0.029999999329447746,-,41.80999755859375,2020,07,12
90,91,479,Huai Pong (1),Eastern,12.73333361,101.1333336,-,-,-,-,3.4100000858306885,8.119999885559082,0.12999999523162842,-,-,2.75,1.7100000381469727,6.920000076293945,10.739999771118164,7.71999979019165,6.440000057220459,2.059999942779541,2.1500000953674316,-,3.2200000286102295,1.3700000047683716,0.5600000023841858,-,-,-,57.30000305175781,2020,07,12
91,92,480,Chanthaburi,Eastern,12.61666694,102.1133333,-,-,-,-,-,-,-,-,-,-,0.10999999940395355,0.23000000417232513,0.9700000286102295,0.14000000059604645,-,0.6899999976158142,3.130000114440918,-,0.38999998569488525,-,-,-,-,-,5.660000324249268,2020,07,12
92,93,481,Pluei (1),Eastern,12.50861111,102.1730556,-,-,-,-,-,-,-,-,0.18000000715255737,0.05000000074505806,-,3.7100000381469727,6.369999885559082,0.49000000953674316,-,0.9900000095367432,3.130000114440918,0.23999999463558197,1.0,-,-,-,-,-,16.15999984741211,2020,07,12
93,94,501,Khlong Yai,Eastern,11.76666694,102.8833336,-,-,-,-,-,-,-,-,-,0.5600000023841858,1.5199999809265137,1.7599999904632568,0.75,-,-,0.019999999552965164,-,-,-,-,0.3100000023841858,-,-,-,4.920000076293945,2020,07,12
94,95,465,Phetchaburi,Southern EastCoast,12.99930556,100.0605278,-,0.6800000071525574,2.369999885559082,-,2.0299999713897705,0.1599999964237213,11.079999923706055,4.809999942779541,-,5.329999923706055,-,7.829999923706055,-,5.829999923706055,-,-,-,-,-,5.159999847412109,-,-,2.569999933242798,-,47.85000228881836,2020,07,12
95,96,474,Nong Plub (1),Southern EastCoast,12.58925,99.73461111,-,-,-,-,-,-,0.3799999952316284,-,-,-,5.860000133514404,3.759999990463257,8.4399995803833,5.630000114440918,2.640000104904175,1.5700000524520874,-,-,-,0.2199999988079071,1.659999966621399,-,1.0099999904632568,0.6100000143051147,31.779998779296875,2020,07,12
96,97,475,Hua Hin,Southern EastCoast,12.57797222,99.95372222,-,3.569999933242798,-,-,0.18000000715255737,-,-,-,-,-,0.4399999976158142,6.119999885559082,5.949999809265137,2.950000047683716,0.05000000074505806,1.4700000286102295,-,-,-,-,1.090000033378601,-,-,-,21.819997787475586,2020,07,12
97,98,500,Prachuap Khiri Khan,Southern EastCoast,11.83497222,99.81047222,-,-,-,-,-,-,-,-,-,0.6299999952316284,-,-,-,1.600000023841858,0.20000000298023224,-,1.5299999713897705,-,-,-,0.03999999910593033,-,1.2699999809265137,1.059999942779541,6.329999923706055,2020,07,12
98,99,517,Chumphon,Southern EastCoast,10.49875,99.18847222,0.10000000149011612,-,-,-,-,-,-,-,-,0.05000000074505806,0.9700000286102295,-,-,-,1.7100000381469727,1.1699999570846558,-,2.4200000762939453,1.1200000047683716,2.8299999237060547,1.6699999570846558,3.190000057220459,0.550000011920929,-,15.780001640319824,2020,07,12
99,100,520,Sawee (1),Southern EastCoast,10.33063889,99.09186111,-,-,-,-,-,-,-,-,-,-,0.47999998927116394,-,-,-,2.130000114440918,1.1699999570846558,0.6800000071525574,5.019999980926514,-,1.840000033378601,1.3600000143051147,4.619999885559082,0.550000011920929,-,17.849998474121094,2020,07,12
100,101,551,Surat Thani,Southern EastCoast,9.1335,99.15213889,3.119999885559082,-,-,-,-,-,-,-,-,0.36000001430511475,-,1.0399999618530273,0.8100000023841858,9.8100004196167,2.609999895095825,-,-,1.3600000143051147,1.6299999952316284,0.5199999809265137,1.0499999523162842,-,8.130000114440918,33.400001525878906,63.84000015258789,2020,07,12
101,102,555,Surat Thani (1),Southern EastCoast,9.144805556,99.63361111,-,-,-,-,-,-,-,-,-,-,0.05000000074505806,3.4100000858306885,2.7100000381469727,-,0.4699999988079071,-,-,-,-,-,0.05999999865889549,-,-,-,6.699999809265137,2020,07,12
102,103,550,Ko Samui,Southern EastCoast,9.466666667,100.05,-,-,-,-,-,-,-,-,-,-,-,-,1.0099999904632568,0.05000000074505806,-,-,0.8100000023841858,-,-,-,-,-,-,-,1.869999885559082,2020,07,12
103,104,556,Prasang (2),Southern EastCoast,8.572083333,99.25519444,-,-,-,-,-,-,-,-,-,3.1500000953674316,3.890000104904175,4.570000171661377,4.920000076293945,2.319999933242798,0.05000000074505806,-,-,-,-,-,-,0.10000000149011612,-,0.6100000143051147,19.610000610351562,2020,07,12
104,105,557,Chawang (2),Southern EastCoast,8.424694444,99.50661111,-,-,-,-,-,-,-,-,-,-,-,4.920000076293945,3.950000047683716,2.5899999141693115,1.940000057220459,0.800000011920929,-,-,-,0.8700000047683716,-,-,-,-,15.069999694824219,2020,07,12
105,106,552,Nakhon Si Thammarat,Southern EastCoast,8.537777777999999,99.94722222,-,-,-,-,-,-,-,-,-,-,-,2.259999990463257,-,-,-,6.880000114440918,-,-,-,-,-,-,-,-,9.140000343322754,2020,07,12
106,107,554,Nakhon Si Thammarat (1),Southern EastCoast,8.359305556,100.0,-,-,-,-,-,-,-,-,-,2.6500000953674316,-,-,-,-,-,1.4700000286102295,8.130000114440918,-,-,-,-,-,-,-,12.25,2020,07,12
107,108,560,Pattalung (1),Southern EastCoast,7.583333611,100.1666669,-,-,-,-,-,-,-,-,-,3.869999885559082,1.3300000429153442,4.800000190734863,-,-,-,-,-,-,-,-,-,0.20000000298023224,-,-,10.199999809265137,2020,07,12
108,109,568,Songkhla,Southern EastCoast,7.182111111,100.6076944,-,-,-,-,-,-,-,-,-,0.7099999785423279,1.440000057220459,-,-,-,1.6399999856948853,0.47999998927116394,-,-,-,2.819999933242798,-,-,-,-,7.090000152587891,2020,07,12
109,110,569,Hat Yai,Southern EastCoast,6.916666944,100.43333359999998,0.23999999463558197,-,-,-,-,-,-,-,-,1.8300000429153442,2.009999990463257,0.8299999833106995,-,-,-,0.36000001430511475,-,-,-,-,-,-,-,-,5.269999980926514,2020,07,12
110,111,571,Korhong (1),Southern EastCoast,7.0,100.5,0.05999999865889549,-,-,-,-,-,-,-,-,0.6100000143051147,2.1700000762939453,0.8700000047683716,-,-,2.880000114440918,0.9700000286102295,-,-,-,-,-,-,-,-,7.559999942779541,2020,07,12
111,112,574,Sa Dao (2),Southern EastCoast,6.798055556,100.3905556,0.4399999976158142,-,-,-,-,-,-,-,-,0.14000000059604645,2.619999885559082,0.8299999833106995,-,-,-,-,-,-,-,-,-,-,-,-,4.029999732971191,2020,07,12
112,113,580,Pattani,Southern EastCoast,6.7833336110000015,101.1500003,-,-,-,-,-,-,-,-,-,1.340000033378601,-,0.14000000059604645,-,-,-,1.7100000381469727,2.2200000286102295,3.6600000858306885,2.880000114440918,-,-,-,-,1.3899999856948853,13.34000015258789,2020,07,12
113,114,581,Yala (1),Southern EastCoast,6.050000278,101.2833336,0.5600000023841858,-,0.8999999761581421,-,-,-,-,-,-,1.350000023841858,5.96999979019165,9.220000267028809,5.929999828338623,2.069999933242798,1.3899999856948853,0.7099999785423279,-,-,-,-,-,-,-,-,28.09999656677246,2020,07,12
114,115,583,Narathiwat,Southern EastCoast,6.416666944,101.81666690000002,3.9100000858306885,-,-,-,-,-,-,-,-,-,-,3.2200000286102295,5.070000171661377,3.0899999141693115,5.409999847412109,0.07999999821186066,-,-,-,-,-,-,0.03999999910593033,2.359999895095825,23.180002212524414,2020,07,12
115,116,532,Ranong,Southern WestCoast,9.983333611,98.61666694,1.3799999952316284,-,-,-,-,-,-,-,-,-,-,1.8700000047683716,1.9199999570846558,0.3700000047683716,1.909999966621399,2.5899999141693115,3.609999895095825,-,0.10000000149011612,-,-,-,-,-,13.75,2020,07,12
116,117,561,Takua Pa,Southern WestCoast,8.684166667000001,98.25222222,-,-,-,-,-,-,-,-,-,34.310001373291016,7.199999809265137,5.71999979019165,0.949999988079071,-,-,0.800000011920929,-,-,2.640000104904175,1.3799999952316284,0.41999998688697815,-,-,-,53.42000198364258,2020,07,12
117,118,564,Phuket,Southern WestCoast,7.883333611,98.40000028,0.009999999776482582,-,-,-,-,-,-,-,-,-,-,-,-,1.6399999856948853,1.190000057220459,-,-,-,-,2.259999990463257,3.9000000953674316,-,0.009999999776482582,-,9.010000228881836,2020,07,12
118,119,565,Phuket Airport,Southern WestCoast,8.145,98.31444444,6.150000095367432,-,-,-,-,-,-,-,-,-,1.0199999809265137,1.2699999809265137,1.600000023841858,3.7699999809265137,0.029999999329447746,-,-,1.2300000190734863,0.8500000238418579,0.23999999463558197,0.05999999865889549,-,-,-,16.220001220703125,2020,07,12
119,120,563,Krabi,Southern WestCoast,8.103611111000001,98.97527778,-,-,-,-,-,-,-,-,-,-,0.25999999046325684,0.3100000023841858,1.6100000143051147,6.860000133514404,3.690000057220459,1.2100000381469727,-,-,-,-,-,-,0.36000001430511475,-,14.299999237060547,2020,07,12
120,121,566,Ko Lanta,Southern WestCoast,7.5333336110000015,99.05000028,-,-,-,-,-,-,-,-,-,-,-,-,-,-,0.11999999731779099,-,-,-,-,-,0.019999999552965164,-,-,-,0.14000000059604645,2020,07,12
121,122,567,Trang,Southern WestCoast,7.516666944,99.61666694,-,-,-,-,-,-,-,-,-,2.880000114440918,-,1.090000033378601,-,-,-,-,-,-,-,-,-,-,-,-,3.9700002670288086,2020,07,12
122,123,570,Satun,Southern WestCoast,6.650000277999999,100.0833336,0.029999999329447746,-,-,-,-,-,-,-,-,-,0.49000000953674316,-,-,-,0.6800000071525574,-,-,-,-,-,-,-,-,-,1.2000000476837158,2020,07,12
