,ID,WMO_CODE,NAME_EN,Region,Latitude,Longitude,00Z,01Z,02Z,03Z,04Z,05Z,06Z,07Z,08Z,09Z,10Z,11Z,12Z,13Z,14Z,15Z,16Z,17Z,18Z,19Z,20Z,21Z,22Z,23Z,sum,year,month,day
0,1,300,Mae Hong Son,Northern,19.29897222,97.97577778,-,-,-,-,-,-,-,-,-,-,-,-,-,-,-,-,-,0.07000000029802322,-,-,-,-,0.46000000834465027,-,0.5300000309944153,2022,09,28
1,2,325,Mae Sariang,Northern,18.16666667,97.93333333,-,-,-,-,-,-,-,-,-,-,-,0.6499999761581421,-,0.6200000047683716,-,-,-,-,-,-,-,-,0.07000000029802322,-,1.340000033378601,2022,09,28
2,3,303,Chiang Rai,Northern,19.96138889,99.88138889,-,-,-,-,-,-,-,-,-,-,-,-,-,-,-,-,-,-,-,-,-,-,-,-,-,2022,09,28
3,4,304,Chiang Rai (1),Northern,19.87083333,99.78277778,-,-,-,-,-,-,-,-,-,-,-,-,-,-,-,-,0.3799999952316284,0.07000000029802322,-,-,-,-,-,-,0.44999998807907104,2022,09,28
4,5,310,Phayao,Northern,19.13333333,99.9,-,-,-,-,-,-,-,-,-,-,-,-,-,-,-,-,-,-,-,-,-,-,-,-,-,2022,09,28
5,6,327,Chiang Mai,Northern,18.79,98.97694444,-,-,-,-,-,-,-,-,-,-,-,-,-,-,0.25999999046325684,-,-,1.659999966621399,-,-,-,-,-,-,1.9199999570846558,2022,09,28
6,7,302,Doi Angkhlang,Northern,19.93138889,99.04833333,-,-,-,-,-,-,-,-,-,-,-,-,-,-,-,-,-,-,-,-,-,-,-,-,-,2022,09,28
7,8,331,Nan,Northern,18.77972222,100.7777778,-,-,-,-,-,-,-,-,-,-,0.8799999952316284,2.9800000190734863,-,-,-,-,-,-,-,-,-,-,-,-,3.8600001335144043,2022,09,28
8,9,333,Nan (1),Northern,18.86666667,100.75,-,-,-,-,-,-,-,-,-,-,0.5099999904632568,2.630000114440918,-,-,-,-,-,-,-,-,-,-,-,-,3.140000104904175,2022,09,28
9,10,315,Tha Wang Pha (2),Northern,19.11055556,100.8025,-,-,-,-,-,-,-,-,-,-,-,0.019999999552965164,-,-,0.6499999761581421,-,-,-,-,-,2.7899999618530273,-,-,-,3.4600000381469727,2022,09,28
10,11,307,Thung Chang (2),Northern,19.41194444,100.8835278,-,-,-,-,-,0.7799999713897705,-,-,-,-,-,-,1.7200000286102295,-,-,-,-,-,-,-,-,-,-,-,2.5,2022,09,28
11,12,329,Lamphun,Northern,18.56666667,99.03333333,-,-,-,-,-,-,-,-,-,-,-,-,-,-,-,-,-,-,-,-,-,-,-,-,-,2022,09,28
12,13,328,Lampang,Northern,18.33333333,99.51666667,-,-,-,-,-,-,-,-,-,-,-,-,-,-,-,-,-,-,-,-,-,0.029999999329447746,-,-,0.029999999329447746,2022,09,28
13,14,334,Lampang (1),Northern,18.31666667,99.28333333,-,-,-,-,-,-,-,-,-,-,-,-,-,-,-,-,-,-,-,-,-,-,-,-,-,2022,09,28
14,15,324,Thoen,Northern,17.63661111,99.24475,-,-,-,-,-,-,0.09000000357627869,-,-,-,-,-,-,-,-,-,-,-,-,0.12999999523162842,-,-,-,0.07000000029802322,0.28999999165534973,2022,09,28
15,16,330,Phrae,Northern,18.16666667,100.1666667,-,-,-,-,-,-,-,-,-,-,-,1.1399999856948853,-,-,-,-,-,-,-,-,-,-,-,-,1.1399999856948853,2022,09,28
16,17,351,Uttaradit,Northern,17.61666667,100.1000028,-,-,-,-,-,-,-,-,-,-,-,-,-,-,-,0.10000000149011612,0.09000000357627869,2.5199999809265137,6.059999942779541,-,-,-,-,-,8.770000457763672,2022,09,28
17,18,372,Sukhothai,Northern,17.10611111,99.8,-,-,-,-,-,-,-,-,-,-,0.05000000074505806,0.009999999776482582,-,-,-,-,-,-,-,-,-,-,-,-,0.06000000238418579,2022,09,28
18,19,373,Si Samrong (1),Northern,17.77361111,99.24944444,-,-,-,-,-,-,-,-,-,-,-,-,-,-,-,-,-,-,-,1.0499999523162842,-,-,-,-,1.0499999523162842,2022,09,28
19,20,377,Bhumibol Dam,Northern,17.24391667,99.00252778,-,-,-,-,-,-,-,-,-,-,-,-,-,-,-,-,-,-,-,-,-,0.7300000190734863,-,-,0.7300000190734863,2022,09,28
20,21,376,Tak,Northern,16.87836111,99.14336111,-,-,-,-,-,-,-,-,-,-,0.6800000071525574,-,-,-,-,-,-,-,6.929999828338623,-,2.1600000858306885,14.640000343322754,-,-,24.40999984741211,2022,09,28
21,22,375,Mae Sot,Northern,16.65916667,98.55086111,0.019999999552965164,-,-,-,-,-,-,-,-,-,-,-,-,-,-,-,4.829999923706055,-,-,3.319999933242798,-,-,10.760000228881836,0.009999999776482582,18.940000534057617,2022,09,28
22,23,385,Umphang (2),Northern,16.02472222,98.86444444,-,-,-,-,-,-,-,-,-,-,-,-,-,-,-,-,-,-,-,-,-,-,0.49000000953674316,0.18000000715255737,0.6700000166893005,2022,09,28
23,24,387,Doi Muser (1),Northern,16.75,98.93333611,-,-,-,-,-,-,-,-,-,-,-,-,-,-,-,-,-,-,-,1.0499999523162842,-,8.84000015258789,6.900000095367432,-,16.790000915527344,2022,09,28
24,25,378,Phitsanulok,Northern,16.79622222,100.2759444,-,-,-,-,-,-,-,-,-,0.9100000262260437,0.46000000834465027,-,1.7899999618530273,3.0,5.400000095367432,0.699999988079071,-,-,0.1899999976158142,-,-,-,-,-,12.44999885559082,2022,09,28
25,26,374,Lom Sak (2),Northern,16.77363889,101.2494722,-,-,-,-,-,-,-,0.9100000262260437,6.239999771118164,2.490000009536743,0.6800000071525574,3.2899999618530273,17.219999313354492,5.730000019073486,-,0.7099999785423279,4.78000020980835,6.239999771118164,8.220000267028809,2.509999990463257,5.679999828338623,1.0,-,-,65.69998931884766,2022,09,28
26,27,379,Phetchabun,Northern,16.43333611,101.15,-,-,-,-,-,-,-,1.2699999809265137,0.7799999713897705,2.7200000286102295,2.950000047683716,1.6100000143051147,2.6500000953674316,0.029999999329447746,-,-,0.20999999344348907,1.8799999952316284,3.049999952316284,2.940000057220459,1.9199999570846558,1.3899999856948853,-,-,23.399999618530273,2022,09,28
27,28,413,Wichian Buri (2),Northern,15.65694444,101.1083333,-,-,-,-,-,-,-,-,-,0.9100000262260437,-,0.8600000143051147,-,-,-,-,-,-,-,-,1.4900000095367432,1.3899999856948853,-,-,4.650000095367432,2022,09,28
28,29,380,Kamphaeng Phet,Northern,16.48680556,99.52697222,-,-,-,-,-,-,-,-,-,-,-,1.4800000190734863,2.9200000762939453,-,0.009999999776482582,0.27000001072883606,-,-,-,-,2.450000047683716,15.970000267028809,-,-,23.100000381469727,2022,09,28
29,30,386,Phicit (1),Northern,16.33861111,100.3671111,-,-,-,-,-,-,-,-,-,-,2.819999933242798,3.6600000858306885,1.2300000190734863,1.0700000524520874,-,-,-,-,-,-,-,-,-,-,8.779999732971191,2022,09,28
30,31,352,Nong Khai,Northeastern,17.86716667,102.7330278,0.9700000286102295,-,-,0.09000000357627869,-,3.309999942779541,-,3.700000047683716,2.5299999713897705,-,1.2599999904632568,2.2899999618530273,2.7300000190734863,0.3400000035762787,2.190000057220459,-,3.5,0.6800000071525574,-,-,-,-,-,-,23.59000015258789,2022,09,28
31,32,353,Loei,Northeastern,17.45,101.7333333,-,-,-,-,-,-,-,6.53000020980835,4.050000190734863,-,0.05000000074505806,0.6800000071525574,1.7599999904632568,3.309999942779541,2.390000104904175,5.739999771118164,2.509999990463257,1.8200000524520874,-,-,0.18000000715255737,0.4000000059604645,-,-,29.420000076293945,2022,09,28
32,33,350,Loei (1),Northeastern,17.4,101.7333333,-,-,-,-,-,-,-,4.190000057220459,4.559999942779541,0.36000001430511475,0.4099999964237213,1.8200000524520874,2.0899999141693115,4.119999885559082,0.5,7.309999942779541,2.509999990463257,1.5199999809265137,-,2.509999990463257,-,-,-,-,31.899999618530273,2022,09,28
33,34,354,Udon Thani,Northeastern,17.38333333,102.8,-,-,-,-,0.05000000074505806,1.4700000286102295,-,5.420000076293945,1.4700000286102295,-,8.199999809265137,6.800000190734863,6.920000076293945,9.65999984741211,4.570000171661377,-,2.0,-,2.3299999237060547,1.559999942779541,-,-,-,-,50.45000076293945,2022,09,28
34,35,357,Nakhon Phanom,Northeastern,17.41083333,104.7825,-,5.670000076293945,1.8700000047683716,-,4.78000020980835,1.4800000190734863,1.8799999952316284,-,2.9800000190734863,1.409999966621399,1.409999966621399,-,0.7200000286102295,-,-,-,-,-,-,-,-,-,-,-,22.19999885559082,2022,09,28
35,36,358,Nakhon Phanom (1),Northeastern,17.44305556,104.7736111,-,6.71999979019165,1.659999966621399,-,3.119999885559082,2.309999942779541,3.369999885559082,4.579999923706055,3.319999933242798,1.5800000429153442,2.049999952316284,-,0.7200000286102295,-,-,-,-,-,-,-,-,-,-,-,29.42999839782715,2022,09,28
36,37,356,Sakon Nakhon,Northeastern,17.15000278,104.1333361,-,2.319999933242798,4.159999847412109,1.649999976158142,0.7900000214576721,5.070000171661377,2.940000057220459,0.6800000071525574,5.539999961853027,4.269999980926514,6.389999866485596,6.0,5.489999771118164,1.4700000286102295,0.3100000023841858,-,-,-,-,-,-,-,-,-,47.08000564575195,2022,09,28
37,38,355,Sakon Nakhon (1),Northeastern,17.12502778,104.061,-,1.2999999523162842,3.190000057220459,2.799999952316284,0.7900000214576721,5.619999885559082,4.010000228881836,-,3.0899999141693115,4.760000228881836,2.640000104904175,8.369999885559082,6.309999942779541,0.5699999928474426,0.5299999713897705,-,-,-,-,-,-,-,-,-,43.97999954223633,2022,09,28
38,39,360,Nong Bua Lumphu,Northeastern,17.2325,102.4294444,-,-,-,-,-,1.0800000429153442,2.240000009536743,4.489999771118164,1.659999966621399,0.47999998927116394,4.920000076293945,10.239999771118164,7.619999885559082,2.4800000190734863,4.78000020980835,2.680000066757202,0.8899999856948853,-,0.12999999523162842,1.559999942779541,-,-,-,-,45.25,2022,09,28
39,40,383,Mukdahan,Northeastern,16.54955556,104.7308889,-,2.619999885559082,3.8299999237060547,7.039999961853027,3.7100000381469727,6.980000019073486,5.170000076293945,1.4500000476837158,0.800000011920929,0.07999999821186066,-,-,2.3399999141693115,0.10999999940395355,-,-,-,-,-,-,-,-,-,-,34.130001068115234,2022,09,28
40,41,381,Khon Kaen,Northeastern,16.46111111,102.7897222,-,-,0.46000000834465027,3.130000114440918,0.3400000035762787,1.600000023841858,4.28000020980835,6.239999771118164,6.400000095367432,1.7000000476837158,-,0.10999999940395355,1.1200000047683716,4.630000114440918,-,1.9700000286102295,2.299999952316284,0.30000001192092896,-,-,-,-,-,-,34.58000183105469,2022,09,28
41,42,384,Tha Pra (1),Northeastern,16.333,102.8166667,-,-,0.8299999833106995,1.5700000524520874,0.9100000262260437,2.440000057220459,4.25,4.989999771118164,4.630000114440918,2.0899999141693115,-,2.430000066757202,3.0799999237060547,4.929999828338623,0.09000000357627869,0.4399999976158142,0.7900000214576721,-,-,-,-,-,-,-,33.46999740600586,2022,09,28
42,43,382,Kosum Phisai (2),Northeastern,16.24722222,103.0680556,-,-,1.1399999856948853,1.0399999618530273,2.5399999618530273,1.4900000095367432,3.3399999141693115,5.489999771118164,7.050000190734863,1.7100000381469727,0.4099999964237213,4.400000095367432,2.9600000381469727,3.200000047683716,-,1.1699999570846558,0.12999999523162842,-,-,-,-,-,-,-,36.06999969482422,2022,09,28
43,44,390,Kamalasai (2),Northeastern,16.3325,103.5883333,-,0.8199999928474426,-,2.4100000858306885,2.690000057220459,5.289999961853027,2.059999942779541,5.989999771118164,2.049999952316284,-,-,-,0.03999999910593033,-,-,0.3199999928474426,-,-,-,-,-,-,-,-,21.670000076293945,2022,09,28
44,45,405,Roi Et,Northeastern,16.05000028,103.68333359999998,-,1.75,3.440000057220459,2.9700000286102295,3.4000000953674316,2.1600000858306885,2.859999895095825,4.889999866485596,1.7400000095367432,3.0299999713897705,0.05000000074505806,1.1799999475479126,-,-,1.7799999713897705,-,-,-,-,-,-,-,-,-,29.25,2022,09,28
45,46,404,Roi Et (1),Northeastern,16.07322222,103.6084444,-,1.6299999952316284,3.2200000286102295,3.069999933242798,4.190000057220459,0.5799999833106995,2.690000057220459,4.889999866485596,3.4000000953674316,2.7200000286102295,-,1.809999942779541,-,-,0.2800000011920929,-,-,-,-,-,-,-,-,-,28.479999542236328,2022,09,28
46,47,403,Chaiyaphum,Northeastern,15.80000028,102.0333336,-,-,-,-,0.7200000286102295,1.2599999904632568,-,0.7699999809265137,3.640000104904175,3.4000000953674316,1.409999966621399,1.2799999713897705,2.880000114440918,-,1.75,2.450000047683716,0.2199999988079071,1.149999976158142,3.25,3.3499999046325684,0.6100000143051147,0.4099999964237213,-,-,28.55000114440918,2022,09,28
47,48,407,Ubon Ratchathani,Northeastern,15.25000278,104.8666694,-,1.4900000095367432,2.869999885559082,5.420000076293945,7.449999809265137,0.9100000262260437,0.4099999964237213,0.7200000286102295,-,-,-,-,-,-,2.630000114440918,-,-,-,-,-,-,-,-,-,21.89999771118164,2022,09,28
48,49,408,Ubon Ratchathani (1),Northeastern,15.24072222,105.01966670000002,-,2.7200000286102295,3.390000104904175,6.739999771118164,6.0,2.5399999618530273,0.05000000074505806,0.4099999964237213,-,-,0.009999999776482582,-,-,0.9200000166893005,-,-,-,-,-,-,-,-,-,-,22.779998779296875,2022,09,28
49,50,409,Si Saket (1),Northeastern,15.00000028,104.0500003,-,3.180000066757202,1.8200000524520874,2.9200000762939453,2.7300000190734863,1.809999942779541,0.8700000047683716,1.9700000286102295,1.1200000047683716,0.09000000357627869,0.4099999964237213,1.8300000429153442,-,-,-,-,0.49000000953674316,-,-,-,-,-,-,-,19.239999771118164,2022,09,28
50,51,416,Tha Tum (2),Northeastern,15.31666694,103.68333359999998,-,3.359999895095825,3.0199999809265137,3.9200000762939453,2.3299999237060547,1.1200000047683716,1.7100000381469727,1.3200000524520874,0.75,3.6600000858306885,3.0199999809265137,6.659999847412109,0.27000001072883606,-,1.2100000381469727,0.14000000059604645,-,-,-,-,-,-,-,-,32.4900016784668,2022,09,28
51,52,432,Surin,Northeastern,14.88333361,103.5000003,-,0.4000000059604645,4.679999828338623,1.600000023841858,4.78000020980835,0.9100000262260437,0.05000000074505806,2.7799999713897705,1.75,0.550000011920929,-,0.9900000095367432,8.920000076293945,2.4800000190734863,-,-,0.09000000357627869,0.019999999552965164,-,-,-,-,-,-,30.0,2022,09,28
52,53,433,Surin (1),Northeastern,14.88333361,103.4500003,-,0.30000001192092896,5.349999904632568,1.840000033378601,1.7400000095367432,1.1200000047683716,0.4099999964237213,3.0,0.9100000262260437,0.6800000071525574,0.05000000074505806,1.2599999904632568,9.239999771118164,1.7699999809265137,1.600000023841858,-,-,0.019999999552965164,-,-,-,-,-,-,29.290000915527344,2022,09,28
53,54,431,Nakhon Ratchasima,Northeastern,14.96830556,102.0860278,0.12999999523162842,-,-,0.6899999976158142,-,3.940000057220459,-,-,-,0.9100000262260437,0.05000000074505806,-,-,1.8300000429153442,2.9600000381469727,2.0399999618530273,0.41999998688697815,0.7900000214576721,1.0299999713897705,-,1.5800000429153442,0.5899999737739563,1.899999976158142,8.710000038146973,27.569997787475586,2022,09,28
54,55,435,Pakchong (1),Northeastern,14.64388889,101.3319444,1.6100000143051147,-,-,-,-,-,-,1.559999942779541,-,1.1200000047683716,2.0799999237060547,-,-,-,-,-,0.41999998688697815,-,0.9700000286102295,-,-,-,-,-,7.759999752044678,2022,09,28
55,56,434,Chok Chai (2),Northeastern,14.71888889,102.1686111,1.059999942779541,-,-,1.0399999618530273,0.20999999344348907,1.5199999809265137,-,-,-,0.3400000035762787,-,-,-,0.10999999940395355,0.949999988079071,5.550000190734863,0.8799999952316284,1.5099999904632568,3.0999999046325684,2.509999990463257,5.320000171661377,4.480000019073486,2.7200000286102295,1.440000057220459,32.73999786376953,2022,09,28
56,57,437,Buri Ram,Northeastern,15.22575,103.2480833,-,0.10000000149011612,5.650000095367432,0.699999988079071,2.950000047683716,0.7200000286102295,0.05000000074505806,3.1700000762939453,2.2100000381469727,2.4000000953674316,3.799999952316284,3.8399999141693115,6.099999904632568,0.8799999952316284,-,-,0.8500000238418579,0.6399999856948853,-,-,-,-,-,-,34.05999755859375,2022,09,28
57,58,436,Nang Rong (2),Northeastern,14.58333361,102.8000003,-,-,0.9900000095367432,1.9600000381469727,0.75,-,1.6100000143051147,-,-,-,0.4099999964237213,-,-,2.569999933242798,4.78000020980835,2.109999895095825,1.5099999904632568,-,2.2699999809265137,1.6299999952316284,1.9500000476837158,-,-,-,22.53999900817871,2022,09,28
58,59,400,Nakhon Sawan,Central,15.67183333,100.1323611,-,-,-,-,-,-,-,-,-,-,-,-,0.23999999463558197,1.9700000286102295,-,-,-,-,0.07000000029802322,-,-,-,-,-,2.2799999713897705,2022,09,28
59,60,401,Takfa (1),Central,15.34944444,100.5302778,-,-,-,-,-,-,-,-,-,-,-,-,0.8899999856948853,1.3799999952316284,-,-,-,-,-,-,-,-,-,-,2.2699999809265137,2022,09,28
60,61,402,Chai Nat,Central,15.15000278,100.18333359999998,-,-,-,-,-,-,-,-,-,-,-,-,-,2.4600000381469727,-,-,-,-,-,-,-,-,-,-,2.4600000381469727,2022,09,28
61,62,410,U Thai Thani,Central,15.37416667,100.0388889,-,-,-,-,-,-,-,-,-,-,-,-,-,0.1599999964237213,-,-,-,-,-,-,1.350000023841858,0.5400000214576721,-,-,2.049999952316284,2022,09,28
62,63,415,Ayuthaya (1),Central,14.53472222,100.725,-,-,-,-,-,-,-,-,-,-,-,0.9700000286102295,0.3100000023841858,2.5399999618530273,-,-,-,-,-,-,0.3100000023841858,2.2100000381469727,-,-,6.340000152587891,2022,09,28
63,64,418,Bua Chum (2),Central,15.10000028,101.6166669,5.440000057220459,-,-,-,-,1.5199999809265137,-,-,-,0.3400000035762787,2.0999999046325684,-,-,-,0.7699999809265137,3.5199999809265137,0.41999998688697815,-,0.8500000238418579,0.33000001311302185,-,0.10999999940395355,-,5.510000228881836,20.90999984741211,2022,09,28
64,65,426,Lop Buri,Central,14.79972222,100.6283333,-,-,-,-,-,-,-,-,-,-,-,-,1.659999966621399,2.680000066757202,-,-,-,-,-,-,1.5299999713897705,1.8700000047683716,-,-,7.739999771118164,2022,09,28
65,66,425,Suphan Buri,Central,14.47444444,100.1388889,-,-,-,-,-,-,-,-,-,-,-,-,-,1.1399999856948853,4.800000190734863,22.690000534057617,2.950000047683716,-,-,-,-,-,-,-,31.580001831054688,2022,09,28
66,67,427,Uthong (1),Central,14.30361111,99.86472222,-,-,14.180000305175781,-,-,-,-,-,-,-,-,-,-,0.10999999940395355,-,9.170000076293945,8.970000267028809,1.6100000143051147,1.2599999904632568,-,0.14000000059604645,-,-,-,35.439998626708984,2022,09,28
67,68,421,Thong Pha Phum,Central,14.74222222,98.63638889,-,-,-,-,-,-,-,-,-,-,-,-,-,-,-,-,-,-,0.18000000715255737,-,-,-,-,-,0.18000000715255737,2022,09,28
68,69,450,Kanchanaburi,Central,14.0225,99.53583333,-,-,-,-,-,-,-,-,-,-,-,-,-,-,-,-,7.760000228881836,2.630000114440918,-,-,-,-,-,-,10.390000343322754,2022,09,28
69,70,464,Ratcha Buri (1),Central,13.48930556,99.79238889,-,-,-,-,-,-,-,-,-,-,-,-,-,-,-,-,-,-,-,-,-,-,-,-,-,2022,09,28
70,71,451,Kampheang Saen (1),Central,14.01166667,99.97,-,-,0.2199999988079071,-,-,1.7799999713897705,-,-,-,-,-,-,0.46000000834465027,-,-,6.0,5.070000171661377,1.7300000190734863,-,1.2300000190734863,-,-,-,-,16.489999771118164,2022,09,28
71,72,419,Pathum Thani (1),Central,14.1,100.616,-,-,-,-,-,-,-,-,-,-,-,1.7400000095367432,-,-,-,-,0.14000000059604645,-,-,-,0.03999999910593033,-,1.149999976158142,-,3.069999933242798,2022,09,28
72,73,420,Samut Prakan,Central,13.51666694,100.7616667,-,-,-,-,-,-,-,0.019999999552965164,0.05000000074505806,-,-,1.4900000095367432,1.909999966621399,-,0.5299999713897705,9.350000381469727,2.450000047683716,-,4.71999979019165,-,-,-,-,-,20.520000457763672,2022,09,28
73,74,429,Suvarnabhumi Airport,Central,13.68638889,100.7675,-,-,-,-,-,-,-,-,0.2199999988079071,-,-,0.2199999988079071,0.699999988079071,-,-,-,-,-,-,-,-,-,0.6800000071525574,-,1.8199999332427979,2022,09,28
74,75,456,Don Muang Airport,Central,13.91916667,100.605,-,-,-,-,-,-,-,-,0.05000000074505806,-,-,0.18000000715255737,-,-,2.630000114440918,-,0.5899999737739563,-,-,0.019999999552965164,1.7400000095367432,-,0.05000000074505806,-,5.260000228881836,2022,09,28
75,76,455,Sirikit Center,Central,13.72638889,100.56,-,-,0.1599999964237213,-,-,-,-,-,0.4300000071525574,-,-,0.949999988079071,0.23999999463558197,-,-,-,0.9900000095367432,-,-,-,-,-,-,-,2.7699999809265137,2022,09,28
76,77,454,Bangkok Port,Central,13.70694444,100.5680556,-,-,-,-,-,-,-,0.019999999552965164,0.6499999761581421,-,-,1.4900000095367432,0.6800000071525574,-,-,-,0.6200000047683716,-,-,-,-,-,0.9800000190734863,-,4.440000057220459,2022,09,28
77,78,453,Bang Na (1),Central,13.66638889,100.6061111,-,-,-,-,-,-,-,-,0.6499999761581421,-,0.5699999928474426,0.949999988079071,0.699999988079071,-,-,-,0.3100000023841858,-,-,-,-,-,2.130000114440918,-,5.310000419616699,2022,09,28
78,79,457,Bangkok Pilot,Central,13.37722222,100.5994444,-,-,-,-,-,-,-,-,-,-,-,-,2.0399999618530273,-,-,9.350000381469727,7.329999923706055,0.6399999856948853,0.9900000095367432,3.799999952316284,-,-,0.009999999776482582,-,24.15999984741211,2022,09,28
79,80,430,Prachin Buri,Eastern,14.05091667,101.3693056,-,-,-,-,-,-,-,0.9300000071525574,0.019999999552965164,-,2.4800000190734863,0.4000000059604645,-,-,-,-,-,0.019999999552965164,0.1899999976158142,-,-,-,-,-,4.039999961853027,2022,09,28
80,81,439,Kabin Buri (2),Eastern,13.98333361,101.7072222,-,-,-,-,-,-,-,0.019999999552965164,0.18000000715255737,-,1.840000033378601,1.159999966621399,-,-,-,-,-,0.44999998807907104,0.1899999976158142,-,5.139999866485596,0.3799999952316284,0.09000000357627869,-,9.449999809265137,2022,09,28
81,82,440,Sa Kaeo (2),Eastern,13.78888889,102.0347222,-,-,-,0.4099999964237213,0.3400000035762787,-,0.27000001072883606,1.2599999904632568,2.700000047683716,1.1399999856948853,3.109999895095825,0.18000000715255737,1.2400000095367432,-,0.20999999344348907,-,-,0.8100000023841858,1.399999976158142,0.07000000029802322,2.369999885559082,0.5899999737739563,3.2899999618530273,-,19.389999389648438,2022,09,28
82,83,462,Aranyaprathet,Eastern,13.70000028,102.5833336,-,-,1.600000023841858,1.4800000190734863,1.6100000143051147,0.8600000143051147,0.6200000047683716,3.8499999046325684,2.440000057220459,2.740000009536743,2.4800000190734863,-,0.6800000071525574,-,-,0.550000011920929,-,0.6899999976158142,-,-,1.0,-,-,-,20.600000381469727,2022,09,28
83,84,458,Chachoengsao (1),Eastern,13.51555556,101.4583333,-,-,-,-,-,-,-,-,-,1.0,-,4.639999866485596,1.600000023841858,-,-,1.7300000190734863,0.9100000262260437,13.819999694824219,0.8600000143051147,2.5199999809265137,-,-,1.7999999523162842,0.4000000059604645,29.279998779296875,2022,09,28
84,85,459,Chon Buri,Eastern,13.36666694,100.9833336,-,-,-,-,-,-,1.0,-,0.05000000074505806,1.559999942779541,0.019999999552965164,0.6100000143051147,2.8399999141693115,-,-,17.729999542236328,0.4099999964237213,0.550000011920929,5.360000133514404,2.5199999809265137,0.019999999552965164,-,-,-,32.66999816894531,2022,09,28
85,86,463,Laem Chabang,Eastern,13.07694444,100.8758333,-,-,-,-,0.20999999344348907,-,1.340000033378601,-,0.8700000047683716,-,-,-,1.190000057220459,0.38999998569488525,-,-,5.070000171661377,3.509999990463257,0.1599999964237213,2.5199999809265137,1.559999942779541,-,-,-,16.81999969482422,2022,09,28
86,87,460,Ko Sichang,Eastern,13.16166667,100.8019444,-,-,-,-,0.20999999344348907,-,1.0700000524520874,0.5199999809265137,0.8700000047683716,-,0.5699999928474426,-,1.6200000047683716,-,-,6.570000171661377,6.380000114440918,1.149999976158142,2.109999895095825,2.5199999809265137,-,-,1.0,-,24.590002059936523,2022,09,28
87,88,461,Pattaya,Eastern,12.92,100.8694444,-,-,-,-,0.3400000035762787,-,2.640000104904175,0.800000011920929,1.0499999523162842,-,-,-,0.9200000166893005,0.28999999165534973,-,-,4.019999980926514,1.2100000381469727,0.5600000023841858,0.8799999952316284,2.0399999618530273,0.2199999988079071,-,-,14.970000267028809,2022,09,28
88,89,477,Sattahip,Eastern,12.68333361,100.9833336,0.3400000035762787,-,-,-,0.9100000262260437,-,1.1299999952316284,2.509999990463257,0.05000000074505806,-,-,-,0.3700000047683716,-,-,-,-,-,-,0.5799999833106995,1.6799999475479126,2.619999885559082,-,-,10.190000534057617,2022,09,28
89,90,478,Rayong,Eastern,12.61702778,101.34075,-,0.09000000357627869,-,-,0.6200000047683716,-,3.369999885559082,2.450000047683716,4.269999980926514,0.019999999552965164,-,-,1.3600000143051147,0.07999999821186066,-,-,-,-,0.029999999329447746,3.140000104904175,2.0799999237060547,0.6100000143051147,1.9700000286102295,0.2199999988079071,20.30999755859375,2022,09,28
90,91,479,Huai Pong (1),Eastern,12.73333361,101.1333336,0.029999999329447746,-,-,-,-,-,1.340000033378601,3.009999990463257,1.6200000047683716,0.019999999552965164,-,-,1.4299999475479126,0.07999999821186066,-,-,-,-,0.4300000071525574,0.8799999952316284,1.559999942779541,1.4900000095367432,-,-,11.889998435974121,2022,09,28
91,92,480,Chanthaburi,Eastern,12.61666694,102.1133333,-,1.190000057220459,-,0.05000000074505806,0.9700000286102295,-,3.569999933242798,2.2799999713897705,3.180000066757202,2.369999885559082,0.9399999976158142,-,2.8399999141693115,0.18000000715255737,0.49000000953674316,-,-,-,0.029999999329447746,3.799999952316284,1.559999942779541,-,-,-,23.44999885559082,2022,09,28
92,93,481,Pluei (1),Eastern,12.50861111,102.1730556,-,0.09000000357627869,-,0.05000000074505806,0.9599999785423279,0.05000000074505806,2.5399999618530273,3.890000104904175,1.2799999713897705,0.7900000214576721,1.1399999856948853,-,0.23999999463558197,0.4399999976158142,-,-,-,0.6899999976158142,-,0.8799999952316284,1.559999942779541,-,-,-,14.599998474121094,2022,09,28
93,94,501,Khlong Yai,Eastern,11.76666694,102.8833336,2.3399999141693115,2.440000057220459,-,-,-,-,-,0.4699999988079071,0.2800000011920929,-,-,-,-,-,0.9800000190734863,3.4000000953674316,8.479999542236328,3.319999933242798,-,-,-,-,1.2100000381469727,1.2899999618530273,24.209999084472656,2022,09,28
94,95,465,Phetchaburi,Southern EastCoast,12.99930556,100.0605278,-,-,-,-,-,-,0.05000000074505806,0.6200000047683716,-,-,-,-,-,-,-,-,-,6.489999771118164,3.0199999809265137,-,-,-,-,-,10.180000305175781,2022,09,28
95,96,474,Nong Plub (1),Southern EastCoast,12.58925,99.73461111,-,-,-,-,-,0.12999999523162842,-,0.4300000071525574,3.619999885559082,1.309999942779541,3.9700000286102295,2.2799999713897705,0.8899999856948853,-,-,-,-,0.07999999821186066,6.210000038146973,2.0299999713897705,1.090000033378601,-,-,-,22.040000915527344,2022,09,28
96,97,475,Hua Hin,Southern EastCoast,12.57797222,99.95372222,0.9100000262260437,-,-,-,-,-,1.1399999856948853,0.8199999928474426,3.880000114440918,0.4000000059604645,3.319999933242798,0.1899999976158142,-,-,-,-,-,2.9700000286102295,5.71999979019165,1.5800000429153442,0.30000001192092896,-,-,-,21.229999542236328,2022,09,28
97,98,500,Prachuap Khiri Khan,Southern EastCoast,11.83497222,99.81047222,-,-,-,-,0.5099999904632568,0.5,-,0.009999999776482582,-,0.8500000238418579,4.630000114440918,3.630000114440918,1.9600000381469727,2.0399999618530273,0.27000001072883606,-,0.6899999976158142,-,-,-,-,1.8600000143051147,5.199999809265137,-,22.150001525878906,2022,09,28
98,99,517,Chumphon,Southern EastCoast,10.49875,99.18847222,1.2200000286102295,-,-,-,-,-,-,-,-,2.8299999237060547,3.869999885559082,-,-,-,-,-,-,-,-,-,-,-,1.4600000381469727,0.23000000417232513,9.609999656677246,2022,09,28
99,100,520,Sawee (1),Southern EastCoast,10.33063889,99.09186111,3.259999990463257,-,-,-,2.2699999809265137,-,-,-,-,8.300000190734863,9.010000228881836,0.47999998927116394,-,-,-,-,-,-,-,-,-,-,0.05999999865889549,-,23.3799991607666,2022,09,28
100,101,551,Surat Thani,Southern EastCoast,9.1335,99.15213889,-,-,-,-,-,-,-,-,-,-,-,1.8899999856948853,0.7300000190734863,0.019999999552965164,0.2199999988079071,-,5.25,-,-,-,-,-,-,-,8.109999656677246,2022,09,28
101,102,555,Surat Thani (1),Southern EastCoast,9.144805556,99.63361111,-,-,-,-,-,-,-,-,-,-,-,-,7.570000171661377,5.880000114440918,5.730000019073486,-,5.25,-,-,-,-,-,-,-,24.43000030517578,2022,09,28
102,103,550,Ko Samui,Southern EastCoast,9.466666667,100.05,-,-,-,-,-,-,-,-,-,1.659999966621399,-,0.10000000149011612,2.4800000190734863,2.609999895095825,0.9800000190734863,-,1.0499999523162842,-,-,-,-,-,-,-,8.879999160766602,2022,09,28
103,104,556,Prasang (2),Southern EastCoast,8.572083333,99.25519444,-,-,-,-,-,-,3.5299999713897705,-,-,-,-,-,-,-,0.6499999761581421,-,-,-,-,-,-,-,-,-,4.179999828338623,2022,09,28
104,105,557,Chawang (2),Southern EastCoast,8.424694444,99.50661111,-,-,-,-,-,-,-,-,-,-,-,-,-,-,-,-,-,-,-,-,-,-,-,-,-,2022,09,28
105,106,552,Nakhon Si Thammarat,Southern EastCoast,8.537777777999999,99.94722222,-,-,-,-,-,-,-,-,-,-,-,-,-,-,2.809999942779541,0.3700000047683716,-,-,-,-,-,-,-,-,3.179999828338623,2022,09,28
106,107,554,Nakhon Si Thammarat (1),Southern EastCoast,8.359305556,100.0,-,-,-,-,-,-,-,-,-,-,-,-,-,-,0.949999988079071,0.1599999964237213,-,-,-,-,-,-,-,0.029999999329447746,1.1399999856948853,2022,09,28
107,108,560,Pattalung (1),Southern EastCoast,7.583333611,100.1666669,-,-,-,-,-,-,-,-,-,-,-,-,-,2.490000009536743,1.4199999570846558,0.8500000238418579,-,-,-,-,-,-,-,-,4.759999752044678,2022,09,28
108,109,568,Songkhla,Southern EastCoast,7.182111111,100.6076944,-,-,-,-,-,-,-,-,-,-,0.800000011920929,-,-,-,-,-,-,-,-,-,-,-,-,-,0.800000011920929,2022,09,28
109,110,569,Hat Yai,Southern EastCoast,6.916666944,100.43333359999998,-,-,-,-,-,-,-,-,-,-,-,-,-,-,-,-,-,0.20999999344348907,-,-,-,-,-,-,0.20999999344348907,2022,09,28
110,111,571,Korhong (1),Southern EastCoast,7.0,100.5,-,-,-,-,-,-,-,-,-,-,-,-,-,-,-,-,-,0.3100000023841858,-,-,-,-,-,-,0.3100000023841858,2022,09,28
111,112,574,Sa Dao (2),Southern EastCoast,6.798055556,100.3905556,-,-,-,-,-,-,-,-,-,-,-,0.18000000715255737,-,-,-,-,-,-,-,-,-,-,-,-,0.18000000715255737,2022,09,28
112,113,580,Pattani,Southern EastCoast,6.7833336110000015,101.1500003,-,-,-,-,-,-,-,-,0.029999999329447746,-,1.0,-,-,-,-,-,-,0.05999999865889549,-,3.559999942779541,-,-,0.2199999988079071,-,4.869999408721924,2022,09,28
113,114,581,Yala (1),Southern EastCoast,6.050000278,101.2833336,-,-,-,-,-,-,-,-,-,-,-,-,-,-,-,-,-,-,-,-,-,-,-,0.10000000149011612,0.10000000149011612,2022,09,28
114,115,583,Narathiwat,Southern EastCoast,6.416666944,101.81666690000002,-,-,-,-,-,-,-,-,-,-,-,-,-,-,-,-,-,-,-,-,-,-,-,-,-,2022,09,28
115,116,532,Ranong,Southern WestCoast,9.983333611,98.61666694,1.2599999904632568,-,-,0.8999999761581421,-,-,-,-,-,-,1.9700000286102295,4.5,8.699999809265137,4.599999904632568,0.10000000149011612,-,5.079999923706055,0.46000000834465027,-,-,-,-,0.05999999865889549,-,27.6299991607666,2022,09,28
116,117,561,Takua Pa,Southern WestCoast,8.684166667000001,98.25222222,0.05000000074505806,-,-,-,-,-,-,0.7300000190734863,-,-,-,5.400000095367432,0.2199999988079071,-,1.2400000095367432,0.4099999964237213,-,-,-,-,-,-,-,-,8.050000190734863,2022,09,28
117,118,564,Phuket,Southern WestCoast,7.883333611,98.40000028,2.5399999618530273,-,-,-,-,-,-,-,-,-,-,-,-,-,-,1.1399999856948853,5.699999809265137,-,1.0399999618530273,0.12999999523162842,-,-,-,-,10.549999237060547,2022,09,28
118,119,565,Phuket Airport,Southern WestCoast,8.145,98.31444444,-,-,-,-,-,-,-,-,2.509999990463257,-,-,-,-,-,-,2.0399999618530273,0.6100000143051147,2.880000114440918,-,-,-,-,-,0.5600000023841858,8.600001335144043,2022,09,28
119,120,563,Krabi,Southern WestCoast,8.103611111000001,98.97527778,-,-,-,-,-,-,-,-,-,-,-,-,-,0.27000001072883606,1.159999966621399,0.1599999964237213,-,-,1.0,-,-,-,-,-,2.5899999141693115,2022,09,28
120,121,566,Ko Lanta,Southern WestCoast,7.5333336110000015,99.05000028,-,2.7799999713897705,-,-,0.15000000596046448,-,-,-,-,3.3399999141693115,-,-,0.47999998927116394,6.639999866485596,2.990000009536743,-,-,-,-,-,-,-,-,-,16.3799991607666,2022,09,28
121,122,567,Trang,Southern WestCoast,7.516666944,99.61666694,-,-,-,-,-,-,-,-,4.800000190734863,5.659999847412109,1.6299999952316284,0.3799999952316284,0.4300000071525574,4.03000020980835,2.299999952316284,0.27000001072883606,-,-,0.07000000029802322,-,-,-,-,-,19.56999969482422,2022,09,28
122,123,570,Satun,Southern WestCoast,6.650000277999999,100.0833336,-,-,-,-,-,-,-,-,-,-,-,1.5099999904632568,0.11999999731779099,-,0.10999999940395355,-,1.7899999618530273,10.130000114440918,0.5400000214576721,0.1599999964237213,-,-,-,-,14.359999656677246,2022,09,28
