,ID,WMO_CODE,NAME_EN,Region,Latitude,Longitude,00Z,01Z,02Z,03Z,04Z,05Z,06Z,07Z,08Z,09Z,10Z,11Z,12Z,13Z,14Z,15Z,16Z,17Z,18Z,19Z,20Z,21Z,22Z,23Z,sum,year,month,day
0,1,300,Mae Hong Son,Northern,19.29897222,97.97577778,-,-,-,-,-,-,-,-,-,-,-,-,-,-,-,1.3700000047683716,2.7300000190734863,-,-,-,-,-,-,-,4.099999904632568,2022,03,22
1,2,325,Mae Sariang,Northern,18.16666667,97.93333333,-,-,-,-,-,-,-,-,-,2.1700000762939453,-,-,1.1200000047683716,-,-,-,-,-,-,-,-,-,-,-,3.2899999618530273,2022,03,22
2,3,303,Chiang Rai,Northern,19.96138889,99.88138889,0.4099999964237213,-,-,-,-,-,-,-,-,0.6700000166893005,-,-,-,-,-,-,-,-,-,-,-,-,-,1.2300000190734863,2.31000018119812,2022,03,22
3,4,304,Chiang Rai (1),Northern,19.87083333,99.78277778,0.75,-,-,-,-,-,-,-,-,-,-,-,-,-,-,-,-,-,-,-,-,-,-,0.8399999737739563,1.5899999141693115,2022,03,22
4,5,310,Phayao,Northern,19.13333333,99.9,-,-,-,-,-,-,-,-,-,-,-,-,-,-,-,-,-,-,-,-,-,0.6700000166893005,2.009999990463257,2.509999990463257,5.190000057220459,2022,03,22
5,6,327,Chiang Mai,Northern,18.79,98.97694444,-,-,-,-,-,-,-,-,-,-,-,-,-,-,-,-,-,-,-,-,-,-,-,-,-,2022,03,22
6,7,302,Doi Angkhlang,Northern,19.93138889,99.04833333,-,-,-,-,-,-,-,-,-,-,-,-,-,-,-,-,-,-,-,-,-,-,-,-,-,2022,03,22
7,8,331,Nan,Northern,18.77972222,100.7777778,-,-,-,-,-,-,-,-,-,-,-,-,-,-,-,-,-,-,-,-,-,-,-,-,-,2022,03,22
8,9,333,Nan (1),Northern,18.86666667,100.75,-,-,-,-,-,-,-,-,-,-,-,-,-,-,-,-,-,-,-,-,-,-,-,-,-,2022,03,22
9,10,315,Tha Wang Pha (2),Northern,19.11055556,100.8025,-,-,-,-,-,-,-,-,-,-,-,-,-,-,-,-,-,-,-,-,-,-,-,-,-,2022,03,22
10,11,307,Thung Chang (2),Northern,19.41194444,100.8835278,-,-,-,-,-,-,-,-,-,-,-,-,-,-,-,-,-,-,-,-,-,-,-,-,-,2022,03,22
11,12,329,Lamphun,Northern,18.56666667,99.03333333,-,-,-,-,-,-,-,-,-,-,-,-,-,-,-,-,-,-,-,-,-,-,-,-,-,2022,03,22
12,13,328,Lampang,Northern,18.33333333,99.51666667,-,-,-,-,-,-,-,-,-,-,-,-,-,-,-,-,-,0.10000000149011612,1.1299999952316284,0.23999999463558197,1.7999999523162842,-,-,-,3.2699999809265137,2022,03,22
13,14,334,Lampang (1),Northern,18.31666667,99.28333333,-,-,-,-,-,-,-,-,-,-,-,-,-,-,-,0.2199999988079071,2.2300000190734863,1.850000023841858,-,-,-,-,-,-,4.300000190734863,2022,03,22
14,15,324,Thoen,Northern,17.63661111,99.24475,-,-,-,-,-,-,-,-,-,-,-,-,-,-,-,0.2199999988079071,3.059999942779541,-,-,-,-,-,-,-,3.2799999713897705,2022,03,22
15,16,330,Phrae,Northern,18.16666667,100.1666667,0.10000000149011612,-,-,-,-,-,-,-,-,-,-,-,-,-,-,-,-,-,-,-,0.6200000047683716,-,-,-,0.7200000286102295,2022,03,22
16,17,351,Uttaradit,Northern,17.61666667,100.1000028,-,-,-,-,-,-,-,-,-,-,-,-,-,-,-,-,-,-,-,-,-,-,-,-,-,2022,03,22
17,18,372,Sukhothai,Northern,17.10611111,99.8,-,-,-,-,-,-,-,-,-,-,-,-,-,-,-,-,-,-,-,-,-,-,-,-,-,2022,03,22
18,19,373,Si Samrong (1),Northern,17.77361111,99.24944444,-,-,-,-,-,-,-,-,-,-,-,-,-,-,-,-,33.869998931884766,-,-,-,-,-,-,-,33.869998931884766,2022,03,22
19,20,377,Bhumibol Dam,Northern,17.24391667,99.00252778,-,-,-,-,-,-,-,-,-,-,-,-,-,-,-,-,-,-,-,-,-,-,-,-,-,2022,03,22
20,21,376,Tak,Northern,16.87836111,99.14336111,-,-,-,-,-,-,-,-,-,-,-,-,-,-,-,-,-,-,-,-,-,-,-,-,-,2022,03,22
21,22,375,Mae Sot,Northern,16.65916667,98.55086111,-,-,-,-,-,-,-,-,-,5.619999885559082,3.690000057220459,0.75,-,-,-,-,-,-,-,-,-,-,-,-,10.059999465942383,2022,03,22
22,23,385,Umphang (2),Northern,16.02472222,98.86444444,-,-,-,-,-,-,-,-,-,-,-,-,-,-,-,-,-,-,-,-,-,-,-,-,-,2022,03,22
23,24,387,Doi Muser (1),Northern,16.75,98.93333611,-,-,-,-,-,-,-,-,-,-,-,0.550000011920929,1.649999976158142,2.7300000190734863,-,-,-,-,-,-,-,-,-,-,4.930000305175781,2022,03,22
24,25,378,Phitsanulok,Northern,16.79622222,100.2759444,-,-,-,-,-,-,-,-,-,-,-,-,-,-,-,-,-,-,-,-,-,-,-,-,-,2022,03,22
25,26,374,Lom Sak (2),Northern,16.77363889,101.2494722,-,-,-,-,-,-,-,-,-,-,-,-,-,-,-,-,-,-,-,0.8399999737739563,5.909999847412109,0.11999999731779099,-,-,6.869999885559082,2022,03,22
26,27,379,Phetchabun,Northern,16.43333611,101.15,-,-,-,-,-,-,-,-,-,-,-,-,-,-,-,-,2.680000066757202,-,0.05000000074505806,2.5199999809265137,3.990000009536743,1.3300000429153442,-,-,10.569999694824219,2022,03,22
27,28,413,Wichian Buri (2),Northern,15.65694444,101.1083333,-,-,-,-,-,-,-,-,-,-,-,-,-,-,-,-,-,0.3799999952316284,0.4099999964237213,0.7200000286102295,0.6100000143051147,-,-,-,2.119999885559082,2022,03,22
28,29,380,Kamphaeng Phet,Northern,16.48680556,99.52697222,-,-,-,-,-,-,-,-,-,-,-,-,-,-,-,-,-,-,0.019999999552965164,-,-,-,-,-,0.019999999552965164,2022,03,22
29,30,386,Phicit (1),Northern,16.33861111,100.3671111,-,-,-,-,-,-,-,-,-,-,-,-,-,-,-,-,-,-,-,-,-,-,-,-,-,2022,03,22
30,31,352,Nong Khai,Northeastern,17.86716667,102.7330278,-,-,-,-,-,-,-,-,-,-,-,-,-,-,-,-,-,-,-,-,-,-,-,-,-,2022,03,22
31,32,353,Loei,Northeastern,17.45,101.7333333,0.5099999904632568,-,-,-,-,-,-,-,-,-,-,-,5.059999942779541,-,-,-,-,-,-,-,-,9.350000381469727,3.740000009536743,2.2300000190734863,20.889999389648438,2022,03,22
32,33,350,Loei (1),Northeastern,17.4,101.7333333,0.5699999928474426,-,-,-,-,-,-,-,-,-,-,-,4.429999828338623,-,-,-,-,-,-,-,-,4.909999847412109,3.740000009536743,1.649999976158142,15.299999237060547,2022,03,22
33,34,354,Udon Thani,Northeastern,17.38333333,102.8,-,-,-,-,-,-,-,-,-,-,-,-,-,-,-,-,-,-,-,-,-,-,-,-,-,2022,03,22
34,35,357,Nakhon Phanom,Northeastern,17.41083333,104.7825,-,-,-,-,-,-,-,-,-,-,-,-,-,-,-,-,-,-,-,-,-,-,-,-,-,2022,03,22
35,36,358,Nakhon Phanom (1),Northeastern,17.44305556,104.7736111,-,-,-,-,-,-,-,-,-,-,0.23999999463558197,0.6200000047683716,-,-,-,-,-,-,-,-,-,-,-,-,0.8600000143051147,2022,03,22
36,37,356,Sakon Nakhon,Northeastern,17.15000278,104.1333361,-,-,-,-,-,-,-,-,-,-,-,-,-,-,-,-,-,-,-,-,-,-,-,-,-,2022,03,22
37,38,355,Sakon Nakhon (1),Northeastern,17.12502778,104.061,-,-,-,-,-,-,-,-,-,-,-,-,-,21.020000457763672,1.2899999618530273,-,-,-,-,-,-,-,-,-,22.310001373291016,2022,03,22
38,39,360,Nong Bua Lumphu,Northeastern,17.2325,102.4294444,-,-,-,-,-,-,-,-,-,-,-,0.20000000298023224,-,-,-,-,-,-,-,-,-,-,-,-,0.20000000298023224,2022,03,22
39,40,383,Mukdahan,Northeastern,16.54955556,104.7308889,-,-,-,-,-,-,-,-,-,-,-,-,-,-,-,-,-,-,-,-,-,-,-,-,-,2022,03,22
40,41,381,Khon Kaen,Northeastern,16.46111111,102.7897222,-,-,-,-,-,-,-,-,-,-,-,-,-,-,-,-,-,-,-,-,-,-,-,-,-,2022,03,22
41,42,384,Tha Pra (1),Northeastern,16.333,102.8166667,-,-,-,-,-,-,-,-,-,-,-,-,-,-,-,-,-,-,-,-,-,-,-,-,-,2022,03,22
42,43,382,Kosum Phisai (2),Northeastern,16.24722222,103.0680556,-,-,-,-,-,-,-,-,-,-,-,-,-,-,-,-,-,-,-,-,-,-,-,-,-,2022,03,22
43,44,390,Kamalasai (2),Northeastern,16.3325,103.5883333,-,-,-,-,-,-,-,-,-,-,-,-,-,-,-,-,-,-,-,-,-,-,-,-,-,2022,03,22
44,45,405,Roi Et,Northeastern,16.05000028,103.68333359999998,-,-,-,-,-,-,-,-,-,-,-,-,-,-,-,-,-,-,-,-,-,-,-,-,-,2022,03,22
45,46,404,Roi Et (1),Northeastern,16.07322222,103.6084444,-,-,-,-,-,-,-,-,-,-,-,-,-,-,-,-,-,-,-,-,-,-,-,-,-,2022,03,22
46,47,403,Chaiyaphum,Northeastern,15.80000028,102.0333336,-,-,-,-,-,-,-,-,-,-,-,-,-,-,-,-,-,-,-,-,-,-,-,-,-,2022,03,22
47,48,407,Ubon Ratchathani,Northeastern,15.25000278,104.8666694,-,-,-,-,-,-,-,-,-,-,-,-,-,-,-,-,-,-,-,-,-,-,-,-,-,2022,03,22
48,49,408,Ubon Ratchathani (1),Northeastern,15.24072222,105.01966670000002,-,0.6700000166893005,-,-,-,-,-,-,-,-,-,-,-,-,-,-,-,-,-,-,-,-,-,-,0.6700000166893005,2022,03,22
49,50,409,Si Saket (1),Northeastern,15.00000028,104.0500003,-,-,-,-,-,-,-,-,-,-,-,-,-,-,-,-,-,-,-,-,-,-,-,-,-,2022,03,22
50,51,416,Tha Tum (2),Northeastern,15.31666694,103.68333359999998,-,-,-,-,-,-,-,-,-,-,-,-,-,-,-,-,-,-,-,-,-,-,-,-,-,2022,03,22
51,52,432,Surin,Northeastern,14.88333361,103.5000003,-,-,-,-,-,-,-,-,-,-,-,-,-,-,-,-,-,-,-,-,-,-,-,-,-,2022,03,22
52,53,433,Surin (1),Northeastern,14.88333361,103.4500003,-,-,-,-,-,-,-,-,-,-,-,-,-,-,-,-,-,-,-,-,-,-,-,-,-,2022,03,22
53,54,431,Nakhon Ratchasima,Northeastern,14.96830556,102.0860278,-,-,-,-,-,-,-,-,-,-,-,-,-,-,-,-,-,-,-,-,-,-,-,-,-,2022,03,22
54,55,435,Pakchong (1),Northeastern,14.64388889,101.3319444,-,-,-,-,-,-,-,-,-,-,-,-,-,2.690000057220459,2.799999952316284,4.900000095367432,-,-,-,-,-,-,-,-,10.389999389648438,2022,03,22
55,56,434,Chok Chai (2),Northeastern,14.71888889,102.1686111,-,-,-,-,-,-,-,-,-,-,1.9800000190734863,-,-,4.940000057220459,-,-,-,-,-,-,-,-,-,-,6.920000076293945,2022,03,22
56,57,437,Buri Ram,Northeastern,15.22575,103.2480833,-,-,-,-,-,-,-,-,-,-,-,-,-,-,-,-,-,-,-,-,-,-,-,-,-,2022,03,22
57,58,436,Nang Rong (2),Northeastern,14.58333361,102.8000003,-,-,-,-,-,-,-,-,-,-,-,-,-,-,-,-,-,-,-,-,-,-,-,-,-,2022,03,22
58,59,400,Nakhon Sawan,Central,15.67183333,100.1323611,-,-,-,-,-,-,-,-,-,-,-,2.819999933242798,4.679999828338623,-,-,-,-,-,-,-,-,-,-,-,7.5,2022,03,22
59,60,401,Takfa (1),Central,15.34944444,100.5302778,-,-,-,-,-,-,-,-,-,-,-,-,-,3.1700000762939453,1.2400000095367432,-,9.760000228881836,-,-,-,-,-,0.8999999761581421,-,15.069999694824219,2022,03,22
60,61,402,Chai Nat,Central,15.15000278,100.18333359999998,-,-,-,-,-,-,-,-,-,-,-,-,-,-,-,-,-,-,-,-,-,-,-,-,-,2022,03,22
61,62,410,U Thai Thani,Central,15.37416667,100.0388889,-,-,-,-,-,-,-,-,-,-,-,-,-,-,-,-,-,-,-,-,-,-,-,-,-,2022,03,22
62,63,415,Ayuthaya (1),Central,14.53472222,100.725,-,-,-,-,-,-,-,-,-,-,1.0399999618530273,-,-,-,-,1.659999966621399,4.670000076293945,7.0,-,-,-,-,-,-,14.369999885559082,2022,03,22
63,64,418,Bua Chum (2),Central,15.10000028,101.6166669,-,-,-,-,-,-,-,-,-,-,-,-,-,-,-,8.020000457763672,3.1700000762939453,-,-,-,-,-,-,-,11.190000534057617,2022,03,22
64,65,426,Lop Buri,Central,14.79972222,100.6283333,-,-,-,-,-,-,-,-,-,-,-,-,4.53000020980835,0.2199999988079071,-,-,-,-,-,-,-,-,-,-,4.75,2022,03,22
65,66,425,Suphan Buri,Central,14.47444444,100.1388889,-,-,-,-,-,-,2.509999990463257,1.100000023841858,2.3499999046325684,-,-,-,-,-,-,-,-,-,-,-,-,-,-,-,5.960000038146973,2022,03,22
66,67,427,Uthong (1),Central,14.30361111,99.86472222,-,-,-,-,-,-,-,0.23999999463558197,2.7699999809265137,0.23999999463558197,-,-,-,-,-,-,-,-,-,-,-,-,-,-,3.25,2022,03,22
67,68,421,Thong Pha Phum,Central,14.74222222,98.63638889,-,-,-,-,-,-,-,-,-,-,-,1.5099999904632568,-,-,4.510000228881836,0.7900000214576721,0.15000000596046448,-,-,-,-,-,-,-,6.960000514984131,2022,03,22
68,69,450,Kanchanaburi,Central,14.0225,99.53583333,-,-,-,-,-,-,-,-,-,-,-,-,-,-,-,-,-,-,-,-,-,-,-,-,-,2022,03,22
69,70,464,Ratcha Buri (1),Central,13.48930556,99.79238889,-,-,-,-,-,-,-,-,-,-,-,-,-,-,-,-,-,-,-,-,-,-,-,-,-,2022,03,22
70,71,451,Kampheang Saen (1),Central,14.01166667,99.97,-,-,-,-,-,-,0.8999999761581421,3.930000066757202,-,-,-,-,-,-,-,-,-,0.8999999761581421,-,-,-,-,-,-,5.730000019073486,2022,03,22
71,72,419,Pathum Thani (1),Central,14.1,100.616,-,-,-,-,-,-,-,-,0.5,-,-,-,-,-,-,-,-,-,-,-,-,-,-,-,0.5,2022,03,22
72,73,420,Samut Prakan,Central,13.51666694,100.7616667,-,-,-,-,-,-,8.510000228881836,1.9900000095367432,0.7400000095367432,6.389999866485596,7.380000114440918,10.649999618530273,1.9700000286102295,-,-,-,-,-,-,-,-,-,-,-,37.62999725341797,2022,03,22
73,74,429,Suvarnabhumi Airport,Central,13.68638889,100.7675,-,-,-,-,-,-,-,3.1700000762939453,3.3299999237060547,2.4000000953674316,2.299999952316284,0.019999999552965164,-,-,-,-,-,-,-,-,-,-,-,-,11.220000267028809,2022,03,22
74,75,456,Don Muang Airport,Central,13.91916667,100.605,-,-,-,-,-,-,-,-,4.519999980926514,3.0899999141693115,0.14000000059604645,-,-,-,-,-,-,-,-,-,-,-,-,-,7.749999523162842,2022,03,22
75,76,455,Sirikit Center,Central,13.72638889,100.56,-,-,-,-,-,-,-,-,3.2200000286102295,4.079999923706055,1.2999999523162842,0.019999999552965164,-,-,-,-,-,-,-,-,-,-,-,-,8.620000839233398,2022,03,22
76,77,454,Bangkok Port,Central,13.70694444,100.5680556,-,-,-,-,-,-,-,0.1599999964237213,3.2200000286102295,3.759999990463257,2.569999933242798,-,-,-,-,-,-,-,-,-,-,-,-,-,9.710000038146973,2022,03,22
77,78,453,Bang Na (1),Central,13.66638889,100.6061111,-,-,-,-,-,-,-,3.390000104904175,3.619999885559082,2.809999942779541,3.8399999141693115,0.1599999964237213,-,-,-,-,-,-,-,-,0.09000000357627869,-,-,-,13.90999984741211,2022,03,22
78,79,457,Bangkok Pilot,Central,13.37722222,100.5994444,-,-,-,-,-,-,5.340000152587891,3.880000114440918,0.8399999737739563,3.180000066757202,7.380000114440918,13.789999961853027,2.359999895095825,-,-,-,-,-,-,-,-,-,-,-,36.77000045776367,2022,03,22
79,80,430,Prachin Buri,Eastern,14.05091667,101.3693056,-,-,-,-,-,-,-,-,-,-,-,-,-,-,-,-,0.05999999865889549,1.659999966621399,0.5,-,-,-,-,-,2.2199997901916504,2022,03,22
80,81,439,Kabin Buri (2),Eastern,13.98333361,101.7072222,-,-,-,-,-,-,-,-,-,-,-,-,-,-,1.0399999618530273,3.0,2.069999933242798,5.050000190734863,0.5400000214576721,-,-,-,-,-,11.699999809265137,2022,03,22
81,82,440,Sa Kaeo (2),Eastern,13.78888889,102.0347222,-,-,-,-,-,-,-,-,-,-,-,-,-,-,0.7200000286102295,2.509999990463257,4.559999942779541,1.9800000190734863,-,-,-,-,-,-,9.770000457763672,2022,03,22
82,83,462,Aranyaprathet,Eastern,13.70000028,102.5833336,-,-,-,-,-,-,-,-,-,-,-,0.9599999785423279,-,-,0.6800000071525574,-,-,-,-,-,-,-,-,-,1.6399999856948853,2022,03,22
83,84,458,Chachoengsao (1),Eastern,13.51555556,101.4583333,-,-,-,-,-,-,-,-,11.9399995803833,7.679999828338623,3.259999990463257,2.450000047683716,0.8799999952316284,-,-,-,-,-,-,-,-,-,-,-,26.209999084472656,2022,03,22
84,85,459,Chon Buri,Eastern,13.36666694,100.9833336,-,-,-,-,-,-,1.590000033378601,4.519999980926514,2.9100000858306885,9.050000190734863,5.230000019073486,10.649999618530273,4.269999980926514,-,-,-,-,-,-,0.6200000047683716,-,-,-,-,38.839996337890625,2022,03,22
85,86,463,Laem Chabang,Eastern,13.07694444,100.8758333,-,-,-,-,-,-,3.0,-,2.7799999713897705,3.9600000381469727,2.9600000381469727,3.380000114440918,0.4000000059604645,-,-,-,-,-,-,-,-,-,-,-,16.479999542236328,2022,03,22
86,87,460,Ko Sichang,Eastern,13.16166667,100.8019444,-,-,-,-,-,16.040000915527344,4.190000057220459,3.490000009536743,2.6500000953674316,5.039999961853027,5.239999771118164,8.75,3.4200000762939453,-,-,-,-,-,-,-,-,-,-,-,48.81999969482422,2022,03,22
87,88,461,Pattaya,Eastern,12.92,100.8694444,-,-,-,-,-,-,-,-,-,3.5399999618530273,0.8799999952316284,0.1599999964237213,-,-,-,-,-,-,-,-,-,-,-,-,4.579999923706055,2022,03,22
88,89,477,Sattahip,Eastern,12.68333361,100.9833336,6.78000020980835,-,-,-,-,-,-,-,0.4399999976158142,2.4000000953674316,0.07999999821186066,-,-,-,-,-,-,-,-,-,-,-,-,-,9.700000762939453,2022,03,22
89,90,478,Rayong,Eastern,12.61702778,101.34075,1.1100000143051147,-,-,-,7.900000095367432,-,-,-,1.8600000143051147,1.7100000381469727,-,-,-,-,-,-,-,2.049999952316284,-,-,0.9700000286102295,0.4099999964237213,3.450000047683716,-,19.46000099182129,2022,03,22
90,91,479,Huai Pong (1),Eastern,12.73333361,101.1333336,-,-,-,-,-,-,-,-,3.6600000858306885,2.890000104904175,0.07999999821186066,-,-,-,-,-,-,-,-,-,-,-,-,0.10000000149011612,6.730000019073486,2022,03,22
91,92,480,Chanthaburi,Eastern,12.61666694,102.1133333,-,-,-,-,-,-,-,-,3.819999933242798,4.210000038146973,7.940000057220459,1.4600000381469727,-,-,3.8399999141693115,5.079999923706055,-,-,-,-,-,-,-,-,26.350000381469727,2022,03,22
92,93,481,Pluei (1),Eastern,12.50861111,102.1730556,0.3100000023841858,-,-,-,-,-,-,-,-,7.179999828338623,9.75,2.4700000286102295,-,-,11.649999618530273,9.109999656677246,-,-,-,-,-,-,-,0.3100000023841858,40.78000259399414,2022,03,22
93,94,501,Khlong Yai,Eastern,11.76666694,102.8833336,2.740000009536743,-,-,-,-,-,-,-,-,-,46.279998779296875,70.36000061035156,8.220000267028809,4.389999866485596,5.119999885559082,0.7400000095367432,0.009999999776482582,-,-,-,-,-,-,1.9800000190734863,139.83999633789062,2022,03,22
94,95,465,Phetchaburi,Southern EastCoast,12.99930556,100.0605278,-,-,-,-,-,-,-,-,1.1100000143051147,0.3100000023841858,-,0.5199999809265137,3.5899999141693115,-,-,-,-,-,-,-,-,-,-,-,5.529999732971191,2022,03,22
95,96,474,Nong Plub (1),Southern EastCoast,12.58925,99.73461111,-,-,-,-,-,-,-,-,-,-,-,-,-,-,-,0.7599999904632568,-,-,-,-,-,-,-,-,0.7599999904632568,2022,03,22
96,97,475,Hua Hin,Southern EastCoast,12.57797222,99.95372222,-,-,-,-,-,-,-,-,-,-,-,-,0.4000000059604645,-,-,-,-,-,-,-,-,-,-,-,0.4000000059604645,2022,03,22
97,98,500,Prachuap Khiri Khan,Southern EastCoast,11.83497222,99.81047222,-,-,-,-,-,-,-,-,-,-,-,-,-,-,-,-,3.7799999713897705,3.880000114440918,-,-,-,-,-,-,7.659999847412109,2022,03,22
98,99,517,Chumphon,Southern EastCoast,10.49875,99.18847222,-,-,-,-,-,-,-,-,-,-,-,-,-,-,-,-,-,-,-,-,-,-,-,-,-,2022,03,22
99,100,520,Sawee (1),Southern EastCoast,10.33063889,99.09186111,-,-,-,-,-,-,-,-,-,-,-,-,2.069999933242798,15.220000267028809,-,-,-,-,-,-,-,-,-,-,17.290000915527344,2022,03,22
100,101,551,Surat Thani,Southern EastCoast,9.1335,99.15213889,-,3.059999942779541,-,-,-,-,-,-,-,-,-,-,-,-,-,-,-,-,-,-,-,-,-,-,3.059999942779541,2022,03,22
101,102,555,Surat Thani (1),Southern EastCoast,9.144805556,99.63361111,-,-,-,-,-,-,-,-,0.25999999046325684,-,-,-,-,-,2.0399999618530273,-,-,-,-,-,-,-,-,-,2.299999952316284,2022,03,22
102,103,550,Ko Samui,Southern EastCoast,9.466666667,100.05,-,-,-,-,-,-,-,-,2.1700000762939453,-,-,-,-,-,-,-,-,-,-,-,-,-,-,-,2.1700000762939453,2022,03,22
103,104,556,Prasang (2),Southern EastCoast,8.572083333,99.25519444,-,-,-,-,-,-,-,-,7.610000133514404,-,-,-,-,-,-,-,-,-,-,-,-,-,-,-,7.610000133514404,2022,03,22
104,105,557,Chawang (2),Southern EastCoast,8.424694444,99.50661111,-,-,-,-,-,-,-,-,-,-,0.2800000011920929,-,-,-,-,-,-,-,-,-,-,-,-,-,0.2800000011920929,2022,03,22
105,106,552,Nakhon Si Thammarat,Southern EastCoast,8.537777777999999,99.94722222,-,-,-,-,-,-,-,-,-,-,-,-,-,-,-,-,-,-,-,-,-,-,-,-,-,2022,03,22
106,107,554,Nakhon Si Thammarat (1),Southern EastCoast,8.359305556,100.0,-,-,-,-,-,-,-,-,-,-,-,-,-,-,-,-,-,-,-,-,-,-,-,-,-,2022,03,22
107,108,560,Pattalung (1),Southern EastCoast,7.583333611,100.1666669,-,-,-,-,-,-,-,-,-,-,-,-,-,-,-,-,-,-,-,-,-,0.07000000029802322,-,-,0.07000000029802322,2022,03,22
108,109,568,Songkhla,Southern EastCoast,7.182111111,100.6076944,-,-,-,-,0.07000000029802322,-,-,-,-,-,-,-,-,-,-,-,-,-,-,-,7.820000171661377,-,-,-,7.890000343322754,2022,03,22
109,110,569,Hat Yai,Southern EastCoast,6.916666944,100.43333359999998,-,-,-,0.36000001430511475,-,0.28999999165534973,-,-,-,-,2.2799999713897705,-,-,0.09000000357627869,-,-,-,0.05000000074505806,-,0.800000011920929,1.559999942779541,-,-,-,5.429999351501465,2022,03,22
110,111,571,Korhong (1),Southern EastCoast,7.0,100.5,-,-,-,-,-,-,-,0.6200000047683716,-,-,-,-,-,-,-,-,-,-,-,0.800000011920929,2.9700000286102295,-,-,-,4.390000343322754,2022,03,22
111,112,574,Sa Dao (2),Southern EastCoast,6.798055556,100.3905556,-,-,-,0.8600000143051147,-,-,-,-,-,0.8999999761581421,2.509999990463257,-,-,1.9500000476837158,-,-,-,0.05000000074505806,-,0.07000000029802322,1.559999942779541,-,-,-,7.90000057220459,2022,03,22
112,113,580,Pattani,Southern EastCoast,6.7833336110000015,101.1500003,-,-,0.38999998569488525,-,-,-,-,-,-,-,-,-,-,-,-,-,-,-,-,0.7300000190734863,-,-,-,-,1.1200000047683716,2022,03,22
113,114,581,Yala (1),Southern EastCoast,6.050000278,101.2833336,0.10000000149011612,-,-,-,-,-,-,-,-,-,-,-,1.7100000381469727,-,2.880000114440918,6.300000190734863,1.3300000429153442,3.7100000381469727,0.46000000834465027,-,-,-,-,-,16.489999771118164,2022,03,22
114,115,583,Narathiwat,Southern EastCoast,6.416666944,101.81666690000002,-,-,-,-,-,-,-,-,-,-,-,-,-,-,-,6.130000114440918,6.289999961853027,4.190000057220459,-,-,-,-,-,-,16.610000610351562,2022,03,22
115,116,532,Ranong,Southern WestCoast,9.983333611,98.61666694,-,-,-,-,4.090000152587891,-,-,-,-,7.559999942779541,0.009999999776482582,-,-,-,-,-,-,-,-,-,-,-,-,-,11.65999984741211,2022,03,22
116,117,561,Takua Pa,Southern WestCoast,8.684166667000001,98.25222222,-,-,-,-,-,-,-,-,-,-,-,-,-,-,-,-,-,-,-,-,-,-,-,-,-,2022,03,22
117,118,564,Phuket,Southern WestCoast,7.883333611,98.40000028,-,-,-,-,-,-,-,-,-,-,-,-,-,-,-,-,-,-,-,-,-,-,-,-,-,2022,03,22
118,119,565,Phuket Airport,Southern WestCoast,8.145,98.31444444,-,-,-,-,-,-,-,-,-,3.680000066757202,-,-,-,-,-,-,-,-,-,-,-,-,-,-,3.680000066757202,2022,03,22
119,120,563,Krabi,Southern WestCoast,8.103611111000001,98.97527778,-,-,-,-,-,-,-,-,-,-,0.47999998927116394,1.7000000476837158,-,-,-,-,-,0.25999999046325684,-,-,-,-,-,-,2.440000057220459,2022,03,22
120,121,566,Ko Lanta,Southern WestCoast,7.5333336110000015,99.05000028,-,-,-,-,-,-,-,-,-,-,-,-,-,-,-,-,-,-,-,-,-,-,-,-,-,2022,03,22
121,122,567,Trang,Southern WestCoast,7.516666944,99.61666694,-,-,-,-,-,-,-,-,-,6.75,-,-,-,-,-,-,-,-,-,-,-,-,-,-,6.75,2022,03,22
122,123,570,Satun,Southern WestCoast,6.650000277999999,100.0833336,-,-,-,-,-,-,-,-,-,1.2100000381469727,2.799999952316284,-,-,-,0.14000000059604645,-,-,-,0.1899999976158142,-,-,-,-,-,4.340000152587891,2022,03,22
