,ID,WMO_CODE,NAME_EN,Region,Latitude,Longitude,00Z,01Z,02Z,03Z,04Z,05Z,06Z,07Z,08Z,09Z,10Z,11Z,12Z,13Z,14Z,15Z,16Z,17Z,18Z,19Z,20Z,21Z,22Z,23Z,sum,year,month,day
0,1,300,Mae Hong Son,Northern,19.29897222,97.97577778,-,-,-,-,-,-,-,-,-,-,-,-,-,-,-,-,-,-,-,-,-,-,-,-,-,2022,08,18
1,2,325,Mae Sariang,Northern,18.16666667,97.93333333,-,-,-,-,-,-,-,-,-,-,-,-,-,-,-,-,-,-,-,-,-,-,-,-,-,2022,08,18
2,3,303,Chiang Rai,Northern,19.96138889,99.88138889,-,-,-,-,-,-,-,-,-,-,-,-,-,-,-,-,-,-,-,-,-,-,-,-,-,2022,08,18
3,4,304,Chiang Rai (1),Northern,19.87083333,99.78277778,-,-,-,-,-,-,-,-,-,-,-,-,-,-,-,-,-,-,-,-,-,-,-,-,-,2022,08,18
4,5,310,Phayao,Northern,19.13333333,99.9,-,-,-,-,-,-,-,-,-,-,-,-,-,-,-,-,-,-,-,-,-,-,-,-,-,2022,08,18
5,6,327,Chiang Mai,Northern,18.79,98.97694444,-,-,-,-,-,-,-,-,-,-,-,-,-,-,-,-,-,-,-,-,-,-,-,-,-,2022,08,18
6,7,302,Doi Angkhlang,Northern,19.93138889,99.04833333,-,-,-,-,-,-,-,-,-,-,-,-,9.119999885559082,-,-,-,-,-,-,-,-,-,-,-,9.119999885559082,2022,08,18
7,8,331,Nan,Northern,18.77972222,100.7777778,-,-,-,-,-,-,-,-,-,-,-,-,-,-,-,-,-,-,-,-,-,-,-,-,-,2022,08,18
8,9,333,Nan (1),Northern,18.86666667,100.75,-,-,-,-,-,-,-,-,-,-,-,-,-,-,-,-,-,-,-,-,-,-,-,-,-,2022,08,18
9,10,315,Tha Wang Pha (2),Northern,19.11055556,100.8025,-,-,-,-,-,-,-,-,-,-,-,-,-,-,-,-,-,-,-,-,-,-,-,-,-,2022,08,18
10,11,307,Thung Chang (2),Northern,19.41194444,100.8835278,-,-,-,-,-,-,-,-,-,-,-,-,-,-,-,-,-,-,-,-,-,-,-,-,-,2022,08,18
11,12,329,Lamphun,Northern,18.56666667,99.03333333,-,-,-,-,-,-,-,-,-,-,-,-,-,-,-,-,-,-,-,-,-,-,-,-,-,2022,08,18
12,13,328,Lampang,Northern,18.33333333,99.51666667,-,-,-,-,-,-,-,-,-,-,-,-,-,-,-,-,-,-,-,-,-,-,-,-,-,2022,08,18
13,14,334,Lampang (1),Northern,18.31666667,99.28333333,-,-,-,-,-,-,-,-,-,-,-,-,-,-,-,-,-,-,-,-,-,-,-,-,-,2022,08,18
14,15,324,Thoen,Northern,17.63661111,99.24475,-,-,-,-,-,-,-,-,-,-,-,-,-,-,-,-,-,-,-,-,-,-,-,-,-,2022,08,18
15,16,330,Phrae,Northern,18.16666667,100.1666667,-,-,-,-,-,-,-,-,-,-,-,-,-,-,-,-,-,-,-,-,-,-,-,-,-,2022,08,18
16,17,351,Uttaradit,Northern,17.61666667,100.1000028,-,-,-,-,-,-,-,-,-,-,-,-,-,-,-,-,-,-,-,-,-,-,-,-,-,2022,08,18
17,18,372,Sukhothai,Northern,17.10611111,99.8,-,-,-,-,-,-,-,-,-,-,-,-,0.05999999865889549,-,1.659999966621399,1.3700000047683716,0.5,-,-,-,-,-,-,-,3.5899999141693115,2022,08,18
18,19,373,Si Samrong (1),Northern,17.77361111,99.24944444,-,-,-,-,-,-,-,-,-,-,-,-,-,-,-,-,-,-,-,-,-,-,-,-,-,2022,08,18
19,20,377,Bhumibol Dam,Northern,17.24391667,99.00252778,-,-,-,-,-,-,-,-,-,-,-,-,-,-,-,-,-,-,-,-,-,-,-,-,-,2022,08,18
20,21,376,Tak,Northern,16.87836111,99.14336111,-,-,-,-,-,-,-,-,-,-,-,-,1.590000033378601,5.300000190734863,5.289999961853027,2.4800000190734863,-,-,-,-,-,-,-,-,14.65999984741211,2022,08,18
21,22,375,Mae Sot,Northern,16.65916667,98.55086111,-,-,-,-,-,-,-,-,-,-,-,-,-,3.630000114440918,0.3799999952316284,-,-,-,-,-,-,-,-,-,4.010000228881836,2022,08,18
22,23,385,Umphang (2),Northern,16.02472222,98.86444444,-,-,-,-,-,-,-,-,-,-,-,-,-,-,-,-,-,-,-,-,-,-,-,-,-,2022,08,18
23,24,387,Doi Muser (1),Northern,16.75,98.93333611,-,-,-,-,-,-,-,-,-,-,-,-,5.449999809265137,3.5899999141693115,1.659999966621399,-,-,-,-,-,-,-,-,-,10.699999809265137,2022,08,18
24,25,378,Phitsanulok,Northern,16.79622222,100.2759444,-,-,-,-,-,-,-,-,-,-,-,-,-,-,-,-,-,1.4199999570846558,-,-,-,-,-,-,1.4199999570846558,2022,08,18
25,26,374,Lom Sak (2),Northern,16.77363889,101.2494722,-,-,-,-,-,-,-,-,-,-,-,-,2.0,-,3.2799999713897705,1.8300000429153442,-,-,-,-,-,-,-,-,7.109999656677246,2022,08,18
26,27,379,Phetchabun,Northern,16.43333611,101.15,-,-,-,-,-,-,-,-,-,-,-,1.1200000047683716,0.49000000953674316,-,-,-,-,-,-,-,-,-,-,-,1.6100000143051147,2022,08,18
27,28,413,Wichian Buri (2),Northern,15.65694444,101.1083333,-,-,-,-,-,-,-,-,-,-,-,-,-,-,-,-,-,-,-,-,-,-,-,-,-,2022,08,18
28,29,380,Kamphaeng Phet,Northern,16.48680556,99.52697222,-,-,-,-,-,-,-,-,0.10000000149011612,3.390000104904175,-,-,2.509999990463257,-,-,-,-,-,-,1.5099999904632568,-,3.390000104904175,-,-,10.90000057220459,2022,08,18
29,30,386,Phicit (1),Northern,16.33861111,100.3671111,-,-,-,-,-,-,-,-,-,-,-,-,-,-,-,-,-,-,-,-,-,-,-,-,-,2022,08,18
30,31,352,Nong Khai,Northeastern,17.86716667,102.7330278,-,-,-,-,-,-,-,-,-,0.7799999713897705,-,-,-,-,-,-,-,-,-,-,-,-,-,-,0.7799999713897705,2022,08,18
31,32,353,Loei,Northeastern,17.45,101.7333333,-,-,-,-,-,-,-,-,-,-,1.9700000286102295,7.840000152587891,1.0499999523162842,0.7599999904632568,-,-,-,-,-,-,-,-,-,-,11.620000839233398,2022,08,18
32,33,350,Loei (1),Northeastern,17.4,101.7333333,-,-,-,-,-,-,-,-,-,-,0.8399999737739563,12.90999984741211,3.180000066757202,-,-,-,-,-,-,-,-,-,-,-,16.93000030517578,2022,08,18
33,34,354,Udon Thani,Northeastern,17.38333333,102.8,-,-,-,-,-,-,-,0.6499999761581421,2.259999990463257,1.2400000095367432,1.5099999904632568,0.49000000953674316,-,-,-,-,-,-,-,-,-,-,-,-,6.149999618530273,2022,08,18
34,35,357,Nakhon Phanom,Northeastern,17.41083333,104.7825,-,-,-,-,-,-,-,-,-,-,-,-,-,-,-,-,-,-,-,-,-,-,-,28.020000457763672,28.020000457763672,2022,08,18
35,36,358,Nakhon Phanom (1),Northeastern,17.44305556,104.7736111,-,-,-,-,-,-,-,-,-,-,-,-,-,-,-,-,-,-,-,-,-,-,-,0.029999999329447746,0.029999999329447746,2022,08,18
36,37,356,Sakon Nakhon,Northeastern,17.15000278,104.1333361,-,-,-,-,-,0.3700000047683716,-,-,-,2.9200000762939453,4.119999885559082,0.800000011920929,-,-,-,-,-,-,-,-,-,-,-,-,8.210000038146973,2022,08,18
37,38,355,Sakon Nakhon (1),Northeastern,17.12502778,104.061,-,-,-,-,1.2300000190734863,-,-,-,-,3.380000114440918,3.7300000190734863,0.05000000074505806,-,-,-,-,-,-,-,-,-,-,-,-,8.390000343322754,2022,08,18
38,39,360,Nong Bua Lumphu,Northeastern,17.2325,102.4294444,-,-,-,-,-,-,-,-,-,0.4099999964237213,0.8100000023841858,0.49000000953674316,-,-,-,-,-,-,-,-,-,-,-,-,1.7100000381469727,2022,08,18
39,40,383,Mukdahan,Northeastern,16.54955556,104.7308889,1.9700000286102295,-,-,-,-,-,-,-,-,-,0.3799999952316284,4.909999847412109,0.4099999964237213,2.5999999046325684,0.9900000095367432,0.3100000023841858,-,-,-,-,-,-,1.1100000143051147,0.23000000417232513,12.909998893737793,2022,08,18
40,41,381,Khon Kaen,Northeastern,16.46111111,102.7897222,-,-,-,-,-,-,-,-,-,-,-,-,0.9900000095367432,1.6299999952316284,-,-,-,-,-,-,-,-,-,-,2.619999885559082,2022,08,18
41,42,384,Tha Pra (1),Northeastern,16.333,102.8166667,-,-,-,-,-,-,-,-,-,-,-,-,-,2.4600000381469727,-,-,-,-,-,-,-,-,-,-,2.4600000381469727,2022,08,18
42,43,382,Kosum Phisai (2),Northeastern,16.24722222,103.0680556,-,-,-,-,-,-,-,-,-,-,-,-,-,2.869999885559082,-,-,-,-,-,-,-,-,-,-,2.869999885559082,2022,08,18
43,44,390,Kamalasai (2),Northeastern,16.3325,103.5883333,-,-,-,-,-,-,-,-,-,-,-,0.17000000178813934,2.759999990463257,3.2799999713897705,-,-,-,-,-,-,-,-,-,-,6.210000038146973,2022,08,18
44,45,405,Roi Et,Northeastern,16.05000028,103.68333359999998,0.6499999761581421,-,-,-,-,-,-,-,-,-,-,-,1.4800000190734863,4.239999771118164,-,-,0.019999999552965164,0.3799999952316284,-,-,0.28999999165534973,-,-,-,7.059999942779541,2022,08,18
45,46,404,Roi Et (1),Northeastern,16.07322222,103.6084444,0.029999999329447746,-,-,-,-,-,-,-,-,-,-,-,1.2400000095367432,4.599999904632568,-,-,-,0.009999999776482582,-,-,1.5800000429153442,0.14000000059604645,-,-,7.600000381469727,2022,08,18
46,47,403,Chaiyaphum,Northeastern,15.80000028,102.0333336,-,-,-,-,-,-,-,-,-,-,-,-,-,-,-,8.510000228881836,-,-,-,-,-,-,-,-,8.510000228881836,2022,08,18
47,48,407,Ubon Ratchathani,Northeastern,15.25000278,104.8666694,-,-,-,-,-,-,-,-,-,-,-,-,-,-,0.09000000357627869,-,-,-,0.17000000178813934,-,-,-,-,-,0.25999999046325684,2022,08,18
48,49,408,Ubon Ratchathani (1),Northeastern,15.24072222,105.01966670000002,-,-,-,-,-,-,-,-,-,-,-,-,-,-,0.7799999713897705,-,-,-,0.17000000178813934,-,-,-,-,-,0.949999988079071,2022,08,18
49,50,409,Si Saket (1),Northeastern,15.00000028,104.0500003,-,-,-,-,-,-,-,-,-,-,-,-,-,-,-,-,-,-,-,0.10999999940395355,-,-,-,-,0.10999999940395355,2022,08,18
50,51,416,Tha Tum (2),Northeastern,15.31666694,103.68333359999998,-,-,-,-,-,-,-,-,-,-,-,-,0.6499999761581421,-,-,-,-,-,-,2.8299999237060547,-,-,-,-,3.4800000190734863,2022,08,18
51,52,432,Surin,Northeastern,14.88333361,103.5000003,-,-,-,-,-,-,-,-,-,-,-,-,-,-,-,-,-,-,-,-,-,-,-,-,-,2022,08,18
52,53,433,Surin (1),Northeastern,14.88333361,103.4500003,-,-,-,-,-,-,-,-,-,-,-,-,-,-,-,-,-,-,-,-,-,-,0.6600000262260437,-,0.6600000262260437,2022,08,18
53,54,431,Nakhon Ratchasima,Northeastern,14.96830556,102.0860278,-,-,-,-,-,-,-,-,-,-,-,-,-,-,-,-,-,-,-,-,-,-,-,-,-,2022,08,18
54,55,435,Pakchong (1),Northeastern,14.64388889,101.3319444,-,-,-,-,-,-,-,-,-,-,-,-,-,-,-,-,-,-,-,-,-,-,-,-,-,2022,08,18
55,56,434,Chok Chai (2),Northeastern,14.71888889,102.1686111,-,-,-,-,-,-,-,-,-,-,-,-,-,-,-,-,-,-,-,-,-,-,-,-,-,2022,08,18
56,57,437,Buri Ram,Northeastern,15.22575,103.2480833,-,-,-,-,-,-,-,-,-,-,-,-,-,-,-,-,-,-,-,-,0.800000011920929,-,-,-,0.800000011920929,2022,08,18
57,58,436,Nang Rong (2),Northeastern,14.58333361,102.8000003,-,-,-,-,-,-,-,-,-,-,-,-,-,-,-,-,-,-,-,-,-,-,-,-,-,2022,08,18
58,59,400,Nakhon Sawan,Central,15.67183333,100.1323611,-,-,-,-,-,-,-,-,-,-,-,-,-,-,-,-,-,-,-,-,-,-,-,-,-,2022,08,18
59,60,401,Takfa (1),Central,15.34944444,100.5302778,-,-,-,-,-,-,-,-,-,-,-,-,-,-,-,-,-,-,-,-,-,-,-,-,-,2022,08,18
60,61,402,Chai Nat,Central,15.15000278,100.18333359999998,-,-,-,-,-,-,-,-,-,-,-,-,-,-,-,-,-,-,-,-,-,-,-,-,-,2022,08,18
61,62,410,U Thai Thani,Central,15.37416667,100.0388889,-,-,-,-,-,-,-,-,-,-,-,-,-,-,-,-,-,-,2.630000114440918,-,-,-,-,-,2.630000114440918,2022,08,18
62,63,415,Ayuthaya (1),Central,14.53472222,100.725,-,-,-,-,-,-,-,-,-,-,-,-,-,-,-,-,-,-,-,-,-,-,-,-,-,2022,08,18
63,64,418,Bua Chum (2),Central,15.10000028,101.6166669,-,-,-,-,-,-,-,-,-,-,-,-,-,-,-,-,-,-,-,-,-,-,-,-,-,2022,08,18
64,65,426,Lop Buri,Central,14.79972222,100.6283333,-,-,-,-,-,-,-,-,-,-,-,-,-,-,-,-,-,-,-,-,-,-,-,-,-,2022,08,18
65,66,425,Suphan Buri,Central,14.47444444,100.1388889,-,-,-,-,-,-,-,-,-,-,-,-,-,-,-,-,-,-,-,-,-,-,-,-,-,2022,08,18
66,67,427,Uthong (1),Central,14.30361111,99.86472222,-,-,-,-,-,-,-,-,-,-,-,-,-,-,-,-,-,-,-,-,-,-,-,-,-,2022,08,18
67,68,421,Thong Pha Phum,Central,14.74222222,98.63638889,-,-,-,-,-,-,-,-,-,-,-,0.3700000047683716,-,-,-,-,-,-,-,-,-,-,-,-,0.3700000047683716,2022,08,18
68,69,450,Kanchanaburi,Central,14.0225,99.53583333,-,-,-,-,-,-,-,-,-,-,-,-,-,-,-,-,-,-,-,-,-,-,-,-,-,2022,08,18
69,70,464,Ratcha Buri (1),Central,13.48930556,99.79238889,-,-,-,-,-,-,-,-,-,-,0.8999999761581421,0.7400000095367432,-,-,-,5.480000019073486,3.5299999713897705,0.75,-,-,-,-,-,-,11.399999618530273,2022,08,18
70,71,451,Kampheang Saen (1),Central,14.01166667,99.97,-,-,-,-,-,-,-,-,-,-,-,13.539999961853027,-,2.680000066757202,-,-,-,-,-,-,-,-,-,-,16.219999313354492,2022,08,18
71,72,419,Pathum Thani (1),Central,14.1,100.616,-,-,-,-,-,-,-,-,-,-,-,-,0.49000000953674316,1.659999966621399,-,1.5199999809265137,-,-,-,-,-,-,-,-,3.6700000762939453,2022,08,18
72,73,420,Samut Prakan,Central,13.51666694,100.7616667,-,-,-,-,-,-,-,-,-,-,-,-,-,-,-,-,-,-,6.150000095367432,-,-,-,-,-,6.150000095367432,2022,08,18
73,74,429,Suvarnabhumi Airport,Central,13.68638889,100.7675,-,-,-,-,-,-,-,-,-,-,-,-,-,-,-,-,-,-,-,-,-,-,-,-,-,2022,08,18
74,75,456,Don Muang Airport,Central,13.91916667,100.605,-,-,-,-,-,-,-,-,-,-,-,0.6200000047683716,7.119999885559082,1.659999966621399,-,-,-,-,-,-,-,-,-,-,9.399999618530273,2022,08,18
75,76,455,Sirikit Center,Central,13.72638889,100.56,-,-,-,-,-,-,-,-,-,-,-,1.8600000143051147,2.069999933242798,0.5400000214576721,-,-,-,-,-,-,-,-,-,-,4.46999979019165,2022,08,18
76,77,454,Bangkok Port,Central,13.70694444,100.5680556,-,-,-,-,-,-,-,-,-,-,-,0.009999999776482582,0.6000000238418579,-,-,-,-,-,-,-,-,-,-,-,0.6100000143051147,2022,08,18
77,78,453,Bang Na (1),Central,13.66638889,100.6061111,-,-,-,-,-,-,-,-,-,-,-,-,-,-,-,-,-,-,-,-,-,-,-,-,-,2022,08,18
78,79,457,Bangkok Pilot,Central,13.37722222,100.5994444,-,-,-,-,-,-,-,-,-,-,-,-,-,-,-,-,-,-,5.050000190734863,-,-,-,-,-,5.050000190734863,2022,08,18
79,80,430,Prachin Buri,Eastern,14.05091667,101.3693056,-,-,-,-,-,-,-,-,-,-,-,-,-,-,-,-,-,-,-,-,-,-,-,-,-,2022,08,18
80,81,439,Kabin Buri (2),Eastern,13.98333361,101.7072222,-,-,-,-,-,-,-,-,-,-,-,-,-,-,-,-,-,-,-,-,-,-,-,-,-,2022,08,18
81,82,440,Sa Kaeo (2),Eastern,13.78888889,102.0347222,-,-,-,-,-,-,-,-,-,-,-,-,-,-,-,-,-,-,-,-,-,-,-,-,-,2022,08,18
82,83,462,Aranyaprathet,Eastern,13.70000028,102.5833336,-,-,-,-,-,-,-,-,-,-,-,-,-,-,-,-,-,-,-,-,-,-,-,-,-,2022,08,18
83,84,458,Chachoengsao (1),Eastern,13.51555556,101.4583333,-,-,-,-,-,-,-,-,-,-,-,-,-,-,-,-,-,-,-,-,0.41999998688697815,-,-,-,0.41999998688697815,2022,08,18
84,85,459,Chon Buri,Eastern,13.36666694,100.9833336,-,-,-,-,-,-,-,-,-,-,-,-,-,-,-,-,-,-,-,-,-,0.27000001072883606,-,-,0.27000001072883606,2022,08,18
85,86,463,Laem Chabang,Eastern,13.07694444,100.8758333,-,-,-,-,-,-,-,-,-,-,-,-,-,-,-,-,-,-,-,-,-,-,-,-,-,2022,08,18
86,87,460,Ko Sichang,Eastern,13.16166667,100.8019444,-,-,-,-,-,-,-,-,-,-,-,-,-,-,-,-,-,-,0.029999999329447746,-,-,-,-,-,0.029999999329447746,2022,08,18
87,88,461,Pattaya,Eastern,12.92,100.8694444,-,-,-,-,-,-,-,-,-,-,-,-,-,-,-,-,-,-,-,-,-,-,-,-,-,2022,08,18
88,89,477,Sattahip,Eastern,12.68333361,100.9833336,-,-,-,-,-,-,-,-,-,-,-,-,-,-,-,-,-,-,-,-,-,-,-,-,-,2022,08,18
89,90,478,Rayong,Eastern,12.61702778,101.34075,-,-,-,-,-,-,-,-,-,-,-,-,-,-,-,-,-,-,-,-,-,-,3.059999942779541,-,3.059999942779541,2022,08,18
90,91,479,Huai Pong (1),Eastern,12.73333361,101.1333336,-,-,-,-,-,-,-,-,-,-,-,-,-,0.2199999988079071,0.05000000074505806,0.2199999988079071,0.6200000047683716,-,-,-,-,-,-,-,1.1100000143051147,2022,08,18
91,92,480,Chanthaburi,Eastern,12.61666694,102.1133333,-,-,-,-,-,-,-,-,-,-,-,-,-,-,-,-,-,-,-,-,-,-,-,-,-,2022,08,18
92,93,481,Pluei (1),Eastern,12.50861111,102.1730556,-,-,-,-,-,-,-,-,-,-,-,-,-,-,-,-,-,-,-,-,0.8999999761581421,-,-,-,0.8999999761581421,2022,08,18
93,94,501,Khlong Yai,Eastern,11.76666694,102.8833336,-,-,-,-,-,-,-,-,-,-,-,-,-,-,-,-,-,-,-,-,-,2.069999933242798,-,-,2.069999933242798,2022,08,18
94,95,465,Phetchaburi,Southern EastCoast,12.99930556,100.0605278,-,-,-,-,-,-,-,-,-,-,-,-,-,-,-,-,-,-,-,0.10000000149011612,-,-,-,-,0.10000000149011612,2022,08,18
95,96,474,Nong Plub (1),Southern EastCoast,12.58925,99.73461111,-,-,-,-,-,-,-,-,-,-,-,-,-,-,-,-,-,-,-,-,-,-,-,-,-,2022,08,18
96,97,475,Hua Hin,Southern EastCoast,12.57797222,99.95372222,-,-,-,-,-,-,-,-,-,-,-,-,-,-,-,-,-,-,-,-,-,-,-,-,-,2022,08,18
97,98,500,Prachuap Khiri Khan,Southern EastCoast,11.83497222,99.81047222,-,-,-,-,-,-,-,-,-,-,-,-,-,-,-,-,-,-,-,0.05000000074505806,-,-,-,-,0.05000000074505806,2022,08,18
98,99,517,Chumphon,Southern EastCoast,10.49875,99.18847222,-,-,-,-,-,-,-,-,-,-,-,-,-,-,-,-,-,-,-,-,-,-,-,-,-,2022,08,18
99,100,520,Sawee (1),Southern EastCoast,10.33063889,99.09186111,-,-,-,-,-,-,-,-,-,-,-,-,-,-,-,-,-,-,-,-,-,-,-,-,-,2022,08,18
100,101,551,Surat Thani,Southern EastCoast,9.1335,99.15213889,-,-,-,-,-,-,-,-,-,-,-,0.20999999344348907,-,-,-,-,0.6100000143051147,-,-,-,-,-,0.009999999776482582,-,0.8299999833106995,2022,08,18
101,102,555,Surat Thani (1),Southern EastCoast,9.144805556,99.63361111,0.10000000149011612,-,-,-,-,-,-,-,-,-,-,-,-,-,0.6200000047683716,1.7699999809265137,-,-,-,-,0.5699999928474426,1.9199999570846558,1.0099999904632568,-,5.989999294281006,2022,08,18
102,103,550,Ko Samui,Southern EastCoast,9.466666667,100.05,0.46000000834465027,-,-,-,-,-,-,-,-,-,-,-,-,-,-,-,-,-,-,-,-,1.149999976158142,-,1.1100000143051147,2.7200000286102295,2022,08,18
103,104,556,Prasang (2),Southern EastCoast,8.572083333,99.25519444,-,-,-,-,-,-,-,-,-,-,-,-,-,-,-,-,-,-,-,0.20000000298023224,1.7100000381469727,-,-,-,1.9100000858306885,2022,08,18
104,105,557,Chawang (2),Southern EastCoast,8.424694444,99.50661111,-,-,-,-,-,-,-,-,-,-,-,-,-,-,-,-,-,0.23000000417232513,1.9500000476837158,1.2699999809265137,3.119999885559082,-,-,-,6.569999694824219,2022,08,18
105,106,552,Nakhon Si Thammarat,Southern EastCoast,8.537777777999999,99.94722222,-,-,-,-,-,-,-,-,-,-,-,-,-,-,-,-,-,-,2.069999933242798,5.21999979019165,1.090000033378601,-,-,-,8.380000114440918,2022,08,18
106,107,554,Nakhon Si Thammarat (1),Southern EastCoast,8.359305556,100.0,-,-,-,-,-,-,-,-,-,-,-,3.7899999618530273,-,13.539999961853027,-,1.090000033378601,9.630000114440918,6.960000038146973,2.9700000286102295,3.2799999713897705,1.9600000381469727,-,-,-,43.21999740600586,2022,08,18
107,108,560,Pattalung (1),Southern EastCoast,7.583333611,100.1666669,-,-,-,-,-,-,-,-,-,-,-,-,-,-,0.75,2.819999933242798,3.9200000762939453,3.1700000762939453,3.8299999237060547,-,-,-,-,-,14.489999771118164,2022,08,18
108,109,568,Songkhla,Southern EastCoast,7.182111111,100.6076944,2.2100000381469727,-,-,-,-,-,-,-,-,-,-,-,-,-,-,-,-,-,-,-,3.630000114440918,-,0.4399999976158142,1.1100000143051147,7.390000343322754,2022,08,18
109,110,569,Hat Yai,Southern EastCoast,6.916666944,100.43333359999998,0.3100000023841858,-,-,-,-,-,-,-,-,-,0.5400000214576721,2.359999895095825,-,-,-,-,-,-,-,-,-,-,-,-,3.2099997997283936,2022,08,18
110,111,571,Korhong (1),Southern EastCoast,7.0,100.5,1.350000023841858,-,-,-,-,-,-,-,-,-,-,-,-,-,-,-,-,-,-,-,-,-,-,-,1.350000023841858,2022,08,18
111,112,574,Sa Dao (2),Southern EastCoast,6.798055556,100.3905556,-,-,-,-,-,-,-,-,-,0.10999999940395355,2.3499999046325684,2.3399999141693115,-,-,-,-,-,-,-,-,-,-,-,-,4.799999713897705,2022,08,18
112,113,580,Pattani,Southern EastCoast,6.7833336110000015,101.1500003,-,-,-,-,-,-,-,-,0.3799999952316284,-,-,-,-,-,-,-,-,-,-,-,-,-,-,-,0.3799999952316284,2022,08,18
113,114,581,Yala (1),Southern EastCoast,6.050000278,101.2833336,3.390000104904175,-,-,-,-,-,-,-,-,-,4.800000190734863,-,-,-,-,-,-,-,-,-,-,-,-,1.1799999475479126,9.369999885559082,2022,08,18
114,115,583,Narathiwat,Southern EastCoast,6.416666944,101.81666690000002,2.1700000762939453,-,-,-,-,-,-,-,-,-,-,-,-,-,-,-,-,-,-,-,-,-,3.6500000953674316,-,5.820000171661377,2022,08,18
115,116,532,Ranong,Southern WestCoast,9.983333611,98.61666694,-,-,-,-,-,-,-,-,-,-,-,-,-,-,-,-,-,-,-,-,-,-,-,-,-,2022,08,18
116,117,561,Takua Pa,Southern WestCoast,8.684166667000001,98.25222222,-,-,-,-,-,-,-,-,-,-,-,-,-,-,-,-,-,-,-,-,-,-,-,-,-,2022,08,18
117,118,564,Phuket,Southern WestCoast,7.883333611,98.40000028,-,-,-,-,-,-,-,-,-,-,-,-,-,-,-,-,-,-,-,-,-,-,-,-,-,2022,08,18
118,119,565,Phuket Airport,Southern WestCoast,8.145,98.31444444,-,-,-,-,-,-,-,-,-,-,-,-,-,-,-,-,-,-,-,-,-,-,-,-,-,2022,08,18
119,120,563,Krabi,Southern WestCoast,8.103611111000001,98.97527778,-,-,-,-,-,-,-,-,-,-,-,-,0.009999999776482582,-,-,-,-,-,-,-,-,-,-,-,0.009999999776482582,2022,08,18
120,121,566,Ko Lanta,Southern WestCoast,7.5333336110000015,99.05000028,-,-,-,-,-,-,-,-,-,-,-,-,-,-,-,-,-,-,-,-,-,-,-,-,-,2022,08,18
121,122,567,Trang,Southern WestCoast,7.516666944,99.61666694,-,-,-,-,-,-,-,-,-,-,-,-,-,-,-,0.029999999329447746,0.7699999809265137,0.10000000149011612,0.7099999785423279,-,-,-,-,-,1.6099998950958252,2022,08,18
122,123,570,Satun,Southern WestCoast,6.650000277999999,100.0833336,-,-,-,-,-,-,-,-,-,-,3.309999942779541,-,-,-,-,-,-,-,-,-,-,-,-,-,3.309999942779541,2022,08,18
