,ID,WMO_CODE,NAME_EN,Region,Latitude,Longitude,00Z,01Z,02Z,03Z,04Z,05Z,06Z,07Z,08Z,09Z,10Z,11Z,12Z,13Z,14Z,15Z,16Z,17Z,18Z,19Z,20Z,21Z,22Z,23Z,sum,year,month,day
0,1,300,Mae Hong Son,Northern,19.29897222,97.97577778,-,-,-,-,-,-,-,-,-,1.2200000286102295,2.799999952316284,-,-,-,1.2200000286102295,-,-,-,-,-,-,-,-,-,5.239999771118164,2022,07,29
1,2,325,Mae Sariang,Northern,18.16666667,97.93333333,-,-,-,-,-,-,-,-,-,1.4199999570846558,1.5399999618530273,1.0299999713897705,1.2200000286102295,-,-,-,-,-,-,-,-,-,-,-,5.210000038146973,2022,07,29
2,3,303,Chiang Rai,Northern,19.96138889,99.88138889,-,-,-,-,-,-,-,-,-,-,-,3.069999933242798,3.7699999809265137,-,0.5099999904632568,-,-,-,1.9700000286102295,-,-,-,-,-,9.320000648498535,2022,07,29
3,4,304,Chiang Rai (1),Northern,19.87083333,99.78277778,-,-,-,-,-,-,-,-,-,-,-,5.599999904632568,7.880000114440918,1.3300000429153442,0.009999999776482582,-,-,-,0.7300000190734863,-,-,-,-,-,15.549999237060547,2022,07,29
4,5,310,Phayao,Northern,19.13333333,99.9,-,-,-,-,-,-,-,2.259999990463257,2.5199999809265137,5.300000190734863,2.109999895095825,-,-,-,-,-,-,-,-,-,-,-,-,-,12.1899995803833,2022,07,29
5,6,327,Chiang Mai,Northern,18.79,98.97694444,-,-,-,-,-,-,22.850000381469727,2.5999999046325684,-,0.8500000238418579,3.880000114440918,-,-,-,-,-,-,-,-,-,-,-,-,-,30.18000030517578,2022,07,29
6,7,302,Doi Angkhlang,Northern,19.93138889,99.04833333,-,-,-,-,-,-,-,-,-,-,1.6200000047683716,5.800000190734863,3.7200000286102295,0.10999999940395355,-,-,-,-,-,-,-,-,-,-,11.25,2022,07,29
7,8,331,Nan,Northern,18.77972222,100.7777778,-,-,-,-,-,-,-,-,33.849998474121094,11.050000190734863,0.8100000023841858,-,-,-,-,-,-,-,-,-,-,-,-,-,45.709999084472656,2022,07,29
8,9,333,Nan (1),Northern,18.86666667,100.75,-,-,-,-,-,-,-,-,21.09000015258789,7.360000133514404,1.309999942779541,-,-,-,-,-,-,-,-,-,-,-,-,-,29.760000228881836,2022,07,29
9,10,315,Tha Wang Pha (2),Northern,19.11055556,100.8025,-,-,-,-,-,-,-,-,2.4700000286102295,0.05000000074505806,-,-,-,-,-,-,-,-,-,-,-,-,-,-,2.5199999809265137,2022,07,29
10,11,307,Thung Chang (2),Northern,19.41194444,100.8835278,-,-,-,-,-,-,-,-,-,-,-,-,-,-,-,-,-,-,-,-,-,-,-,-,-,2022,07,29
11,12,329,Lamphun,Northern,18.56666667,99.03333333,-,-,-,-,-,-,-,6.590000152587891,1.1399999856948853,2.5999999046325684,1.7100000381469727,0.009999999776482582,-,-,-,-,-,-,-,-,-,-,-,-,12.050000190734863,2022,07,29
12,13,328,Lampang,Northern,18.33333333,99.51666667,-,-,-,-,-,-,-,-,3.950000047683716,5.269999980926514,2.0899999141693115,0.46000000834465027,-,-,-,-,-,-,-,-,-,-,-,-,11.770000457763672,2022,07,29
13,14,334,Lampang (1),Northern,18.31666667,99.28333333,-,-,-,-,-,-,-,-,1.6699999570846558,5.929999828338623,3.6500000953674316,0.05000000074505806,0.49000000953674316,-,-,-,-,-,-,-,-,-,-,-,11.789999961853027,2022,07,29
14,15,324,Thoen,Northern,17.63661111,99.24475,-,-,-,-,-,-,-,-,-,-,-,-,-,-,-,-,-,-,-,-,-,-,-,-,-,2022,07,29
15,16,330,Phrae,Northern,18.16666667,100.1666667,-,-,-,-,-,-,-,-,2.509999990463257,-,-,-,-,-,-,-,-,-,-,-,-,-,-,-,2.509999990463257,2022,07,29
16,17,351,Uttaradit,Northern,17.61666667,100.1000028,-,-,-,-,-,-,-,-,-,-,1.2400000095367432,-,1.1799999475479126,0.10999999940395355,-,-,-,-,-,-,-,-,-,-,2.5299999713897705,2022,07,29
17,18,372,Sukhothai,Northern,17.10611111,99.8,-,-,-,-,-,-,-,-,-,-,-,-,0.4099999964237213,-,-,-,-,-,-,-,-,-,-,-,0.4099999964237213,2022,07,29
18,19,373,Si Samrong (1),Northern,17.77361111,99.24944444,-,-,-,-,-,-,-,-,-,0.6499999761581421,-,-,-,-,-,-,-,-,-,-,-,-,-,-,0.6499999761581421,2022,07,29
19,20,377,Bhumibol Dam,Northern,17.24391667,99.00252778,-,-,-,-,-,-,-,-,-,-,-,-,-,-,0.1899999976158142,-,-,-,-,-,-,-,-,-,0.1899999976158142,2022,07,29
20,21,376,Tak,Northern,16.87836111,99.14336111,-,-,-,-,-,-,-,-,-,-,-,-,-,-,0.3199999928474426,-,-,-,-,-,-,-,-,-,0.3199999928474426,2022,07,29
21,22,375,Mae Sot,Northern,16.65916667,98.55086111,-,-,-,-,-,-,-,-,-,-,-,-,-,-,0.14000000059604645,-,-,-,-,-,-,-,-,-,0.14000000059604645,2022,07,29
22,23,385,Umphang (2),Northern,16.02472222,98.86444444,-,-,-,-,-,-,-,-,-,0.009999999776482582,-,2.1700000762939453,-,-,-,-,-,-,-,-,-,-,-,-,2.180000066757202,2022,07,29
23,24,387,Doi Muser (1),Northern,16.75,98.93333611,-,-,-,-,-,-,-,-,-,-,-,-,-,-,-,-,-,-,-,-,-,-,-,-,-,2022,07,29
24,25,378,Phitsanulok,Northern,16.79622222,100.2759444,-,-,-,-,-,-,-,-,-,-,-,2.1600000858306885,3.359999895095825,4.849999904632568,5.510000228881836,-,-,-,-,-,-,-,-,-,15.880000114440918,2022,07,29
25,26,374,Lom Sak (2),Northern,16.77363889,101.2494722,-,-,-,-,-,-,-,-,-,-,-,2.819999933242798,4.860000133514404,3.190000057220459,-,-,-,-,-,-,-,-,-,-,10.870000839233398,2022,07,29
26,27,379,Phetchabun,Northern,16.43333611,101.15,-,-,-,-,-,-,-,-,9.9399995803833,5.550000190734863,-,-,-,0.2199999988079071,4.900000095367432,0.009999999776482582,-,-,-,-,-,-,-,-,20.6200008392334,2022,07,29
27,28,413,Wichian Buri (2),Northern,15.65694444,101.1083333,-,-,-,-,-,-,-,-,-,-,-,-,-,-,-,-,-,-,-,-,-,-,-,-,-,2022,07,29
28,29,380,Kamphaeng Phet,Northern,16.48680556,99.52697222,-,-,-,-,-,-,-,-,-,-,-,-,-,-,-,-,-,-,-,-,-,-,-,-,-,2022,07,29
29,30,386,Phicit (1),Northern,16.33861111,100.3671111,-,-,-,-,-,-,-,-,-,-,4.239999771118164,-,-,-,0.25999999046325684,-,-,-,-,-,-,-,-,-,4.5,2022,07,29
30,31,352,Nong Khai,Northeastern,17.86716667,102.7330278,-,-,-,-,-,-,-,-,-,-,-,-,0.2199999988079071,-,-,-,-,-,-,-,-,-,-,-,0.2199999988079071,2022,07,29
31,32,353,Loei,Northeastern,17.45,101.7333333,-,0.9399999976158142,-,-,-,-,-,-,0.03999999910593033,5.289999961853027,10.789999961853027,0.28999999165534973,1.8300000429153442,0.07999999821186066,-,-,-,-,-,-,-,-,-,-,19.260000228881836,2022,07,29
32,33,350,Loei (1),Northeastern,17.4,101.7333333,-,1.1299999952316284,-,-,-,-,-,-,1.8600000143051147,7.739999771118164,6.269999980926514,1.2899999618530273,-,0.07999999821186066,-,-,-,-,-,-,-,-,-,-,18.3700008392334,2022,07,29
33,34,354,Udon Thani,Northeastern,17.38333333,102.8,-,-,-,-,-,-,-,-,-,-,-,-,-,-,-,-,-,-,-,-,-,-,-,-,-,2022,07,29
34,35,357,Nakhon Phanom,Northeastern,17.41083333,104.7825,-,-,-,-,-,-,-,-,-,-,-,-,-,-,-,-,-,-,-,-,-,-,-,-,-,2022,07,29
35,36,358,Nakhon Phanom (1),Northeastern,17.44305556,104.7736111,-,-,-,-,-,-,-,-,-,-,-,-,-,-,0.5,-,-,-,-,-,-,-,-,-,0.5,2022,07,29
36,37,356,Sakon Nakhon,Northeastern,17.15000278,104.1333361,0.23000000417232513,-,-,-,-,-,-,-,-,-,-,-,-,-,-,-,-,-,-,-,-,-,4.360000133514404,0.6200000047683716,5.210000038146973,2022,07,29
37,38,355,Sakon Nakhon (1),Northeastern,17.12502778,104.061,1.7300000190734863,-,-,-,-,-,-,-,-,-,-,-,-,-,-,-,-,-,-,-,-,-,1.9299999475479126,1.090000033378601,4.75,2022,07,29
38,39,360,Nong Bua Lumphu,Northeastern,17.2325,102.4294444,-,-,-,-,-,-,-,-,-,-,0.7400000095367432,-,-,-,-,-,-,-,-,-,-,-,-,-,0.7400000095367432,2022,07,29
39,40,383,Mukdahan,Northeastern,16.54955556,104.7308889,-,-,-,-,-,-,-,-,-,-,-,-,-,-,-,-,-,-,-,-,-,-,-,-,-,2022,07,29
40,41,381,Khon Kaen,Northeastern,16.46111111,102.7897222,-,-,-,-,-,-,-,-,-,-,-,-,-,-,-,-,-,-,0.20000000298023224,0.029999999329447746,-,-,-,-,0.23000000417232513,2022,07,29
41,42,384,Tha Pra (1),Northeastern,16.333,102.8166667,-,-,-,-,-,-,-,-,-,-,-,-,-,-,-,-,-,-,-,-,-,-,-,-,-,2022,07,29
42,43,382,Kosum Phisai (2),Northeastern,16.24722222,103.0680556,-,-,-,-,-,-,-,-,-,-,-,-,-,-,-,-,-,-,-,-,-,-,-,-,-,2022,07,29
43,44,390,Kamalasai (2),Northeastern,16.3325,103.5883333,0.8999999761581421,-,-,-,-,-,-,-,-,-,0.6700000166893005,-,-,-,-,-,-,-,-,-,-,0.6499999761581421,-,-,2.2199997901916504,2022,07,29
44,45,405,Roi Et,Northeastern,16.05000028,103.68333359999998,-,-,-,-,-,-,-,-,-,-,-,-,-,-,-,-,-,-,-,-,-,-,-,-,-,2022,07,29
45,46,404,Roi Et (1),Northeastern,16.07322222,103.6084444,-,-,-,-,-,-,-,-,-,-,-,-,-,-,-,-,-,-,-,-,-,-,-,-,-,2022,07,29
46,47,403,Chaiyaphum,Northeastern,15.80000028,102.0333336,-,-,-,-,-,-,-,-,-,-,-,-,-,-,-,-,-,-,-,0.3400000035762787,-,-,-,-,0.3400000035762787,2022,07,29
47,48,407,Ubon Ratchathani,Northeastern,15.25000278,104.8666694,-,-,-,-,-,-,-,-,-,-,-,-,-,10.949999809265137,6.230000019073486,2.4700000286102295,-,-,-,-,-,-,-,-,19.649999618530273,2022,07,29
48,49,408,Ubon Ratchathani (1),Northeastern,15.24072222,105.01966670000002,-,-,-,-,-,-,-,-,-,-,-,-,4.179999828338623,10.520000457763672,5.630000114440918,1.3700000047683716,-,-,-,-,-,-,-,-,21.700002670288086,2022,07,29
49,50,409,Si Saket (1),Northeastern,15.00000028,104.0500003,-,-,-,-,-,-,-,-,-,-,-,-,-,-,-,-,-,-,-,-,-,-,-,-,-,2022,07,29
50,51,416,Tha Tum (2),Northeastern,15.31666694,103.68333359999998,-,-,-,-,-,-,-,-,-,-,-,-,-,-,-,-,-,-,-,-,-,-,-,-,-,2022,07,29
51,52,432,Surin,Northeastern,14.88333361,103.5000003,-,-,-,-,-,-,-,-,-,-,-,-,-,-,-,-,-,-,-,-,-,-,-,-,-,2022,07,29
52,53,433,Surin (1),Northeastern,14.88333361,103.4500003,-,-,-,-,-,-,-,-,-,-,-,-,-,-,-,-,-,-,-,-,-,-,-,-,-,2022,07,29
53,54,431,Nakhon Ratchasima,Northeastern,14.96830556,102.0860278,-,-,-,-,-,-,-,-,-,-,-,-,-,-,-,-,-,-,-,-,-,-,-,-,-,2022,07,29
54,55,435,Pakchong (1),Northeastern,14.64388889,101.3319444,-,-,-,-,-,-,-,-,2.0199999809265137,0.36000001430511475,-,-,-,-,-,-,-,-,-,-,-,-,-,-,2.380000114440918,2022,07,29
55,56,434,Chok Chai (2),Northeastern,14.71888889,102.1686111,-,-,-,-,-,-,-,-,-,-,-,-,4.880000114440918,-,-,-,-,-,-,-,-,-,-,-,4.880000114440918,2022,07,29
56,57,437,Buri Ram,Northeastern,15.22575,103.2480833,-,-,-,-,-,-,-,-,-,-,-,-,-,-,-,-,-,-,-,-,-,-,-,-,-,2022,07,29
57,58,436,Nang Rong (2),Northeastern,14.58333361,102.8000003,-,-,-,-,-,-,-,-,-,-,-,-,-,-,-,-,-,-,-,-,-,-,-,-,-,2022,07,29
58,59,400,Nakhon Sawan,Central,15.67183333,100.1323611,-,-,-,-,-,-,-,-,-,-,-,-,-,-,-,-,-,-,1.2799999713897705,-,-,-,-,-,1.2799999713897705,2022,07,29
59,60,401,Takfa (1),Central,15.34944444,100.5302778,-,-,-,-,-,-,-,-,2.0199999809265137,-,-,-,-,-,-,-,-,-,-,-,-,-,-,-,2.0199999809265137,2022,07,29
60,61,402,Chai Nat,Central,15.15000278,100.18333359999998,-,-,-,-,-,-,-,-,-,-,-,-,-,-,0.800000011920929,-,-,-,-,-,-,-,-,-,0.800000011920929,2022,07,29
61,62,410,U Thai Thani,Central,15.37416667,100.0388889,-,-,-,-,-,-,-,-,-,-,-,1.0399999618530273,-,-,-,-,-,-,-,-,-,-,-,-,1.0399999618530273,2022,07,29
62,63,415,Ayuthaya (1),Central,14.53472222,100.725,-,-,-,-,-,-,-,-,-,0.8999999761581421,-,-,-,-,-,-,-,-,-,-,-,-,-,-,0.8999999761581421,2022,07,29
63,64,418,Bua Chum (2),Central,15.10000028,101.6166669,-,-,-,-,-,-,-,-,-,-,-,-,-,-,-,-,-,-,-,-,-,-,-,-,-,2022,07,29
64,65,426,Lop Buri,Central,14.79972222,100.6283333,-,-,-,-,-,-,-,-,-,-,-,-,-,-,-,-,-,-,-,-,-,-,-,-,-,2022,07,29
65,66,425,Suphan Buri,Central,14.47444444,100.1388889,-,-,-,-,-,-,-,-,-,-,-,-,-,-,-,-,-,-,-,-,-,-,-,-,-,2022,07,29
66,67,427,Uthong (1),Central,14.30361111,99.86472222,-,-,-,-,-,-,-,-,-,-,-,-,-,-,-,-,-,-,-,-,-,-,-,-,-,2022,07,29
67,68,421,Thong Pha Phum,Central,14.74222222,98.63638889,-,-,-,-,-,-,-,-,-,-,-,-,-,-,-,-,-,-,-,-,-,-,-,-,-,2022,07,29
68,69,450,Kanchanaburi,Central,14.0225,99.53583333,-,-,-,-,-,-,-,-,-,-,-,-,-,-,-,-,-,-,-,-,-,-,-,-,-,2022,07,29
69,70,464,Ratcha Buri (1),Central,13.48930556,99.79238889,-,0.20000000298023224,-,-,-,-,-,-,-,-,-,-,-,-,-,-,-,-,-,-,-,-,-,-,0.20000000298023224,2022,07,29
70,71,451,Kampheang Saen (1),Central,14.01166667,99.97,-,-,-,-,-,-,-,-,-,-,-,-,-,-,-,-,-,-,-,-,-,-,-,-,-,2022,07,29
71,72,419,Pathum Thani (1),Central,14.1,100.616,-,-,-,-,-,-,-,-,-,-,-,-,-,-,-,-,-,-,-,-,-,-,-,-,-,2022,07,29
72,73,420,Samut Prakan,Central,13.51666694,100.7616667,-,-,-,-,-,-,-,-,0.5400000214576721,-,-,-,-,-,-,-,-,-,-,-,-,-,-,-,0.5400000214576721,2022,07,29
73,74,429,Suvarnabhumi Airport,Central,13.68638889,100.7675,-,-,-,-,-,-,-,-,-,-,-,-,-,-,-,-,-,-,-,-,-,-,-,-,-,2022,07,29
74,75,456,Don Muang Airport,Central,13.91916667,100.605,-,-,-,-,-,-,-,-,-,-,0.10000000149011612,-,-,-,-,-,-,-,-,-,-,-,-,-,0.10000000149011612,2022,07,29
75,76,455,Sirikit Center,Central,13.72638889,100.56,-,-,-,-,-,-,-,-,-,-,-,-,-,-,-,-,-,-,-,-,-,-,-,-,-,2022,07,29
76,77,454,Bangkok Port,Central,13.70694444,100.5680556,-,-,-,-,-,-,-,-,-,-,-,-,-,-,-,-,-,-,-,-,-,-,-,-,-,2022,07,29
77,78,453,Bang Na (1),Central,13.66638889,100.6061111,-,-,-,-,-,-,-,-,-,-,-,-,-,-,-,-,-,-,-,-,-,-,-,-,-,2022,07,29
78,79,457,Bangkok Pilot,Central,13.37722222,100.5994444,-,-,-,-,-,-,-,-,5.619999885559082,-,0.7200000286102295,-,-,-,-,-,-,-,-,-,-,-,-,-,6.340000152587891,2022,07,29
79,80,430,Prachin Buri,Eastern,14.05091667,101.3693056,-,-,-,-,-,-,-,-,-,-,-,0.6200000047683716,0.2199999988079071,-,-,-,-,-,-,-,-,-,-,-,0.8400000333786011,2022,07,29
80,81,439,Kabin Buri (2),Eastern,13.98333361,101.7072222,-,-,-,-,-,-,-,-,-,-,0.25999999046325684,-,-,-,-,-,-,-,-,-,-,-,-,-,0.25999999046325684,2022,07,29
81,82,440,Sa Kaeo (2),Eastern,13.78888889,102.0347222,-,-,-,-,-,-,-,-,-,-,-,-,-,-,-,-,-,-,-,-,-,-,-,-,-,2022,07,29
82,83,462,Aranyaprathet,Eastern,13.70000028,102.5833336,-,-,-,-,-,-,-,-,-,-,-,-,-,-,-,-,-,-,-,-,-,-,-,-,-,2022,07,29
83,84,458,Chachoengsao (1),Eastern,13.51555556,101.4583333,-,-,-,-,-,-,-,-,1.1200000047683716,-,-,-,-,-,-,-,-,-,-,-,-,-,-,-,1.1200000047683716,2022,07,29
84,85,459,Chon Buri,Eastern,13.36666694,100.9833336,-,-,-,-,-,-,-,2.6500000953674316,-,1.0399999618530273,4.050000190734863,-,0.10000000149011612,-,-,-,-,-,-,-,-,-,-,-,7.840000152587891,2022,07,29
85,86,463,Laem Chabang,Eastern,13.07694444,100.8758333,-,-,-,-,-,-,-,-,-,-,-,-,-,-,-,-,-,-,-,-,-,-,-,-,-,2022,07,29
86,87,460,Ko Sichang,Eastern,13.16166667,100.8019444,-,-,-,-,-,-,-,-,9.5,12.09000015258789,8.329999923706055,-,-,-,-,-,-,-,-,-,-,-,-,-,29.920000076293945,2022,07,29
87,88,461,Pattaya,Eastern,12.92,100.8694444,-,-,-,-,-,-,-,-,-,-,-,-,-,-,-,-,-,-,-,-,-,-,-,-,-,2022,07,29
88,89,477,Sattahip,Eastern,12.68333361,100.9833336,-,-,-,-,-,-,-,-,-,-,-,-,-,-,-,-,-,-,-,-,-,-,-,-,-,2022,07,29
89,90,478,Rayong,Eastern,12.61702778,101.34075,-,-,-,-,-,-,-,-,-,-,-,-,-,-,-,-,-,-,-,-,-,-,-,-,-,2022,07,29
90,91,479,Huai Pong (1),Eastern,12.73333361,101.1333336,-,-,-,-,-,-,-,-,-,-,-,-,-,-,-,-,-,-,-,-,-,-,-,-,-,2022,07,29
91,92,480,Chanthaburi,Eastern,12.61666694,102.1133333,-,-,-,-,-,-,-,-,-,-,-,-,-,-,-,-,-,-,-,-,-,-,-,-,-,2022,07,29
92,93,481,Pluei (1),Eastern,12.50861111,102.1730556,-,-,-,-,-,-,-,-,-,-,-,-,-,-,-,-,-,-,-,-,-,-,-,-,-,2022,07,29
93,94,501,Khlong Yai,Eastern,11.76666694,102.8833336,-,-,-,-,-,-,-,-,-,-,-,-,-,-,-,-,-,-,-,-,-,-,-,-,-,2022,07,29
94,95,465,Phetchaburi,Southern EastCoast,12.99930556,100.0605278,-,-,-,-,-,-,-,-,-,-,-,-,-,-,-,-,-,-,-,-,-,-,-,-,-,2022,07,29
95,96,474,Nong Plub (1),Southern EastCoast,12.58925,99.73461111,-,-,-,-,-,-,-,-,-,-,-,-,-,-,-,-,-,-,-,-,-,-,-,-,-,2022,07,29
96,97,475,Hua Hin,Southern EastCoast,12.57797222,99.95372222,-,-,-,-,-,-,-,-,-,-,-,-,-,-,-,-,-,-,-,-,-,-,-,-,-,2022,07,29
97,98,500,Prachuap Khiri Khan,Southern EastCoast,11.83497222,99.81047222,-,-,-,-,-,-,-,-,-,-,-,-,-,-,-,-,-,-,-,-,-,-,-,-,-,2022,07,29
98,99,517,Chumphon,Southern EastCoast,10.49875,99.18847222,-,-,-,-,-,-,-,-,-,-,-,-,-,-,-,-,-,-,0.6399999856948853,-,-,-,-,-,0.6399999856948853,2022,07,29
99,100,520,Sawee (1),Southern EastCoast,10.33063889,99.09186111,-,-,-,-,-,-,-,-,-,-,-,-,-,-,-,-,-,-,-,-,-,-,-,-,-,2022,07,29
100,101,551,Surat Thani,Southern EastCoast,9.1335,99.15213889,-,-,-,-,-,-,-,-,-,3.119999885559082,1.7100000381469727,-,-,-,-,-,-,-,-,-,-,-,-,-,4.829999923706055,2022,07,29
101,102,555,Surat Thani (1),Southern EastCoast,9.144805556,99.63361111,-,-,-,-,-,-,-,-,-,-,-,-,-,-,-,-,-,-,-,-,-,-,-,-,-,2022,07,29
102,103,550,Ko Samui,Southern EastCoast,9.466666667,100.05,-,-,-,-,-,-,-,-,-,-,-,-,-,-,-,-,-,-,-,-,-,-,-,-,-,2022,07,29
103,104,556,Prasang (2),Southern EastCoast,8.572083333,99.25519444,-,-,-,-,-,-,-,-,-,9.479999542236328,7.170000076293945,-,1.4800000190734863,-,-,-,-,-,-,-,-,-,-,-,18.1299991607666,2022,07,29
104,105,557,Chawang (2),Southern EastCoast,8.424694444,99.50661111,-,-,-,-,-,-,-,-,-,-,10.180000305175781,6.78000020980835,1.9700000286102295,-,-,-,-,-,-,-,-,-,-,-,18.93000030517578,2022,07,29
105,106,552,Nakhon Si Thammarat,Southern EastCoast,8.537777777999999,99.94722222,-,-,-,-,-,-,-,-,-,-,-,-,-,-,-,-,-,-,-,-,-,-,-,-,-,2022,07,29
106,107,554,Nakhon Si Thammarat (1),Southern EastCoast,8.359305556,100.0,-,-,-,-,-,-,-,-,-,-,-,32.09000015258789,-,-,-,-,-,-,-,-,-,-,-,-,32.09000015258789,2022,07,29
107,108,560,Pattalung (1),Southern EastCoast,7.583333611,100.1666669,1.659999966621399,-,-,-,-,-,-,-,-,-,-,-,-,-,-,-,-,-,-,-,0.6399999856948853,2.0299999713897705,-,-,4.329999923706055,2022,07,29
108,109,568,Songkhla,Southern EastCoast,7.182111111,100.6076944,-,-,-,-,-,-,-,-,-,-,-,-,-,-,0.11999999731779099,-,-,-,3.759999990463257,1.940000057220459,-,-,-,-,5.819999694824219,2022,07,29
109,110,569,Hat Yai,Southern EastCoast,6.916666944,100.43333359999998,-,-,-,-,-,-,-,-,-,-,-,0.4099999964237213,7.630000114440918,21.399999618530273,-,-,-,-,-,-,-,-,-,-,29.439998626708984,2022,07,29
110,111,571,Korhong (1),Southern EastCoast,7.0,100.5,-,-,-,-,-,-,-,-,-,-,-,-,9.8100004196167,11.300000190734863,-,-,-,-,-,-,-,-,-,-,21.110000610351562,2022,07,29
111,112,574,Sa Dao (2),Southern EastCoast,6.798055556,100.3905556,-,-,-,-,-,-,-,-,-,-,-,0.7300000190734863,4.050000190734863,15.710000038146973,-,-,-,-,-,-,-,-,-,-,20.489999771118164,2022,07,29
112,113,580,Pattani,Southern EastCoast,6.7833336110000015,101.1500003,-,-,-,-,-,-,-,-,-,-,-,-,0.6100000143051147,-,-,-,-,-,-,-,-,-,-,-,0.6100000143051147,2022,07,29
113,114,581,Yala (1),Southern EastCoast,6.050000278,101.2833336,-,-,-,-,-,-,-,-,-,0.03999999910593033,6.190000057220459,-,-,8.510000228881836,2.859999895095825,-,-,-,-,-,-,-,-,-,17.600000381469727,2022,07,29
114,115,583,Narathiwat,Southern EastCoast,6.416666944,101.81666690000002,0.2199999988079071,-,-,-,-,-,-,-,-,-,-,-,-,-,-,-,-,-,-,-,-,-,-,2.5299999713897705,2.75,2022,07,29
115,116,532,Ranong,Southern WestCoast,9.983333611,98.61666694,-,-,-,-,-,-,-,-,-,-,1.2300000190734863,-,-,-,-,-,1.8200000524520874,-,-,-,-,-,-,-,3.0500001907348633,2022,07,29
116,117,561,Takua Pa,Southern WestCoast,8.684166667000001,98.25222222,-,-,-,-,-,-,-,-,1.0399999618530273,0.8899999856948853,6.300000190734863,4.849999904632568,1.5099999904632568,0.23000000417232513,-,-,-,-,-,-,-,-,-,-,14.819999694824219,2022,07,29
117,118,564,Phuket,Southern WestCoast,7.883333611,98.40000028,-,-,-,-,-,-,-,-,-,-,-,-,-,-,-,-,-,-,-,-,-,-,-,-,-,2022,07,29
118,119,565,Phuket Airport,Southern WestCoast,8.145,98.31444444,-,-,-,-,-,-,-,-,-,-,0.009999999776482582,4.239999771118164,-,0.7300000190734863,-,-,-,-,-,-,-,-,-,-,4.980000019073486,2022,07,29
119,120,563,Krabi,Southern WestCoast,8.103611111000001,98.97527778,-,-,-,-,-,-,-,4.940000057220459,-,-,-,1.2400000095367432,2.690000057220459,-,-,-,-,-,-,-,-,-,-,-,8.870000839233398,2022,07,29
120,121,566,Ko Lanta,Southern WestCoast,7.5333336110000015,99.05000028,-,-,-,-,-,-,-,-,-,-,-,-,-,-,-,-,-,-,-,-,-,-,-,-,-,2022,07,29
121,122,567,Trang,Southern WestCoast,7.516666944,99.61666694,-,-,-,-,-,-,-,-,-,-,-,-,-,-,-,-,-,-,-,-,-,1.2899999618530273,-,-,1.2899999618530273,2022,07,29
122,123,570,Satun,Southern WestCoast,6.650000277999999,100.0833336,-,-,-,-,-,-,-,-,-,-,-,0.7300000190734863,1.8600000143051147,-,-,-,-,-,-,-,-,-,-,-,2.5900001525878906,2022,07,29
