,ID,WMO_CODE,NAME_EN,Region,Latitude,Longitude,00Z,01Z,02Z,03Z,04Z,05Z,06Z,07Z,08Z,09Z,10Z,11Z,12Z,13Z,14Z,15Z,16Z,17Z,18Z,19Z,20Z,21Z,22Z,23Z,sum,year,month,day
0,1,300,Mae Hong Son,Northern,19.29897222,97.97577778,-,-,-,-,-,-,-,-,-,-,-,0.019999999552965164,-,-,-,-,-,-,-,-,-,-,-,-,0.019999999552965164,2022,03,10
1,2,325,Mae Sariang,Northern,18.16666667,97.93333333,-,-,-,-,-,-,-,-,-,-,-,1.9800000190734863,-,-,-,-,-,-,-,-,-,-,-,-,1.9800000190734863,2022,03,10
2,3,303,Chiang Rai,Northern,19.96138889,99.88138889,-,-,-,-,-,-,-,-,-,-,-,-,-,-,-,-,-,-,-,-,-,-,-,-,-,2022,03,10
3,4,304,Chiang Rai (1),Northern,19.87083333,99.78277778,-,-,-,-,-,-,-,-,-,-,-,-,-,-,-,-,-,-,-,-,-,-,-,-,-,2022,03,10
4,5,310,Phayao,Northern,19.13333333,99.9,-,-,-,-,-,-,-,-,-,-,-,-,1.590000033378601,-,-,-,-,-,-,-,-,-,-,-,1.590000033378601,2022,03,10
5,6,327,Chiang Mai,Northern,18.79,98.97694444,-,-,-,-,-,-,-,-,-,-,-,0.5,-,-,-,-,-,-,-,-,-,-,-,-,0.5,2022,03,10
6,7,302,Doi Angkhlang,Northern,19.93138889,99.04833333,-,-,-,-,-,-,-,-,-,-,-,-,-,-,-,0.1899999976158142,-,-,-,-,-,-,-,-,0.1899999976158142,2022,03,10
7,8,331,Nan,Northern,18.77972222,100.7777778,-,-,-,-,-,-,-,-,-,-,-,-,-,-,-,-,-,-,-,-,-,-,-,-,-,2022,03,10
8,9,333,Nan (1),Northern,18.86666667,100.75,-,-,-,-,-,-,-,-,-,-,-,-,-,-,-,-,-,-,-,-,-,-,-,-,-,2022,03,10
9,10,315,Tha Wang Pha (2),Northern,19.11055556,100.8025,-,-,-,-,-,-,-,-,-,-,-,-,0.10000000149011612,-,-,-,-,-,-,-,-,-,-,-,0.10000000149011612,2022,03,10
10,11,307,Thung Chang (2),Northern,19.41194444,100.8835278,-,-,-,-,-,-,-,-,-,-,-,-,-,-,-,-,-,-,-,-,-,-,-,-,-,2022,03,10
11,12,329,Lamphun,Northern,18.56666667,99.03333333,-,-,-,-,-,-,-,-,-,-,-,1.1399999856948853,-,-,-,-,-,-,-,-,-,-,-,-,1.1399999856948853,2022,03,10
12,13,328,Lampang,Northern,18.33333333,99.51666667,-,-,-,-,-,-,-,-,-,-,-,-,-,-,-,0.05000000074505806,-,-,0.800000011920929,-,-,-,-,-,0.8500000238418579,2022,03,10
13,14,334,Lampang (1),Northern,18.31666667,99.28333333,-,-,-,-,-,-,-,-,-,-,-,0.7300000190734863,-,-,0.25999999046325684,-,0.30000001192092896,-,7.03000020980835,-,-,-,-,-,8.319999694824219,2022,03,10
14,15,324,Thoen,Northern,17.63661111,99.24475,-,-,-,-,-,-,-,-,-,-,-,-,0.4099999964237213,0.7300000190734863,0.10000000149011612,0.009999999776482582,0.30000001192092896,-,-,-,-,-,-,-,1.5499999523162842,2022,03,10
15,16,330,Phrae,Northern,18.16666667,100.1666667,-,-,-,-,-,-,-,-,-,-,-,-,-,-,-,-,-,-,-,-,-,-,-,-,-,2022,03,10
16,17,351,Uttaradit,Northern,17.61666667,100.1000028,-,-,-,-,-,-,-,-,-,-,-,-,-,-,-,-,-,-,0.09000000357627869,-,-,-,-,-,0.09000000357627869,2022,03,10
17,18,372,Sukhothai,Northern,17.10611111,99.8,-,-,-,-,-,-,-,-,-,-,-,-,-,-,-,-,-,-,-,-,-,-,-,-,-,2022,03,10
18,19,373,Si Samrong (1),Northern,17.77361111,99.24944444,-,-,-,-,-,-,-,-,-,-,-,-,-,0.25999999046325684,0.029999999329447746,0.009999999776482582,0.30000001192092896,1.399999976158142,-,-,-,-,-,-,2.0,2022,03,10
19,20,377,Bhumibol Dam,Northern,17.24391667,99.00252778,-,-,-,-,-,-,-,-,-,-,3.559999942779541,2.2799999713897705,2.5399999618530273,0.9900000095367432,3.0199999809265137,4.980000019073486,0.6600000262260437,-,-,-,-,-,-,-,18.029998779296875,2022,03,10
20,21,376,Tak,Northern,16.87836111,99.14336111,-,-,-,-,-,-,-,-,-,-,-,5.579999923706055,4.019999980926514,0.5600000023841858,3.6600000858306885,3.5399999618530273,-,-,-,-,-,-,-,-,17.360000610351562,2022,03,10
21,22,375,Mae Sot,Northern,16.65916667,98.55086111,-,-,-,-,-,-,-,-,-,-,-,2.509999990463257,2.180000066757202,5.980000019073486,7.619999885559082,3.809999942779541,-,-,-,-,-,-,-,-,22.100000381469727,2022,03,10
22,23,385,Umphang (2),Northern,16.02472222,98.86444444,-,-,-,-,-,-,-,-,-,-,-,-,-,-,-,-,-,-,-,-,-,-,-,-,-,2022,03,10
23,24,387,Doi Muser (1),Northern,16.75,98.93333611,-,-,-,-,-,-,-,-,-,-,-,11.3100004196167,3.930000066757202,2.259999990463257,4.610000133514404,2.759999990463257,-,-,-,-,-,-,-,-,24.8700008392334,2022,03,10
24,25,378,Phitsanulok,Northern,16.79622222,100.2759444,-,-,-,-,-,-,-,-,-,-,-,-,-,-,-,-,-,-,-,-,-,-,-,-,-,2022,03,10
25,26,374,Lom Sak (2),Northern,16.77363889,101.2494722,-,-,-,-,-,-,-,-,-,-,-,-,-,-,-,-,-,-,-,-,-,-,-,-,-,2022,03,10
26,27,379,Phetchabun,Northern,16.43333611,101.15,-,-,-,-,-,-,-,-,-,-,-,-,-,-,-,-,-,-,-,-,-,-,-,-,-,2022,03,10
27,28,413,Wichian Buri (2),Northern,15.65694444,101.1083333,-,-,-,-,-,-,-,-,-,-,-,-,-,-,-,-,-,-,-,-,-,-,-,-,-,2022,03,10
28,29,380,Kamphaeng Phet,Northern,16.48680556,99.52697222,-,-,-,-,-,-,-,-,-,-,-,-,-,-,-,-,-,-,-,-,-,-,-,-,-,2022,03,10
29,30,386,Phicit (1),Northern,16.33861111,100.3671111,-,-,-,-,-,-,-,-,-,-,-,-,-,-,-,-,-,-,-,-,-,-,-,-,-,2022,03,10
30,31,352,Nong Khai,Northeastern,17.86716667,102.7330278,-,-,-,-,-,-,-,-,-,-,-,-,-,-,-,-,-,-,-,-,-,-,-,-,-,2022,03,10
31,32,353,Loei,Northeastern,17.45,101.7333333,-,-,-,-,-,-,-,-,-,-,-,-,-,-,-,-,-,-,-,-,-,-,-,-,-,2022,03,10
32,33,350,Loei (1),Northeastern,17.4,101.7333333,-,-,-,-,-,-,-,-,-,-,-,-,-,-,-,-,-,-,-,-,-,-,-,-,-,2022,03,10
33,34,354,Udon Thani,Northeastern,17.38333333,102.8,-,-,-,-,-,-,-,-,-,-,-,-,-,-,-,-,-,-,-,-,-,-,-,-,-,2022,03,10
34,35,357,Nakhon Phanom,Northeastern,17.41083333,104.7825,-,-,-,-,-,-,-,-,-,-,-,-,-,-,-,-,-,-,-,-,-,-,-,-,-,2022,03,10
35,36,358,Nakhon Phanom (1),Northeastern,17.44305556,104.7736111,-,-,-,-,-,-,-,-,-,-,-,-,-,-,-,-,-,-,-,-,-,-,-,-,-,2022,03,10
36,37,356,Sakon Nakhon,Northeastern,17.15000278,104.1333361,-,-,-,-,-,-,-,-,-,-,-,-,-,-,-,-,-,-,-,-,-,-,-,-,-,2022,03,10
37,38,355,Sakon Nakhon (1),Northeastern,17.12502778,104.061,-,-,-,-,-,-,-,-,-,-,-,-,-,-,-,-,-,-,-,-,-,-,-,-,-,2022,03,10
38,39,360,Nong Bua Lumphu,Northeastern,17.2325,102.4294444,-,-,-,-,-,-,-,-,-,-,-,-,-,-,-,-,-,-,-,-,-,-,-,-,-,2022,03,10
39,40,383,Mukdahan,Northeastern,16.54955556,104.7308889,-,-,-,-,-,-,-,-,-,-,-,-,-,-,-,-,-,-,-,-,-,-,-,-,-,2022,03,10
40,41,381,Khon Kaen,Northeastern,16.46111111,102.7897222,-,-,-,-,-,-,-,-,-,-,-,-,-,-,-,-,-,-,-,-,-,-,-,-,-,2022,03,10
41,42,384,Tha Pra (1),Northeastern,16.333,102.8166667,-,-,-,-,-,-,-,-,-,-,-,-,-,-,-,-,-,-,-,-,-,-,-,-,-,2022,03,10
42,43,382,Kosum Phisai (2),Northeastern,16.24722222,103.0680556,-,-,-,-,-,-,-,-,-,-,-,-,-,-,-,-,-,-,-,-,-,-,-,-,-,2022,03,10
43,44,390,Kamalasai (2),Northeastern,16.3325,103.5883333,-,-,-,-,-,-,-,-,-,-,-,-,-,-,-,-,-,-,-,-,-,-,-,-,-,2022,03,10
44,45,405,Roi Et,Northeastern,16.05000028,103.68333359999998,-,-,-,-,-,-,-,-,-,-,-,-,-,-,-,-,-,-,-,-,-,-,-,-,-,2022,03,10
45,46,404,Roi Et (1),Northeastern,16.07322222,103.6084444,-,-,-,-,-,-,-,-,-,-,-,-,-,-,-,-,-,-,-,-,-,-,-,-,-,2022,03,10
46,47,403,Chaiyaphum,Northeastern,15.80000028,102.0333336,-,-,-,-,-,-,-,-,-,-,-,-,-,-,-,-,-,-,-,-,-,-,-,-,-,2022,03,10
47,48,407,Ubon Ratchathani,Northeastern,15.25000278,104.8666694,-,-,-,-,-,-,-,-,-,-,-,-,-,-,-,-,-,-,-,-,-,-,-,-,-,2022,03,10
48,49,408,Ubon Ratchathani (1),Northeastern,15.24072222,105.01966670000002,-,-,-,-,-,-,-,-,-,-,-,-,-,-,-,-,-,-,-,-,-,-,-,-,-,2022,03,10
49,50,409,Si Saket (1),Northeastern,15.00000028,104.0500003,-,-,-,-,-,-,-,-,-,-,-,-,-,-,-,-,-,-,-,-,-,-,-,-,-,2022,03,10
50,51,416,Tha Tum (2),Northeastern,15.31666694,103.68333359999998,-,-,-,-,-,-,-,-,-,-,-,-,-,-,-,-,-,-,-,-,-,-,-,-,-,2022,03,10
51,52,432,Surin,Northeastern,14.88333361,103.5000003,-,-,-,-,-,-,-,-,-,-,-,-,-,-,-,-,-,-,-,-,-,-,-,-,-,2022,03,10
52,53,433,Surin (1),Northeastern,14.88333361,103.4500003,-,-,-,-,-,-,-,-,-,-,-,-,-,-,-,-,-,-,-,-,-,-,-,-,-,2022,03,10
53,54,431,Nakhon Ratchasima,Northeastern,14.96830556,102.0860278,-,-,-,-,-,-,-,-,-,-,-,-,-,-,-,-,-,-,-,-,-,-,-,-,-,2022,03,10
54,55,435,Pakchong (1),Northeastern,14.64388889,101.3319444,-,-,-,-,-,-,-,-,-,-,-,-,1.1100000143051147,5.289999961853027,2.3399999141693115,-,-,-,-,-,-,-,-,-,8.739999771118164,2022,03,10
55,56,434,Chok Chai (2),Northeastern,14.71888889,102.1686111,-,-,-,-,-,-,-,-,-,-,-,-,-,-,-,-,-,-,-,-,-,-,-,-,-,2022,03,10
56,57,437,Buri Ram,Northeastern,15.22575,103.2480833,-,-,-,-,-,-,-,-,-,-,-,-,-,-,-,-,-,-,-,-,-,-,-,-,-,2022,03,10
57,58,436,Nang Rong (2),Northeastern,14.58333361,102.8000003,-,-,-,-,-,-,-,-,-,-,-,-,-,-,-,-,-,-,-,-,-,-,-,-,-,2022,03,10
58,59,400,Nakhon Sawan,Central,15.67183333,100.1323611,-,-,-,-,-,-,-,-,-,-,-,-,-,-,-,-,-,-,-,-,-,-,-,-,-,2022,03,10
59,60,401,Takfa (1),Central,15.34944444,100.5302778,-,-,-,-,-,-,-,-,-,-,-,-,-,-,-,-,-,-,-,-,-,-,-,-,-,2022,03,10
60,61,402,Chai Nat,Central,15.15000278,100.18333359999998,-,-,-,-,-,-,-,-,-,-,-,-,-,-,-,-,-,-,-,-,-,-,-,-,-,2022,03,10
61,62,410,U Thai Thani,Central,15.37416667,100.0388889,-,-,-,-,-,-,-,-,-,-,-,-,-,-,-,-,-,-,-,-,-,-,-,-,-,2022,03,10
62,63,415,Ayuthaya (1),Central,14.53472222,100.725,-,-,-,-,-,-,-,-,-,-,-,-,0.10000000149011612,-,-,-,-,-,-,-,-,-,-,-,0.10000000149011612,2022,03,10
63,64,418,Bua Chum (2),Central,15.10000028,101.6166669,-,-,-,-,-,-,-,-,-,-,-,-,-,-,-,-,-,-,-,-,-,-,-,-,-,2022,03,10
64,65,426,Lop Buri,Central,14.79972222,100.6283333,-,-,-,-,-,-,-,-,-,-,-,-,-,-,-,-,-,-,-,-,-,-,-,-,-,2022,03,10
65,66,425,Suphan Buri,Central,14.47444444,100.1388889,-,-,-,-,-,-,-,-,-,-,-,-,-,-,-,-,-,-,-,-,-,-,-,-,-,2022,03,10
66,67,427,Uthong (1),Central,14.30361111,99.86472222,-,-,-,-,-,-,-,-,-,-,-,-,-,-,-,-,-,-,-,-,-,-,-,-,-,2022,03,10
67,68,421,Thong Pha Phum,Central,14.74222222,98.63638889,-,-,-,-,-,-,-,-,-,-,-,0.3100000023841858,-,-,-,-,-,-,-,-,-,-,-,-,0.3100000023841858,2022,03,10
68,69,450,Kanchanaburi,Central,14.0225,99.53583333,-,-,-,-,-,-,-,-,-,-,-,-,-,-,-,-,-,-,-,-,-,-,-,-,-,2022,03,10
69,70,464,Ratcha Buri (1),Central,13.48930556,99.79238889,-,-,-,-,-,-,-,-,-,-,-,-,-,-,-,-,-,-,-,-,-,-,-,-,-,2022,03,10
70,71,451,Kampheang Saen (1),Central,14.01166667,99.97,-,-,-,-,-,-,-,-,-,-,-,-,-,-,-,-,-,-,-,-,-,-,-,-,-,2022,03,10
71,72,419,Pathum Thani (1),Central,14.1,100.616,-,-,-,-,-,-,-,-,-,3.309999942779541,-,-,-,-,-,-,-,-,-,-,-,-,-,-,3.309999942779541,2022,03,10
72,73,420,Samut Prakan,Central,13.51666694,100.7616667,-,-,-,-,-,-,-,-,-,-,-,-,-,-,-,-,-,-,-,-,-,-,-,-,-,2022,03,10
73,74,429,Suvarnabhumi Airport,Central,13.68638889,100.7675,-,-,-,-,-,-,-,-,-,-,-,-,-,-,-,-,-,-,-,-,-,-,-,-,-,2022,03,10
74,75,456,Don Muang Airport,Central,13.91916667,100.605,-,-,-,-,-,-,-,-,-,-,-,-,-,-,-,-,-,-,-,-,-,-,-,-,-,2022,03,10
75,76,455,Sirikit Center,Central,13.72638889,100.56,-,-,-,-,-,-,-,-,-,-,-,-,-,-,-,-,-,-,-,-,-,-,-,-,-,2022,03,10
76,77,454,Bangkok Port,Central,13.70694444,100.5680556,-,-,-,-,-,-,-,-,-,-,-,-,-,-,-,-,-,-,-,-,-,-,-,-,-,2022,03,10
77,78,453,Bang Na (1),Central,13.66638889,100.6061111,-,-,-,-,-,-,-,-,-,-,-,-,-,-,-,-,-,-,-,-,-,-,-,-,-,2022,03,10
78,79,457,Bangkok Pilot,Central,13.37722222,100.5994444,-,-,-,-,-,-,-,-,-,-,-,-,-,-,-,-,-,-,-,-,-,-,-,-,-,2022,03,10
79,80,430,Prachin Buri,Eastern,14.05091667,101.3693056,-,-,-,-,-,-,-,-,-,-,-,-,-,-,-,-,-,-,-,-,-,-,-,-,-,2022,03,10
80,81,439,Kabin Buri (2),Eastern,13.98333361,101.7072222,-,-,-,-,-,-,-,-,-,-,-,-,-,-,-,-,-,-,-,-,-,-,-,-,-,2022,03,10
81,82,440,Sa Kaeo (2),Eastern,13.78888889,102.0347222,-,-,-,-,-,-,-,-,-,-,-,-,-,-,-,-,-,-,-,-,-,-,-,-,-,2022,03,10
82,83,462,Aranyaprathet,Eastern,13.70000028,102.5833336,-,-,-,-,-,-,-,-,-,-,-,-,-,0.029999999329447746,-,-,-,-,-,-,-,-,-,-,0.029999999329447746,2022,03,10
83,84,458,Chachoengsao (1),Eastern,13.51555556,101.4583333,-,-,-,-,-,-,-,-,-,-,-,3.319999933242798,3.319999933242798,-,-,-,-,-,-,-,-,-,-,-,6.639999866485596,2022,03,10
84,85,459,Chon Buri,Eastern,13.36666694,100.9833336,-,-,-,-,-,-,-,-,-,-,-,-,-,-,-,-,-,-,-,-,-,-,-,-,-,2022,03,10
85,86,463,Laem Chabang,Eastern,13.07694444,100.8758333,-,-,-,-,-,-,-,-,-,-,-,-,-,-,-,-,-,-,-,-,-,-,-,-,-,2022,03,10
86,87,460,Ko Sichang,Eastern,13.16166667,100.8019444,-,-,-,-,-,-,-,-,-,-,-,-,-,-,-,-,-,-,-,-,-,-,-,-,-,2022,03,10
87,88,461,Pattaya,Eastern,12.92,100.8694444,-,-,-,-,-,-,-,-,-,-,-,-,-,-,-,-,-,-,-,-,-,-,-,-,-,2022,03,10
88,89,477,Sattahip,Eastern,12.68333361,100.9833336,-,-,-,-,-,-,-,-,-,-,-,-,-,-,-,-,-,-,-,-,-,-,-,-,-,2022,03,10
89,90,478,Rayong,Eastern,12.61702778,101.34075,-,-,-,-,-,-,-,-,-,-,-,-,-,-,-,-,-,-,-,-,-,-,-,-,-,2022,03,10
90,91,479,Huai Pong (1),Eastern,12.73333361,101.1333336,-,-,-,-,-,-,-,-,-,-,-,-,-,-,-,-,-,-,-,-,-,-,-,-,-,2022,03,10
91,92,480,Chanthaburi,Eastern,12.61666694,102.1133333,-,-,-,-,-,-,-,-,-,-,-,-,-,-,-,-,-,-,-,-,-,-,-,-,-,2022,03,10
92,93,481,Pluei (1),Eastern,12.50861111,102.1730556,-,-,-,-,-,-,-,-,-,-,-,-,-,-,-,-,-,-,-,-,-,-,-,-,-,2022,03,10
93,94,501,Khlong Yai,Eastern,11.76666694,102.8833336,-,-,-,-,-,-,-,-,-,-,-,-,-,0.49000000953674316,7.599999904632568,-,-,-,-,-,-,-,-,-,8.09000015258789,2022,03,10
94,95,465,Phetchaburi,Southern EastCoast,12.99930556,100.0605278,-,-,-,-,-,-,-,-,-,-,-,-,-,-,-,-,-,-,-,-,-,-,-,-,-,2022,03,10
95,96,474,Nong Plub (1),Southern EastCoast,12.58925,99.73461111,-,-,-,-,-,-,-,-,-,-,-,-,-,-,-,-,-,-,-,-,-,-,-,-,-,2022,03,10
96,97,475,Hua Hin,Southern EastCoast,12.57797222,99.95372222,-,-,-,-,-,-,-,-,-,-,-,-,-,-,-,-,-,-,-,-,-,-,-,-,-,2022,03,10
97,98,500,Prachuap Khiri Khan,Southern EastCoast,11.83497222,99.81047222,-,-,-,-,-,-,-,-,-,-,-,-,-,-,-,-,-,-,-,-,-,-,-,-,-,2022,03,10
98,99,517,Chumphon,Southern EastCoast,10.49875,99.18847222,-,-,-,-,-,-,-,-,-,-,-,-,-,-,-,-,-,-,-,-,-,-,-,-,-,2022,03,10
99,100,520,Sawee (1),Southern EastCoast,10.33063889,99.09186111,-,-,-,-,-,-,-,-,-,-,-,-,-,-,-,-,-,-,-,-,-,-,-,-,-,2022,03,10
100,101,551,Surat Thani,Southern EastCoast,9.1335,99.15213889,-,-,-,-,-,-,-,-,-,-,-,-,-,-,-,-,-,-,-,-,-,-,-,-,-,2022,03,10
101,102,555,Surat Thani (1),Southern EastCoast,9.144805556,99.63361111,-,-,-,-,-,-,-,-,-,-,-,-,-,-,-,-,-,-,-,-,-,-,-,-,-,2022,03,10
102,103,550,Ko Samui,Southern EastCoast,9.466666667,100.05,-,-,-,-,-,-,-,-,-,-,-,-,-,-,-,-,-,-,-,-,-,-,-,-,-,2022,03,10
103,104,556,Prasang (2),Southern EastCoast,8.572083333,99.25519444,-,-,-,-,-,-,-,-,-,-,-,-,-,-,-,-,-,-,-,-,-,-,-,-,-,2022,03,10
104,105,557,Chawang (2),Southern EastCoast,8.424694444,99.50661111,-,-,-,-,-,-,-,-,-,-,-,-,-,-,-,-,-,-,-,-,-,-,-,-,-,2022,03,10
105,106,552,Nakhon Si Thammarat,Southern EastCoast,8.537777777999999,99.94722222,-,-,-,-,-,-,-,-,-,-,-,-,-,-,-,-,-,-,-,-,-,-,-,-,-,2022,03,10
106,107,554,Nakhon Si Thammarat (1),Southern EastCoast,8.359305556,100.0,-,-,-,-,-,-,-,-,-,-,-,-,-,-,-,-,-,-,-,-,-,-,-,-,-,2022,03,10
107,108,560,Pattalung (1),Southern EastCoast,7.583333611,100.1666669,-,-,-,-,-,-,-,-,-,-,-,-,-,-,-,-,-,-,-,-,-,-,-,-,-,2022,03,10
108,109,568,Songkhla,Southern EastCoast,7.182111111,100.6076944,-,-,-,-,-,-,-,-,-,-,-,-,-,-,-,-,-,-,-,-,-,-,-,-,-,2022,03,10
109,110,569,Hat Yai,Southern EastCoast,6.916666944,100.43333359999998,-,-,-,-,-,-,-,-,-,-,-,-,-,-,-,-,-,-,-,-,-,-,-,-,-,2022,03,10
110,111,571,Korhong (1),Southern EastCoast,7.0,100.5,-,-,-,-,-,-,-,-,-,-,-,-,-,-,-,-,-,-,-,-,-,-,-,-,-,2022,03,10
111,112,574,Sa Dao (2),Southern EastCoast,6.798055556,100.3905556,-,-,-,-,-,-,-,-,-,-,-,-,-,-,-,-,-,-,-,-,-,-,-,-,-,2022,03,10
112,113,580,Pattani,Southern EastCoast,6.7833336110000015,101.1500003,-,-,-,-,-,-,-,-,-,-,-,-,-,-,-,-,-,-,-,-,-,-,-,-,-,2022,03,10
113,114,581,Yala (1),Southern EastCoast,6.050000278,101.2833336,-,-,-,-,-,-,-,-,-,-,-,-,-,-,-,-,-,-,-,-,-,-,-,-,-,2022,03,10
114,115,583,Narathiwat,Southern EastCoast,6.416666944,101.81666690000002,-,-,-,-,-,-,-,-,-,-,-,-,-,-,-,-,-,-,-,-,-,-,-,-,-,2022,03,10
115,116,532,Ranong,Southern WestCoast,9.983333611,98.61666694,-,-,-,-,-,-,-,-,-,-,-,-,-,0.12999999523162842,-,-,-,-,-,-,-,-,-,-,0.12999999523162842,2022,03,10
116,117,561,Takua Pa,Southern WestCoast,8.684166667000001,98.25222222,-,-,-,-,-,-,4.349999904632568,-,1.7799999713897705,-,-,-,-,-,-,-,-,-,-,-,-,-,-,-,6.130000114440918,2022,03,10
117,118,564,Phuket,Southern WestCoast,7.883333611,98.40000028,-,-,-,-,-,-,0.03999999910593033,-,-,-,-,-,-,-,-,-,-,-,-,-,-,-,-,-,0.03999999910593033,2022,03,10
118,119,565,Phuket Airport,Southern WestCoast,8.145,98.31444444,-,-,-,-,-,-,2.6500000953674316,-,-,-,-,-,-,-,-,-,-,-,-,-,-,-,-,-,2.6500000953674316,2022,03,10
119,120,563,Krabi,Southern WestCoast,8.103611111000001,98.97527778,-,-,-,-,-,-,-,-,-,-,-,-,-,-,-,-,-,-,-,-,-,-,-,-,-,2022,03,10
120,121,566,Ko Lanta,Southern WestCoast,7.5333336110000015,99.05000028,-,-,-,-,-,-,-,-,-,-,-,-,-,-,-,-,-,-,-,-,-,-,-,-,-,2022,03,10
121,122,567,Trang,Southern WestCoast,7.516666944,99.61666694,-,-,-,-,-,-,-,-,-,-,-,-,-,-,-,-,-,-,-,-,-,-,-,-,-,2022,03,10
122,123,570,Satun,Southern WestCoast,6.650000277999999,100.0833336,-,-,-,-,-,-,-,-,-,-,-,-,-,-,-,-,-,-,-,-,-,-,-,-,-,2022,03,10
