,ID,WMO_CODE,NAME_EN,Region,Latitude,Longitude,00Z,01Z,02Z,03Z,04Z,05Z,06Z,07Z,08Z,09Z,10Z,11Z,12Z,13Z,14Z,15Z,16Z,17Z,18Z,19Z,20Z,21Z,22Z,23Z,sum,year,month,day
0,1,300,Mae Hong Son,Northern,19.29897222,97.97577778,-,-,-,-,-,-,-,-,-,-,-,-,-,-,-,-,1.108343243598938,-,1.3783420324325562,5.24422025680542,4.11273193359375,1.3937900066375732,0.10558237135410309,0.022440094500780106,13.365449905395508,2022,09,20
1,2,325,Mae Sariang,Northern,18.16666667,97.93333333,-,-,-,-,-,-,-,-,-,-,-,-,-,-,-,-,-,-,0.49805891513824463,-,-,-,-,0.8953733444213867,1.3934322595596313,2022,09,20
2,3,303,Chiang Rai,Northern,19.96138889,99.88138889,-,-,-,-,-,-,-,-,-,-,-,-,-,1.9028583765029907,1.1444470882415771,0.11062387377023697,-,4.027322769165039,0.4450238049030304,-,-,-,-,-,7.630276203155518,2022,09,20
3,4,304,Chiang Rai (1),Northern,19.87083333,99.78277778,-,-,-,-,-,-,-,-,-,-,-,-,0.46226316690444946,3.032641887664795,0.9397535920143127,0.6258640289306641,-,3.000006914138794,0.5536218881607056,0.3999773859977722,-,-,-,-,9.014129638671875,2022,09,20
4,5,310,Phayao,Northern,19.13333333,99.9,-,-,-,-,-,-,-,-,-,-,-,-,0.265440434217453,0.0853411927819252,1.435854196548462,3.4491944313049316,3.3702917098999023,-,0.34953874349594116,-,-,-,-,0.057458069175481796,9.013118743896484,2022,09,20
5,6,327,Chiang Mai,Northern,18.79,98.97694444,-,-,-,-,-,-,-,-,-,-,-,-,-,0.2965335547924042,-,-,-,0.4128096401691437,1.8451800346374512,0.41587865352630615,0.07913161814212799,0.042241111397743225,0.07311663031578064,0.08931313455104828,3.254204034805298,2022,09,20
6,7,302,Doi Angkhlang,Northern,19.93138889,99.04833333,-,-,-,-,-,-,-,-,-,-,-,-,-,1.6309537887573242,6.43788480758667,3.0653276443481445,0.5954781770706177,0.951697826385498,-,-,-,-,-,-,12.681341171264648,2022,09,20
7,8,331,Nan,Northern,18.77972222,100.7777778,-,-,-,-,-,-,-,-,-,-,-,-,-,-,-,-,-,-,0.06466053426265717,-,-,-,-,-,0.06466053426265717,2022,09,20
8,9,333,Nan (1),Northern,18.86666667,100.75,0.026880944147706032,-,-,-,-,-,-,-,-,-,0.06089312583208084,-,-,2.038147449493408,-,-,-,-,-,-,0.13308826088905334,-,-,-,2.285890817642212,2022,09,20
9,10,315,Tha Wang Pha (2),Northern,19.11055556,100.8025,0.4263323247432709,-,-,-,-,-,-,-,-,-,0.7671194672584534,1.4597645998001099,0.7242053151130676,-,-,-,-,-,-,-,0.030152879655361176,0.11639479547739029,0.3073866665363312,-,4.257688045501709,2022,09,20
10,11,307,Thung Chang (2),Northern,19.41194444,100.8835278,-,-,-,-,-,-,-,-,-,-,-,-,-,1.4902726411819458,-,-,-,-,-,0.3365621268749237,0.055423930287361145,0.1063222885131836,0.24042478203773499,-,2.229005813598633,2022,09,20
11,12,329,Lamphun,Northern,18.56666667,99.03333333,-,-,-,-,-,-,-,-,-,-,-,-,-,3.6180052757263184,0.4617134928703308,-,-,-,1.723395586013794,0.7008360624313354,0.06389577686786652,0.04734734073281288,0.07378952205181122,-,6.688982963562012,2022,09,20
12,13,328,Lampang,Northern,18.33333333,99.51666667,-,-,-,-,-,-,-,-,-,-,-,-,-,3.302584409713745,2.4117956161499023,-,-,-,-,-,-,-,-,-,5.714380264282227,2022,09,20
13,14,334,Lampang (1),Northern,18.31666667,99.28333333,-,-,-,-,-,-,-,-,-,-,-,-,-,1.5333263874053955,1.5075993537902832,1.1189004182815552,-,-,-,-,0.18731683492660522,0.08331237733364105,-,-,4.430455684661865,2022,09,20
14,15,324,Thoen,Northern,17.63661111,99.24475,-,-,-,-,-,-,-,-,-,-,-,-,-,-,-,2.6251397132873535,0.6861706376075745,0.6652156710624695,0.15875279903411865,0.11842124164104462,0.10472521185874939,-,-,-,4.358425140380859,2022,09,20
15,16,330,Phrae,Northern,18.16666667,100.1666667,-,-,-,-,-,-,-,-,-,-,-,-,-,2.8917734622955322,0.8187263607978821,-,-,-,-,-,-,-,0.05231277272105217,0.036011770367622375,3.7988243103027344,2022,09,20
16,17,351,Uttaradit,Northern,17.61666667,100.1000028,-,-,-,-,-,-,-,-,-,-,-,-,-,0.7899209856987,5.281091690063477,3.0852975845336914,0.568263828754425,0.4307536482810974,0.14861717820167542,-,-,-,-,-,10.30394458770752,2022,09,20
17,18,372,Sukhothai,Northern,17.10611111,99.8,-,-,-,-,-,-,-,-,-,-,-,-,-,-,-,-,-,4.116659164428711,0.8436092734336853,0.20633549988269806,0.12030090391635895,0.05612477660179138,-,-,5.343029499053955,2022,09,20
18,19,373,Si Samrong (1),Northern,17.77361111,99.24944444,-,-,-,-,-,-,-,-,-,-,-,-,-,-,0.1578415036201477,2.2686502933502197,0.6328720450401306,0.657078742980957,0.1749783754348755,0.06150395795702934,-,-,-,-,3.9529247283935547,2022,09,20
19,20,377,Bhumibol Dam,Northern,17.24391667,99.00252778,-,-,-,-,-,-,-,-,-,-,-,-,-,-,-,-,-,0.7021532654762268,0.5504100918769836,0.13572928309440613,0.06329276412725449,0.17147862911224365,0.18700768053531647,0.07939392328262329,1.889465570449829,2022,09,20
20,21,376,Tak,Northern,16.87836111,99.14336111,-,-,-,-,-,-,-,-,-,-,-,-,-,-,-,-,-,-,1.175911784172058,0.2968169152736664,0.14840449392795563,0.12056716531515121,0.16467010974884033,0.06564868241548538,1.9720191955566406,2022,09,20
21,22,375,Mae Sot,Northern,16.65916667,98.55086111,-,-,-,-,-,-,-,-,-,-,-,-,-,-,-,-,-,-,-,-,-,0.053776901215314865,0.04673147574067116,0.049490101635456085,0.1499984860420227,2022,09,20
22,23,385,Umphang (2),Northern,16.02472222,98.86444444,-,-,-,-,-,-,-,-,-,-,-,-,-,-,-,-,-,-,-,-,-,-,-,-,-,2022,09,20
23,24,387,Doi Muser (1),Northern,16.75,98.93333611,-,-,-,-,-,-,-,-,-,-,-,-,-,-,-,-,-,-,-,0.3210596442222595,0.15418405830860138,0.13873150944709778,0.17570918798446655,0.22676131129264832,1.0164456367492676,2022,09,20
24,25,378,Phitsanulok,Northern,16.79622222,100.2759444,-,-,-,-,-,-,-,-,-,-,-,-,-,-,-,-,-,9.136253356933594,0.24787145853042603,-,-,-,-,-,9.384124755859375,2022,09,20
25,26,374,Lom Sak (2),Northern,16.77363889,101.2494722,-,-,-,-,-,-,-,-,-,-,0.07985855638980865,-,-,0.7191879749298096,0.21336279809474945,0.9322594404220581,0.28615128993988037,-,-,-,-,-,-,-,2.2308201789855957,2022,09,20
26,27,379,Phetchabun,Northern,16.43333611,101.15,-,-,-,-,-,-,-,-,-,-,0.13147003948688507,1.7126638889312744,2.686985969543457,-,-,-,-,-,-,-,-,-,-,-,4.5311198234558105,2022,09,20
27,28,413,Wichian Buri (2),Northern,15.65694444,101.1083333,-,-,-,-,-,-,-,-,-,-,-,-,-,-,-,1.6777055263519287,1.243534803390503,-,-,0.07995873689651489,0.07366872578859329,0.032175082713365555,0.05399347469210625,0.07884237170219421,3.2398786544799805,2022,09,20
28,29,380,Kamphaeng Phet,Northern,16.48680556,99.52697222,-,-,-,-,-,-,-,-,-,-,-,-,-,-,-,-,-,-,-,-,1.1088292598724365,-,-,-,1.1088292598724365,2022,09,20
29,30,386,Phicit (1),Northern,16.33861111,100.3671111,-,-,-,-,-,-,-,-,-,-,-,-,-,-,-,-,-,-,-,-,-,-,-,-,-,2022,09,20
30,31,352,Nong Khai,Northeastern,17.86716667,102.7330278,0.09364486485719681,-,-,-,-,-,-,-,-,-,-,-,-,-,-,-,-,-,-,-,-,-,-,-,0.18728972971439362,2022,09,20
31,32,353,Loei,Northeastern,17.45,101.7333333,0.031764041632413864,-,-,-,-,-,-,-,-,-,-,-,1.6033267974853516,0.191008061170578,-,-,-,-,-,-,-,-,-,-,1.857862949371338,2022,09,20
32,33,350,Loei (1),Northeastern,17.4,101.7333333,-,-,-,-,-,-,-,-,-,-,-,-,-,0.14593243598937988,-,-,-,-,-,-,-,-,-,-,0.14593243598937988,2022,09,20
33,34,354,Udon Thani,Northeastern,17.38333333,102.8,0.3152173161506653,-,-,-,-,-,-,-,-,-,-,-,-,-,-,-,-,-,-,-,-,-,-,-,0.6304346323013306,2022,09,20
34,35,357,Nakhon Phanom,Northeastern,17.41083333,104.7825,-,-,-,-,-,-,-,-,-,-,-,-,-,-,0.1351873278617859,-,-,-,-,-,-,-,-,-,0.1351873278617859,2022,09,20
35,36,358,Nakhon Phanom (1),Northeastern,17.44305556,104.7736111,-,-,-,-,-,-,-,-,-,-,-,-,-,-,0.1351873278617859,-,-,-,-,-,-,-,-,-,0.1351873278617859,2022,09,20
36,37,356,Sakon Nakhon,Northeastern,17.15000278,104.1333361,0.2914803624153137,-,-,-,-,-,-,-,-,-,-,-,-,-,-,-,-,-,-,-,-,-,-,-,0.5829607248306274,2022,09,20
37,38,355,Sakon Nakhon (1),Northeastern,17.12502778,104.061,0.4040071666240692,-,-,-,-,-,-,-,-,-,-,-,-,-,-,-,-,-,-,-,-,-,-,-,0.8080143332481384,2022,09,20
38,39,360,Nong Bua Lumphu,Northeastern,17.2325,102.4294444,-,-,-,-,-,-,-,-,-,-,-,-,-,-,-,-,-,-,-,-,-,-,-,-,-,2022,09,20
39,40,383,Mukdahan,Northeastern,16.54955556,104.7308889,-,-,-,-,-,-,-,-,-,-,-,-,-,-,-,-,-,-,-,-,-,-,-,-,-,2022,09,20
40,41,381,Khon Kaen,Northeastern,16.46111111,102.7897222,-,-,-,-,-,-,-,-,-,-,-,-,-,-,-,-,-,-,-,-,-,-,-,-,-,2022,09,20
41,42,384,Tha Pra (1),Northeastern,16.333,102.8166667,-,-,-,-,-,-,-,-,-,-,-,-,-,-,-,-,-,-,-,-,-,-,-,-,-,2022,09,20
42,43,382,Kosum Phisai (2),Northeastern,16.24722222,103.0680556,-,-,-,-,-,-,-,-,-,-,-,-,-,-,-,-,-,-,-,-,-,-,-,-,-,2022,09,20
43,44,390,Kamalasai (2),Northeastern,16.3325,103.5883333,-,-,-,-,-,-,-,-,-,-,-,-,-,-,-,-,-,-,-,-,-,-,-,-,-,2022,09,20
44,45,405,Roi Et,Northeastern,16.05000028,103.68333359999998,-,-,-,-,-,-,-,-,-,-,-,-,-,-,-,-,-,-,-,-,-,-,-,-,-,2022,09,20
45,46,404,Roi Et (1),Northeastern,16.07322222,103.6084444,-,-,-,-,-,-,-,-,-,-,-,-,-,-,-,-,-,-,-,-,-,-,-,-,-,2022,09,20
46,47,403,Chaiyaphum,Northeastern,15.80000028,102.0333336,-,-,-,-,-,-,-,-,-,-,-,-,-,1.4582853317260742,0.5445082187652588,2.6333558559417725,3.221741199493408,0.49535131454467773,0.8078013062477112,0.2501212954521179,-,-,-,-,9.411164283752441,2022,09,20
47,48,407,Ubon Ratchathani,Northeastern,15.25000278,104.8666694,0.07666724920272827,0.08937734365463257,-,-,-,0.08937734365463257,-,-,-,-,-,-,-,-,-,-,-,0.22538994252681732,2.5519771575927734,2.9341351985931396,5.2421369552612305,7.212471008300781,3.648794651031494,4.183114051818848,26.330106735229492,2022,09,20
48,49,408,Ubon Ratchathani (1),Northeastern,15.24072222,105.01966670000002,0.05945872515439987,-,-,-,-,-,-,-,-,-,-,-,-,-,-,-,-,1.1430542469024658,2.698622226715088,4.2859368324279785,7.48525857925415,7.056813716888428,1.795440912246704,2.621772289276123,27.2058162689209,2022,09,20
49,50,409,Si Saket (1),Northeastern,15.00000028,104.0500003,-,0.47974881529808044,0.47215598821640015,-,-,0.47974881529808044,0.47215598821640015,-,-,-,-,-,-,-,-,-,-,-,-,-,-,-,-,-,1.9038095474243164,2022,09,20
50,51,416,Tha Tum (2),Northeastern,15.31666694,103.68333359999998,-,0.3005608320236206,0.6706826090812683,1.7748966217041016,1.1346715688705444,0.3005608320236206,0.6706826090812683,1.7748966217041016,1.1346715688705444,1.1964527368545532,-,-,-,-,-,-,-,-,-,-,-,-,-,-,8.958075523376465,2022,09,20
51,52,432,Surin,Northeastern,14.88333361,103.5000003,4.139559268951416,1.3054084777832031,1.6740522384643555,0.705862820148468,0.7137017250061035,1.3054084777832031,1.6740522384643555,0.705862820148468,0.7137017250061035,0.5411190390586853,0.1612042486667633,0.49604305624961853,-,-,-,-,-,-,-,-,-,-,-,-,18.275535583496094,2022,09,20
52,53,433,Surin (1),Northeastern,14.88333361,103.4500003,3.9322640895843506,0.7611620426177979,0.7921757698059082,1.2286096811294556,0.9116920828819275,0.7611620426177979,0.7921757698059082,1.2286096811294556,0.9116920828819275,0.4940381646156311,0.04375652223825455,0.5488024353981018,0.2264263778924942,-,-,-,-,-,-,-,-,-,-,-,16.564830780029297,2022,09,20
53,54,431,Nakhon Ratchasima,Northeastern,14.96830556,102.0860278,0.1896953582763672,-,-,-,-,-,-,-,-,-,-,-,-,1.0979878902435303,-,1.5303149223327637,0.8392890691757202,-,-,-,-,0.3092798590660095,-,-,4.156262397766113,2022,09,20
54,55,435,Pakchong (1),Northeastern,14.64388889,101.3319444,-,-,-,-,0.052169255912303925,-,-,-,0.052169255912303925,0.3744119703769684,0.06689829379320145,0.029777156189084053,-,-,-,1.8786418437957764,2.46008038520813,-,-,-,-,-,-,0.36644917726516724,5.28059720993042,2022,09,20
55,56,434,Chok Chai (2),Northeastern,14.71888889,102.1686111,-,0.04173217713832855,-,-,-,0.04173217713832855,-,-,-,-,-,0.3429485261440277,2.1436376571655273,0.42826807498931885,-,-,0.6573284268379211,0.7482190132141113,1.1234132051467896,0.9162543416023254,0.23758070170879364,0.3486650884151459,0.3074930012226105,0.3052448332309723,7.642518043518066,2022,09,20
56,57,437,Buri Ram,Northeastern,15.22575,103.2480833,-,0.10929447412490845,0.3432740569114685,1.2143559455871582,-,0.10929447412490845,0.3432740569114685,1.2143559455871582,-,-,-,-,-,-,-,-,-,-,-,-,-,-,-,-,3.3338489532470703,2022,09,20
57,58,436,Nang Rong (2),Northeastern,14.58333361,102.8000003,1.103002905845642,0.22532884776592255,0.8538060188293457,0.6096197366714478,0.7934509515762329,0.22532884776592255,0.8538060188293457,0.6096197366714478,0.7934509515762329,-,-,-,-,-,-,-,-,-,-,-,-,-,-,-,7.170416831970215,2022,09,20
58,59,400,Nakhon Sawan,Central,15.67183333,100.1323611,-,-,-,-,-,-,-,-,-,-,-,-,-,-,-,-,-,-,-,-,-,-,-,-,-,2022,09,20
59,60,401,Takfa (1),Central,15.34944444,100.5302778,-,-,-,-,-,-,-,-,-,-,-,-,-,-,-,-,-,-,-,-,-,-,-,-,-,2022,09,20
60,61,402,Chai Nat,Central,15.15000278,100.18333359999998,-,-,-,-,-,-,-,-,-,-,-,-,-,-,-,-,-,6.051704406738281,-,-,0.19305652379989624,-,-,-,6.244760990142822,2022,09,20
61,62,410,U Thai Thani,Central,15.37416667,100.0388889,-,-,-,-,-,-,-,-,-,-,-,-,-,-,-,-,-,5.855742931365967,0.8333767652511597,-,-,-,-,-,6.689119815826416,2022,09,20
62,63,415,Ayuthaya (1),Central,14.53472222,100.725,-,-,-,-,-,-,-,-,-,-,-,-,0.026286080479621887,-,-,-,-,-,-,-,-,-,-,-,0.026286080479621887,2022,09,20
63,64,418,Bua Chum (2),Central,15.10000028,101.6166669,-,-,-,-,-,-,-,-,-,-,-,-,-,0.321638286113739,0.4934921860694885,1.196631908416748,1.2521504163742065,0.37972745299339294,0.8533363938331604,0.3204486668109894,0.25425639748573303,-,-,-,5.071681499481201,2022,09,20
64,65,426,Lop Buri,Central,14.79972222,100.6283333,-,-,-,-,-,-,-,-,-,-,-,-,-,-,-,-,-,-,-,-,-,-,-,-,-,2022,09,20
65,66,425,Suphan Buri,Central,14.47444444,100.1388889,-,-,-,-,-,-,-,-,-,-,-,-,-,-,-,-,-,-,-,-,-,-,-,-,-,2022,09,20
66,67,427,Uthong (1),Central,14.30361111,99.86472222,-,-,-,-,-,-,-,-,-,-,-,-,-,-,-,-,-,-,-,-,-,-,0.21428082883358002,0.10419877618551254,0.31847959756851196,2022,09,20
67,68,421,Thong Pha Phum,Central,14.74222222,98.63638889,-,-,-,-,-,-,-,-,-,-,-,-,-,-,1.7410680055618286,-,-,-,-,-,-,-,-,-,1.7410680055618286,2022,09,20
68,69,450,Kanchanaburi,Central,14.0225,99.53583333,-,-,-,-,-,-,-,-,-,-,-,-,-,-,-,-,-,-,-,-,-,-,-,-,-,2022,09,20
69,70,464,Ratcha Buri (1),Central,13.48930556,99.79238889,-,-,-,-,-,-,-,-,-,-,-,-,-,-,-,-,-,-,-,-,-,-,-,-,-,2022,09,20
70,71,451,Kampheang Saen (1),Central,14.01166667,99.97,-,-,-,-,-,-,-,-,-,-,-,-,-,-,-,-,-,-,-,-,-,-,-,-,-,2022,09,20
71,72,419,Pathum Thani (1),Central,14.1,100.616,-,-,-,-,-,-,-,-,-,-,-,-,-,-,-,-,-,-,1.3316340446472168,-,-,-,-,0.22284239530563354,1.5544764995574951,2022,09,20
72,73,420,Samut Prakan,Central,13.51666694,100.7616667,-,-,-,-,-,-,-,-,-,-,-,-,-,-,-,-,-,-,-,-,-,-,0.21954302489757538,0.36588242650032043,0.5854254364967346,2022,09,20
73,74,429,Suvarnabhumi Airport,Central,13.68638889,100.7675,-,-,-,-,-,-,-,-,-,-,-,-,-,-,-,-,-,-,-,-,0.3370201587677002,0.15052157640457153,0.16765235364437103,0.40308138728141785,1.0582754611968994,2022,09,20
74,75,456,Don Muang Airport,Central,13.91916667,100.605,-,-,-,-,-,-,-,-,-,-,-,-,-,-,-,-,-,-,-,0.4425573945045471,-,-,-,-,0.4425573945045471,2022,09,20
75,76,455,Sirikit Center,Central,13.72638889,100.56,-,-,-,-,-,-,-,-,-,-,-,-,-,-,-,-,-,-,-,-,-,-,0.06786797940731049,0.12894263863563538,0.19681061804294586,2022,09,20
76,77,454,Bangkok Port,Central,13.70694444,100.5680556,-,-,-,-,-,-,-,-,-,-,-,-,-,-,-,-,-,-,-,-,-,-,0.06786797940731049,0.12894263863563538,0.19681061804294586,2022,09,20
77,78,453,Bang Na (1),Central,13.66638889,100.6061111,-,-,-,-,-,-,-,-,-,-,-,-,-,-,-,-,-,-,-,-,-,0.1376969963312149,0.1056281104683876,0.12828652560710907,0.37161165475845337,2022,09,20
78,79,457,Bangkok Pilot,Central,13.37722222,100.5994444,0.10547815263271332,-,-,-,-,-,-,-,-,-,-,-,-,-,-,-,-,-,-,-,-,-,-,-,0.21095630526542664,2022,09,20
79,80,430,Prachin Buri,Eastern,14.05091667,101.3693056,0.04741648957133293,-,-,-,-,-,-,-,-,-,-,0.045230086892843246,0.07631254196166992,-,-,-,-,4.957173824310303,5.18521785736084,2.631321668624878,0.7515962719917297,0.34858062863349915,0.36768901348114014,0.4863363802433014,14.944292068481445,2022,09,20
80,81,439,Kabin Buri (2),Eastern,13.98333361,101.7072222,-,-,-,-,0.1659260392189026,-,-,-,0.1659260392189026,0.13376279175281525,-,-,-,-,-,3.7969889640808105,6.84055757522583,10.953947067260742,8.664641380310059,5.148097038269043,0.9267287254333496,0.4919167757034302,0.46269842982292175,0.26146045327186584,38.01265335083008,2022,09,20
81,82,440,Sa Kaeo (2),Eastern,13.78888889,102.0347222,0.07070838660001755,-,-,-,-,-,-,-,-,-,-,-,-,-,-,0.3705807030200958,-,0.6130492687225342,1.1763097047805786,1.1038581132888794,0.699853241443634,-,0.35918116569519043,-,4.4642486572265625,2022,09,20
82,83,462,Aranyaprathet,Eastern,13.70000028,102.5833336,0.6995528340339661,0.13290861248970032,-,-,-,0.13290861248970032,-,-,-,-,-,-,0.7181392908096313,-,-,-,-,-,-,-,-,-,-,-,2.3830621242523193,2022,09,20
83,84,458,Chachoengsao (1),Eastern,13.51555556,101.4583333,-,-,-,-,-,-,-,-,-,-,-,-,-,-,-,-,-,-,-,3.222493886947632,1.930051565170288,0.6654353141784668,0.5269867777824402,0.3356112837791443,6.680578708648682,2022,09,20
84,85,459,Chon Buri,Eastern,13.36666694,100.9833336,-,-,-,-,-,-,-,-,-,-,-,-,-,-,-,-,-,-,-,-,-,-,-,-,-,2022,09,20
85,86,463,Laem Chabang,Eastern,13.07694444,100.8758333,-,-,-,-,-,-,-,-,-,-,-,-,-,-,-,-,-,-,-,-,-,-,-,-,-,2022,09,20
86,87,460,Ko Sichang,Eastern,13.16166667,100.8019444,-,-,-,-,-,-,-,-,-,-,-,-,-,-,-,-,-,-,-,-,-,-,-,-,-,2022,09,20
87,88,461,Pattaya,Eastern,12.92,100.8694444,-,-,-,-,-,-,-,-,-,-,-,-,-,-,-,-,-,-,-,-,-,-,-,-,-,2022,09,20
88,89,477,Sattahip,Eastern,12.68333361,100.9833336,-,-,-,-,-,-,-,-,-,-,-,-,-,-,-,-,-,-,-,-,-,-,-,-,-,2022,09,20
89,90,478,Rayong,Eastern,12.61702778,101.34075,-,-,-,-,-,-,-,-,-,-,-,-,-,0.1899484246969223,-,-,-,-,-,-,-,-,-,-,0.1899484246969223,2022,09,20
90,91,479,Huai Pong (1),Eastern,12.73333361,101.1333336,0.10849779844284058,-,-,-,-,-,-,-,-,-,-,-,-,-,-,-,-,-,-,-,-,-,-,-,0.21699559688568115,2022,09,20
91,92,480,Chanthaburi,Eastern,12.61666694,102.1133333,0.8737193942070007,-,-,-,-,-,-,-,-,-,-,-,-,-,-,-,-,-,-,-,-,-,-,-,1.7474387884140015,2022,09,20
92,93,481,Pluei (1),Eastern,12.50861111,102.1730556,0.5601656436920166,-,-,-,-,-,-,-,-,-,-,-,-,-,-,-,-,-,-,-,-,-,-,1.8590798377990723,2.9794111251831055,2022,09,20
93,94,501,Khlong Yai,Eastern,11.76666694,102.8833336,1.4410737752914429,-,-,-,-,-,-,-,-,-,-,-,-,-,-,-,-,-,-,-,-,-,2.315329074859619,0.8403401970863342,6.037817001342773,2022,09,20
94,95,465,Phetchaburi,Southern EastCoast,12.99930556,100.0605278,-,-,-,-,-,-,-,-,-,-,-,-,-,-,-,-,-,-,-,-,-,-,-,-,-,2022,09,20
95,96,474,Nong Plub (1),Southern EastCoast,12.58925,99.73461111,0.10448040068149567,-,-,-,-,-,-,-,-,-,-,-,-,-,-,-,-,-,-,-,-,-,-,-,0.20896080136299133,2022,09,20
96,97,475,Hua Hin,Southern EastCoast,12.57797222,99.95372222,0.11028128117322922,-,-,-,-,-,-,-,-,-,-,-,-,0.5210230350494385,0.7152294516563416,0.48852792382240295,-,-,-,-,-,-,-,-,1.9453428983688354,2022,09,20
97,98,500,Prachuap Khiri Khan,Southern EastCoast,11.83497222,99.81047222,-,-,-,-,-,-,-,-,-,-,-,-,-,-,-,-,0.6933985948562622,-,-,-,-,-,-,-,0.6933985948562622,2022,09,20
98,99,517,Chumphon,Southern EastCoast,10.49875,99.18847222,-,-,-,-,-,-,-,-,-,-,-,-,-,0.7731431126594543,0.35051605105400085,-,-,2.247514009475708,0.743896484375,0.6342180967330933,-,-,-,-,4.7492876052856445,2022,09,20
99,100,520,Sawee (1),Southern EastCoast,10.33063889,99.09186111,-,-,-,-,-,-,-,-,-,-,-,-,-,2.4312992095947266,3.173834800720215,-,0.9090242981910706,1.4114407300949097,0.5686100721359253,1.0067989826202393,1.3304709196090698,0.9435463547706604,0.9141483306884766,0.9643043279647827,13.653477668762207,2022,09,20
100,101,551,Surat Thani,Southern EastCoast,9.1335,99.15213889,-,-,-,-,-,-,-,-,-,-,-,-,-,-,-,-,-,-,-,-,-,-,-,-,-,2022,09,20
101,102,555,Surat Thani (1),Southern EastCoast,9.144805556,99.63361111,-,-,-,-,-,-,-,-,-,-,-,-,-,-,0.5139990448951721,-,-,-,-,3.355769157409668,1.3848546743392944,1.065351128578186,-,-,6.319973945617676,2022,09,20
102,103,550,Ko Samui,Southern EastCoast,9.466666667,100.05,-,-,-,-,-,-,-,-,-,-,-,-,-,-,-,-,-,2.1238927841186523,3.0446693897247314,-,-,-,-,-,5.168561935424805,2022,09,20
103,104,556,Prasang (2),Southern EastCoast,8.572083333,99.25519444,-,-,-,-,-,-,-,-,-,-,-,-,-,-,0.2909899950027466,0.7736669778823853,3.178279399871826,4.086174011230469,4.708228588104248,-,4.263390064239502,2.5987131595611572,0.5465072989463806,-,20.445947647094727,2022,09,20
104,105,557,Chawang (2),Southern EastCoast,8.424694444,99.50661111,-,-,-,-,-,-,-,-,-,-,-,-,-,1.5543166399002075,2.610447645187378,0.7884291410446167,-,-,-,5.694802761077881,6.6103739738464355,4.013278961181641,0.881584882736206,0.6535184979438782,22.806753158569336,2022,09,20
105,106,552,Nakhon Si Thammarat,Southern EastCoast,8.537777777999999,99.94722222,-,-,-,-,-,-,-,-,-,-,-,-,-,-,-,-,-,2.9614040851593018,6.490396976470947,8.409649848937988,8.236662864685059,4.027299404144287,1.1104751825332642,0.0975240021944046,31.33341407775879,2022,09,20
106,107,554,Nakhon Si Thammarat (1),Southern EastCoast,8.359305556,100.0,-,-,-,-,-,-,-,-,-,-,-,-,-,-,-,-,-,-,-,8.282143592834473,8.82384967803955,5.063501834869385,1.6417635679244995,1.05381441116333,24.86507225036621,2022,09,20
107,108,560,Pattalung (1),Southern EastCoast,7.583333611,100.1666669,-,-,-,-,-,-,-,-,-,-,-,-,-,-,-,-,-,-,-,-,-,-,-,-,-,2022,09,20
108,109,568,Songkhla,Southern EastCoast,7.182111111,100.6076944,-,-,-,-,-,-,-,-,-,-,-,-,-,-,-,0.8308250904083252,-,-,-,-,-,-,-,-,0.8308250904083252,2022,09,20
109,110,569,Hat Yai,Southern EastCoast,6.916666944,100.43333359999998,-,-,-,-,-,-,-,-,-,-,-,-,-,-,-,-,-,-,-,-,-,-,-,-,-,2022,09,20
110,111,571,Korhong (1),Southern EastCoast,7.0,100.5,-,-,-,-,-,-,-,-,-,-,-,-,-,0.34656429290771484,-,-,-,-,-,-,-,-,-,-,0.34656429290771484,2022,09,20
111,112,574,Sa Dao (2),Southern EastCoast,6.798055556,100.3905556,-,-,-,-,-,-,-,-,-,-,-,-,-,-,-,-,-,-,-,-,-,-,-,-,-,2022,09,20
112,113,580,Pattani,Southern EastCoast,6.7833336110000015,101.1500003,0.3277285695075989,0.06733570247888565,-,-,-,0.06733570247888565,-,-,-,-,-,-,-,-,-,-,-,-,-,-,-,-,-,-,0.7901285886764526,2022,09,20
113,114,581,Yala (1),Southern EastCoast,6.050000278,101.2833336,-,-,-,-,-,-,-,-,-,-,-,-,-,2.2276227474212646,1.1707921028137207,0.8557865619659424,0.3308177888393402,-,-,-,-,-,-,-,4.585019111633301,2022,09,20
114,115,583,Narathiwat,Southern EastCoast,6.416666944,101.81666690000002,0.09404521435499191,0.3763419985771179,-,-,-,0.3763419985771179,-,-,-,-,-,-,-,0.2683708667755127,-,-,-,-,-,-,-,-,-,-,1.2091453075408936,2022,09,20
115,116,532,Ranong,Southern WestCoast,9.983333611,98.61666694,-,-,-,-,-,-,-,-,-,-,-,-,-,-,2.654449224472046,3.3805580139160156,1.6583329439163208,2.681086540222168,0.578890323638916,0.6918377876281738,0.7040448188781738,0.4628497064113617,0.403721421957016,0.550879180431366,13.766650199890137,2022,09,20
116,117,561,Takua Pa,Southern WestCoast,8.684166667000001,98.25222222,0.522412121295929,0.3954009413719177,0.9286490678787231,-,-,0.3954009413719177,0.9286490678787231,-,-,-,-,-,-,-,-,-,-,-,-,-,-,-,-,-,3.6929244995117188,2022,09,20
117,118,564,Phuket,Southern WestCoast,7.883333611,98.40000028,-,-,-,-,-,-,-,-,-,-,-,-,-,-,-,-,-,-,-,-,-,-,-,-,-,2022,09,20
118,119,565,Phuket Airport,Southern WestCoast,8.145,98.31444444,-,-,0.576478123664856,-,-,-,0.576478123664856,-,-,-,-,-,-,-,-,-,-,-,-,-,-,-,-,-,1.152956247329712,2022,09,20
119,120,563,Krabi,Southern WestCoast,8.103611111000001,98.97527778,-,-,-,-,-,-,-,-,-,-,-,-,-,-,-,-,-,-,-,-,-,-,-,0.86371910572052,0.86371910572052,2022,09,20
120,121,566,Ko Lanta,Southern WestCoast,7.5333336110000015,99.05000028,-,-,3.0477683544158936,2.235758066177368,1.5928391218185425,-,3.0477683544158936,2.235758066177368,1.5928391218185425,1.1893256902694702,-,-,-,-,-,-,-,-,-,-,-,-,-,-,14.942056655883789,2022,09,20
121,122,567,Trang,Southern WestCoast,7.516666944,99.61666694,-,-,0.34004026651382446,-,-,-,0.34004026651382446,-,-,-,-,-,-,-,-,-,-,-,-,-,-,-,-,-,0.6800805330276489,2022,09,20
122,123,570,Satun,Southern WestCoast,6.650000277999999,100.0833336,-,-,-,-,-,-,-,-,-,-,-,-,-,0.4678528904914856,-,-,-,-,-,-,-,-,-,-,0.4678528904914856,2022,09,20
