,ID,WMO_CODE,NAME_EN,Region,Latitude,Longitude,00Z,01Z,02Z,03Z,04Z,05Z,06Z,07Z,08Z,09Z,10Z,11Z,12Z,13Z,14Z,15Z,16Z,17Z,18Z,19Z,20Z,21Z,22Z,23Z,sum,year,month,day
0,1,300,Mae Hong Son,Northern,19.29897222,97.97577778,-,-,-,-,-,-,-,-,-,-,-,-,-,-,-,-,-,-,-,-,-,-,-,-,-,2022,02,20
1,2,325,Mae Sariang,Northern,18.16666667,97.93333333,-,-,-,-,-,-,-,-,-,-,-,-,-,-,-,-,-,-,-,-,-,-,-,-,-,2022,02,20
2,3,303,Chiang Rai,Northern,19.96138889,99.88138889,-,-,-,-,-,-,-,-,-,-,-,-,-,-,-,-,-,-,-,-,-,-,-,-,-,2022,02,20
3,4,304,Chiang Rai (1),Northern,19.87083333,99.78277778,-,-,-,-,-,-,-,-,-,-,-,-,-,-,-,-,-,-,-,-,-,-,-,-,-,2022,02,20
4,5,310,Phayao,Northern,19.13333333,99.9,-,-,-,-,-,-,-,-,-,-,-,-,-,-,-,-,-,-,-,-,-,-,-,-,-,2022,02,20
5,6,327,Chiang Mai,Northern,18.79,98.97694444,-,-,-,-,-,-,-,-,-,-,-,-,-,-,-,-,-,-,-,-,-,-,-,-,-,2022,02,20
6,7,302,Doi Angkhlang,Northern,19.93138889,99.04833333,-,-,-,-,-,-,-,-,-,-,-,-,-,-,-,-,-,-,-,-,-,-,-,-,-,2022,02,20
7,8,331,Nan,Northern,18.77972222,100.7777778,-,0.3142729699611664,0.726895809173584,0.41020137071609497,-,0.3142729699611664,0.726895809173584,0.41020137071609497,-,-,0.035933200269937515,0.1090928465127945,-,-,-,-,-,-,-,-,-,-,-,-,3.0477664470672607,2022,02,20
8,9,333,Nan (1),Northern,18.86666667,100.75,-,0.3332051932811737,0.5751552581787109,0.2620350420475006,-,0.3332051932811737,0.5751552581787109,0.2620350420475006,-,-,0.048901330679655075,-,-,-,-,-,-,-,-,-,-,-,-,-,2.389692544937134,2022,02,20
9,10,315,Tha Wang Pha (2),Northern,19.11055556,100.8025,-,-,0.11379694193601608,0.32764407992362976,-,-,0.11379694193601608,0.32764407992362976,-,-,-,-,-,-,-,-,-,-,-,-,-,-,-,-,0.8828819990158081,2022,02,20
10,11,307,Thung Chang (2),Northern,19.41194444,100.8835278,-,0.26599130034446716,0.06884191930294037,0.06824833154678345,0.12100137770175934,0.26599130034446716,0.06884191930294037,0.06824833154678345,0.12100137770175934,0.11343782395124435,-,-,-,-,-,-,-,-,-,-,-,-,-,-,1.161603569984436,2022,02,20
11,12,329,Lamphun,Northern,18.56666667,99.03333333,-,-,-,-,-,-,-,-,-,-,-,-,-,-,-,-,-,-,-,-,-,-,-,-,-,2022,02,20
12,13,328,Lampang,Northern,18.33333333,99.51666667,-,-,-,-,-,-,-,-,-,-,-,-,-,-,-,-,-,-,-,-,-,-,-,-,-,2022,02,20
13,14,334,Lampang (1),Northern,18.31666667,99.28333333,-,-,-,-,-,-,-,-,-,-,-,-,-,-,-,-,-,-,-,-,-,-,-,-,-,2022,02,20
14,15,324,Thoen,Northern,17.63661111,99.24475,0.1081523597240448,0.08100692927837372,-,-,-,0.08100692927837372,-,-,-,-,-,-,-,-,-,-,-,-,-,-,-,-,-,-,0.3783186078071594,2022,02,20
15,16,330,Phrae,Northern,18.16666667,100.1666667,0.39965131878852844,-,0.20098969340324402,-,-,-,0.20098969340324402,-,-,-,-,-,-,-,-,-,-,-,-,-,-,-,-,-,1.201282024383545,2022,02,20
16,17,351,Uttaradit,Northern,17.61666667,100.1000028,-,-,0.22330890595912933,1.1667959690093994,-,-,0.22330890595912933,1.1667959690093994,-,-,-,-,-,-,-,-,-,-,-,-,-,-,-,-,2.78020977973938,2022,02,20
17,18,372,Sukhothai,Northern,17.10611111,99.8,-,-,0.05815771594643593,-,-,-,0.05815771594643593,-,-,-,-,-,-,-,-,-,-,-,-,-,-,-,-,-,0.11631543189287186,2022,02,20
18,19,373,Si Samrong (1),Northern,17.77361111,99.24944444,0.10112543404102325,0.1286674439907074,-,-,-,0.1286674439907074,-,-,-,-,-,-,-,-,-,-,-,-,-,-,-,-,-,-,0.4595857560634613,2022,02,20
19,20,377,Bhumibol Dam,Northern,17.24391667,99.00252778,-,-,-,-,-,-,-,-,-,-,-,-,-,-,-,-,-,-,-,-,-,-,-,-,-,2022,02,20
20,21,376,Tak,Northern,16.87836111,99.14336111,-,-,-,-,-,-,-,-,-,-,-,-,-,-,-,-,-,-,-,-,-,-,-,-,-,2022,02,20
21,22,375,Mae Sot,Northern,16.65916667,98.55086111,-,-,-,-,-,-,-,-,-,-,-,-,-,-,-,-,-,-,-,-,-,-,-,-,-,2022,02,20
22,23,385,Umphang (2),Northern,16.02472222,98.86444444,-,-,-,-,-,-,-,-,-,-,-,-,-,-,-,-,-,-,-,-,-,-,-,-,-,2022,02,20
23,24,387,Doi Muser (1),Northern,16.75,98.93333611,-,-,-,-,-,-,-,-,-,-,-,-,-,-,-,-,-,-,-,-,-,-,-,-,-,2022,02,20
24,25,378,Phitsanulok,Northern,16.79622222,100.2759444,0.32018017768859863,-,-,-,-,-,-,-,-,-,-,-,-,-,-,-,-,-,-,-,-,-,-,-,0.6403603553771973,2022,02,20
25,26,374,Lom Sak (2),Northern,16.77363889,101.2494722,-,-,-,-,-,-,-,-,-,-,0.7819856405258179,-,-,-,-,-,-,-,-,-,-,-,-,-,0.7819856405258179,2022,02,20
26,27,379,Phetchabun,Northern,16.43333611,101.15,-,-,-,-,-,-,-,-,-,-,-,0.19429098069667816,-,0.07163117080926895,-,-,-,-,-,-,-,-,-,-,0.2659221589565277,2022,02,20
27,28,413,Wichian Buri (2),Northern,15.65694444,101.1083333,-,-,-,-,-,-,-,-,-,-,0.015626421198248863,-,-,0.27519604563713074,-,-,-,-,-,-,-,-,-,-,0.29082247614860535,2022,02,20
28,29,380,Kamphaeng Phet,Northern,16.48680556,99.52697222,-,-,-,-,-,-,-,-,-,-,-,-,-,-,-,-,-,-,-,-,-,-,-,-,-,2022,02,20
29,30,386,Phicit (1),Northern,16.33861111,100.3671111,-,-,-,-,0.2903280556201935,-,-,-,0.2903280556201935,0.581234872341156,-,-,-,-,-,-,-,-,-,-,-,-,-,-,1.161890983581543,2022,02,20
30,31,352,Nong Khai,Northeastern,17.86716667,102.7330278,-,-,-,-,-,-,-,-,-,-,-,-,-,1.0489519834518433,3.096555233001709,0.750282347202301,-,-,-,-,-,-,-,-,4.895789623260498,2022,02,20
31,32,353,Loei,Northeastern,17.45,101.7333333,-,-,-,-,-,-,-,-,-,-,0.12987123429775238,1.3071768283843994,1.342979907989502,-,-,-,-,-,-,-,-,-,-,-,2.7800278663635254,2022,02,20
32,33,350,Loei (1),Northeastern,17.4,101.7333333,-,-,-,-,-,-,-,-,-,-,-,0.9837760925292969,-,-,-,-,-,-,-,-,-,-,-,-,0.9837760925292969,2022,02,20
33,34,354,Udon Thani,Northeastern,17.38333333,102.8,-,-,-,-,-,-,-,-,-,0.09301227331161499,-,-,-,1.0423824787139893,1.7109800577163696,-,3.4348530769348145,0.16162332892417908,-,-,-,-,-,-,6.442851543426514,2022,02,20
34,35,357,Nakhon Phanom,Northeastern,17.41083333,104.7825,-,-,-,-,-,-,-,-,-,-,-,-,-,-,-,-,-,-,0.8507246375083923,2.1897127628326416,3.104975938796997,0.8180649876594543,0.3081595301628113,-,7.271637916564941,2022,02,20
35,36,358,Nakhon Phanom (1),Northeastern,17.44305556,104.7736111,-,-,-,-,-,-,-,-,-,-,-,-,-,-,-,-,-,-,0.8507246375083923,2.1897127628326416,3.104975938796997,0.8180649876594543,0.3081595301628113,-,7.271637916564941,2022,02,20
36,37,356,Sakon Nakhon,Northeastern,17.15000278,104.1333361,-,-,-,-,-,-,-,-,-,-,-,-,-,-,-,-,-,1.1517431735992432,9.401445388793945,2.0512449741363525,0.8686791062355042,0.4504319429397583,0.08192979544401169,0.36185526847839355,14.367329597473145,2022,02,20
37,38,355,Sakon Nakhon (1),Northeastern,17.12502778,104.061,-,-,-,-,-,-,-,-,-,-,-,-,-,-,-,-,-,2.329108238220215,5.170759201049805,1.5835522413253784,0.7665050029754639,0.5763325095176697,0.08913493156433105,0.5133983492851257,11.028790473937988,2022,02,20
38,39,360,Nong Bua Lumphu,Northeastern,17.2325,102.4294444,-,-,-,-,0.16341155767440796,-,-,-,0.16341155767440796,-,-,-,0.9550502896308899,1.5456724166870117,1.4188061952590942,4.13036584854126,-,-,-,-,-,-,-,-,8.376717567443848,2022,02,20
39,40,383,Mukdahan,Northeastern,16.54955556,104.7308889,-,-,-,-,-,-,-,-,-,-,-,-,-,-,-,-,-,-,-,-,-,-,-,1.8872581720352173,1.8872581720352173,2022,02,20
40,41,381,Khon Kaen,Northeastern,16.46111111,102.7897222,-,-,-,-,-,-,-,-,-,-,-,-,0.126079723238945,0.7197829484939575,-,5.437446117401123,2.988497018814087,-,-,-,-,-,-,-,9.271805763244629,2022,02,20
41,42,384,Tha Pra (1),Northeastern,16.333,102.8166667,-,-,-,-,-,-,-,-,-,-,-,-,-,0.6083652973175049,0.1467137634754181,5.739964962005615,2.3971471786499023,-,1.8334449529647827,0.08592317998409271,-,-,-,-,10.811558723449707,2022,02,20
42,43,382,Kosum Phisai (2),Northeastern,16.24722222,103.0680556,-,-,-,-,-,-,-,-,-,-,-,-,-,-,0.07839154452085495,2.6302237510681152,6.389076232910156,2.0340957641601562,2.8714094161987305,1.6016552448272705,-,-,-,-,15.604851722717285,2022,02,20
43,44,390,Kamalasai (2),Northeastern,16.3325,103.5883333,-,-,-,-,-,-,-,-,-,-,-,-,-,-,-,0.06868954002857208,-,4.398927688598633,-,1.030044436454773,-,-,1.2157925367355347,-,6.713454246520996,2022,02,20
44,45,405,Roi Et,Northeastern,16.05000028,103.68333359999998,-,-,-,-,-,-,-,-,-,-,-,-,-,-,-,-,-,-,-,-,-,-,-,-,-,2022,02,20
45,46,404,Roi Et (1),Northeastern,16.07322222,103.6084444,-,-,-,-,-,-,-,-,-,-,-,-,-,-,-,-,-,-,-,-,-,-,-,-,-,2022,02,20
46,47,403,Chaiyaphum,Northeastern,15.80000028,102.0333336,-,-,-,-,-,-,-,-,-,-,-,-,-,1.5875067710876465,3.1655938625335693,2.6567208766937256,0.3996671140193939,-,-,-,-,-,-,-,7.809488773345947,2022,02,20
47,48,407,Ubon Ratchathani,Northeastern,15.25000278,104.8666694,-,-,-,-,-,-,-,-,-,-,-,-,-,-,-,-,2.537692070007324,0.5381386876106262,-,-,-,-,0.12256919592618942,-,3.198399782180786,2022,02,20
48,49,408,Ubon Ratchathani (1),Northeastern,15.24072222,105.01966670000002,-,-,-,-,-,-,-,-,-,-,-,-,-,-,-,1.5681630373001099,3.5262362957000732,1.0918985605239868,-,-,-,-,-,0.08639358729124069,6.272691249847412,2022,02,20
49,50,409,Si Saket (1),Northeastern,15.00000028,104.0500003,-,-,-,-,-,-,-,-,-,-,-,-,-,-,-,-,-,-,0.147081658244133,3.328890323638916,6.377262115478516,1.9999630451202393,-,-,11.85319709777832,2022,02,20
50,51,416,Tha Tum (2),Northeastern,15.31666694,103.68333359999998,-,-,-,-,-,-,-,-,-,-,-,-,-,-,-,-,-,-,-,-,2.241119623184204,2.192291021347046,0.18197394907474518,0.39629754424095154,5.011682033538818,2022,02,20
51,52,432,Surin,Northeastern,14.88333361,103.5000003,-,-,-,-,-,-,-,-,-,-,-,-,-,-,-,-,-,0.07263995707035065,3.5113658905029297,2.1614444255828857,1.4786094427108765,-,-,-,7.224059581756592,2022,02,20
52,53,433,Surin (1),Northeastern,14.88333361,103.4500003,-,-,-,-,-,-,-,-,-,-,-,-,-,-,-,-,-,0.06574014574289322,1.052457332611084,1.4581613540649414,-,-,-,-,2.5763587951660156,2022,02,20
53,54,431,Nakhon Ratchasima,Northeastern,14.96830556,102.0860278,-,-,-,-,-,-,-,-,-,-,-,-,0.02359057031571865,0.6628514528274536,0.2400328665971756,0.10618353635072708,0.6568657755851746,-,-,-,-,-,-,-,1.6895241737365723,2022,02,20
54,55,435,Pakchong (1),Northeastern,14.64388889,101.3319444,-,-,-,-,-,-,-,-,-,-,-,0.07825779169797897,1.8435022830963135,0.727188229560852,1.0045028924942017,-,0.3942568600177765,-,-,-,-,-,-,-,4.047708034515381,2022,02,20
55,56,434,Chok Chai (2),Northeastern,14.71888889,102.1686111,-,-,-,-,-,-,-,-,-,-,-,-,0.030600661411881447,-,-,-,0.3679870069026947,-,-,-,-,-,-,-,0.3985876739025116,2022,02,20
56,57,437,Buri Ram,Northeastern,15.22575,103.2480833,-,-,-,-,-,-,-,-,-,-,-,-,-,-,-,-,0.059371765702962875,-,-,-,1.9627225399017334,-,-,-,2.022094249725342,2022,02,20
57,58,436,Nang Rong (2),Northeastern,14.58333361,102.8000003,-,-,-,-,-,-,-,-,-,-,-,-,-,-,-,-,-,-,-,-,-,-,-,-,-,2022,02,20
58,59,400,Nakhon Sawan,Central,15.67183333,100.1323611,-,-,0.22261962294578552,0.16960351169109344,-,-,0.22261962294578552,0.16960351169109344,-,-,-,-,-,-,-,-,-,-,-,-,-,-,-,-,0.7844462990760803,2022,02,20
59,60,401,Takfa (1),Central,15.34944444,100.5302778,-,-,-,-,-,-,-,-,-,-,-,3.1724801063537598,1.9466303586959839,-,-,-,-,-,-,-,-,-,-,-,5.119110584259033,2022,02,20
60,61,402,Chai Nat,Central,15.15000278,100.18333359999998,-,-,-,-,-,-,-,-,-,-,1.3937853574752808,-,-,-,-,-,-,-,-,-,-,-,-,-,1.3937853574752808,2022,02,20
61,62,410,U Thai Thani,Central,15.37416667,100.0388889,-,-,-,-,-,-,-,-,-,-,0.14768576622009277,-,-,-,-,-,-,-,-,-,-,-,-,-,0.14768576622009277,2022,02,20
62,63,415,Ayuthaya (1),Central,14.53472222,100.725,-,-,-,-,-,-,-,-,-,-,0.05234192684292793,-,-,-,-,-,-,-,-,-,-,-,-,-,0.05234192684292793,2022,02,20
63,64,418,Bua Chum (2),Central,15.10000028,101.6166669,-,-,-,-,-,-,-,-,-,-,-,0.05772993713617325,-,-,1.1289949417114258,1.937493085861206,0.4836595058441162,-,-,-,-,-,-,-,3.607877492904663,2022,02,20
64,65,426,Lop Buri,Central,14.79972222,100.6283333,-,-,-,-,-,-,-,-,-,-,-,-,-,-,-,-,-,-,-,-,-,-,-,-,-,2022,02,20
65,66,425,Suphan Buri,Central,14.47444444,100.1388889,-,-,-,-,-,-,-,-,-,-,-,-,-,-,-,-,-,-,-,-,-,-,-,-,-,2022,02,20
66,67,427,Uthong (1),Central,14.30361111,99.86472222,-,-,-,-,-,-,-,-,-,-,-,-,-,-,-,-,-,-,-,-,-,-,-,-,-,2022,02,20
67,68,421,Thong Pha Phum,Central,14.74222222,98.63638889,3.133815288543701,3.800530433654785,4.946758270263672,1.1955541372299194,6.6069769859313965,3.800530433654785,4.946758270263672,1.1955541372299194,6.6069769859313965,1.011881947517395,-,-,-,-,-,-,-,-,-,-,-,-,-,-,40.379150390625,2022,02,20
68,69,450,Kanchanaburi,Central,14.0225,99.53583333,-,-,-,-,-,-,-,-,-,-,-,-,-,-,-,-,-,-,-,-,-,-,-,-,-,2022,02,20
69,70,464,Ratcha Buri (1),Central,13.48930556,99.79238889,-,-,-,-,-,-,-,-,-,-,-,-,0.04921324551105499,-,-,-,-,-,-,-,-,-,-,-,0.04921324551105499,2022,02,20
70,71,451,Kampheang Saen (1),Central,14.01166667,99.97,-,-,-,-,-,-,-,-,-,-,-,-,0.16631309688091278,-,-,-,-,-,-,-,-,-,-,-,0.16631309688091278,2022,02,20
71,72,419,Pathum Thani (1),Central,14.1,100.616,-,-,-,-,-,-,-,-,-,-,0.0349360927939415,-,0.06673101335763931,-,-,-,-,-,-,-,-,-,-,-,0.10166710615158081,2022,02,20
72,73,420,Samut Prakan,Central,13.51666694,100.7616667,-,-,-,-,-,-,-,-,-,-,-,-,-,-,-,-,-,-,-,-,-,-,-,-,-,2022,02,20
73,74,429,Suvarnabhumi Airport,Central,13.68638889,100.7675,-,-,-,-,-,-,-,-,-,-,-,-,-,-,-,-,-,-,-,-,-,-,-,-,-,2022,02,20
74,75,456,Don Muang Airport,Central,13.91916667,100.605,-,-,-,-,-,-,-,-,-,-,0.02014840766787529,-,-,-,-,-,-,-,-,-,-,-,-,-,0.02014840766787529,2022,02,20
75,76,455,Sirikit Center,Central,13.72638889,100.56,-,-,-,-,-,-,-,-,-,-,-,-,-,-,-,-,-,-,-,-,-,-,-,-,-,2022,02,20
76,77,454,Bangkok Port,Central,13.70694444,100.5680556,-,-,-,-,-,-,-,-,-,-,-,-,-,-,-,-,-,-,-,-,-,-,-,-,-,2022,02,20
77,78,453,Bang Na (1),Central,13.66638889,100.6061111,-,-,-,-,-,-,-,-,-,-,-,-,-,-,-,-,-,-,-,-,-,-,-,-,-,2022,02,20
78,79,457,Bangkok Pilot,Central,13.37722222,100.5994444,-,-,-,-,-,-,-,-,-,-,-,-,-,-,-,-,-,-,-,-,-,-,-,-,-,2022,02,20
79,80,430,Prachin Buri,Eastern,14.05091667,101.3693056,-,-,-,-,-,-,-,-,-,-,-,-,-,-,-,-,-,-,-,-,-,-,-,-,-,2022,02,20
80,81,439,Kabin Buri (2),Eastern,13.98333361,101.7072222,-,-,-,-,-,-,-,-,-,-,0.02486180141568184,0.057041194289922714,-,-,-,-,-,-,-,-,-,-,-,-,0.08190299570560455,2022,02,20
81,82,440,Sa Kaeo (2),Eastern,13.78888889,102.0347222,-,-,-,-,-,-,-,-,-,-,-,-,-,0.15849389135837555,-,-,-,-,-,-,-,-,-,-,0.15849389135837555,2022,02,20
82,83,462,Aranyaprathet,Eastern,13.70000028,102.5833336,-,-,-,-,-,-,-,-,-,-,-,-,-,-,-,-,-,-,-,-,-,-,-,-,-,2022,02,20
83,84,458,Chachoengsao (1),Eastern,13.51555556,101.4583333,-,-,-,-,-,-,-,-,-,-,-,-,-,-,-,-,-,-,-,-,-,-,-,-,-,2022,02,20
84,85,459,Chon Buri,Eastern,13.36666694,100.9833336,-,-,-,-,-,-,-,-,-,-,-,-,-,-,-,-,-,-,-,-,-,-,-,-,-,2022,02,20
85,86,463,Laem Chabang,Eastern,13.07694444,100.8758333,-,-,-,-,-,-,-,-,-,-,-,-,-,-,-,-,-,-,-,-,-,-,-,-,-,2022,02,20
86,87,460,Ko Sichang,Eastern,13.16166667,100.8019444,-,-,-,-,-,-,-,-,-,-,-,-,-,-,-,-,-,-,-,-,-,-,-,-,-,2022,02,20
87,88,461,Pattaya,Eastern,12.92,100.8694444,-,-,-,-,-,-,-,-,-,-,-,-,-,-,-,-,-,-,-,-,-,-,-,-,-,2022,02,20
88,89,477,Sattahip,Eastern,12.68333361,100.9833336,-,-,-,-,-,-,-,-,-,-,-,-,-,-,-,-,-,-,-,-,-,-,-,-,-,2022,02,20
89,90,478,Rayong,Eastern,12.61702778,101.34075,-,-,-,-,-,-,-,-,-,-,-,-,-,-,-,-,-,-,-,-,-,-,-,-,-,2022,02,20
90,91,479,Huai Pong (1),Eastern,12.73333361,101.1333336,-,-,-,-,-,-,-,-,-,-,-,-,-,-,-,-,-,-,-,-,-,-,-,-,-,2022,02,20
91,92,480,Chanthaburi,Eastern,12.61666694,102.1133333,-,-,-,-,-,-,-,-,-,-,-,-,-,-,-,-,-,-,-,-,-,-,-,-,-,2022,02,20
92,93,481,Pluei (1),Eastern,12.50861111,102.1730556,-,-,-,-,-,-,-,-,-,-,-,-,-,-,-,-,-,-,-,-,-,-,-,-,-,2022,02,20
93,94,501,Khlong Yai,Eastern,11.76666694,102.8833336,-,-,-,-,-,-,-,-,-,-,-,-,-,-,-,-,-,-,-,-,-,-,-,-,-,2022,02,20
94,95,465,Phetchaburi,Southern EastCoast,12.99930556,100.0605278,-,-,-,-,-,-,-,-,-,-,-,-,-,-,-,-,-,-,-,-,-,-,-,-,-,2022,02,20
95,96,474,Nong Plub (1),Southern EastCoast,12.58925,99.73461111,-,-,-,-,-,-,-,-,-,-,-,1.0963289737701416,10.9132719039917,-,-,-,-,-,-,-,-,-,-,-,12.009600639343262,2022,02,20
96,97,475,Hua Hin,Southern EastCoast,12.57797222,99.95372222,-,-,-,-,-,-,-,-,-,-,-,0.196238711476326,2.91174054145813,-,-,-,-,-,-,-,-,-,-,-,3.1079792976379395,2022,02,20
97,98,500,Prachuap Khiri Khan,Southern EastCoast,11.83497222,99.81047222,-,-,-,-,-,-,-,-,-,-,2.2872939109802246,-,-,-,0.05761081352829933,0.07235832512378693,-,-,-,-,-,-,-,-,2.4172630310058594,2022,02,20
98,99,517,Chumphon,Southern EastCoast,10.49875,99.18847222,-,-,-,-,-,-,-,-,-,-,-,-,-,-,-,-,-,-,-,-,-,4.220885753631592,-,-,4.220885753631592,2022,02,20
99,100,520,Sawee (1),Southern EastCoast,10.33063889,99.09186111,-,-,-,-,-,-,-,-,-,-,-,-,-,-,-,-,-,-,-,-,-,-,-,-,-,2022,02,20
100,101,551,Surat Thani,Southern EastCoast,9.1335,99.15213889,-,-,-,-,-,-,-,-,-,-,-,-,3.118014097213745,-,-,-,0.42372792959213257,-,-,-,-,-,-,-,3.5417420864105225,2022,02,20
101,102,555,Surat Thani (1),Southern EastCoast,9.144805556,99.63361111,-,-,-,-,-,-,-,-,-,-,2.1946511268615723,1.5396595001220703,-,-,-,-,-,0.8718947172164917,-,-,-,-,-,-,4.606205463409424,2022,02,20
102,103,550,Ko Samui,Southern EastCoast,9.466666667,100.05,-,-,-,-,-,-,-,-,-,-,-,-,-,-,-,-,-,-,-,3.506136178970337,-,-,-,-,3.506136178970337,2022,02,20
103,104,556,Prasang (2),Southern EastCoast,8.572083333,99.25519444,-,-,-,-,-,-,-,-,-,-,-,-,0.2031545788049698,1.1175273656845093,2.742236614227295,8.793527603149414,1.601205825805664,-,-,-,-,0.01679566316306591,0.016795534640550613,0.01679551973938942,14.508038520812988,2022,02,20
104,105,557,Chawang (2),Southern EastCoast,8.424694444,99.50661111,-,-,-,-,-,-,-,-,-,-,-,0.09245923906564713,-,6.668920516967773,15.8284273147583,10.633086204528809,1.1218677759170532,-,-,-,0.06530116498470306,-,-,-,34.41006088256836,2022,02,20
105,106,552,Nakhon Si Thammarat,Southern EastCoast,8.537777777999999,99.94722222,-,-,-,-,-,-,-,-,-,-,-,-,-,-,0.1057494729757309,-,-,-,-,-,-,-,-,-,0.1057494729757309,2022,02,20
106,107,554,Nakhon Si Thammarat (1),Southern EastCoast,8.359305556,100.0,-,-,-,-,-,-,-,-,-,-,-,-,-,6.358307361602783,-,-,-,-,-,-,-,-,-,-,6.358307361602783,2022,02,20
107,108,560,Pattalung (1),Southern EastCoast,7.583333611,100.1666669,-,-,-,-,-,-,-,-,-,-,-,-,-,-,-,-,-,-,-,-,-,-,-,-,-,2022,02,20
108,109,568,Songkhla,Southern EastCoast,7.182111111,100.6076944,-,-,-,-,-,-,-,-,-,-,-,-,-,-,-,-,-,-,-,-,-,-,-,-,-,2022,02,20
109,110,569,Hat Yai,Southern EastCoast,6.916666944,100.43333359999998,-,-,-,-,-,-,-,-,-,-,8.538928031921387,-,-,-,-,-,-,-,-,-,-,-,-,-,8.538928031921387,2022,02,20
110,111,571,Korhong (1),Southern EastCoast,7.0,100.5,-,-,-,-,-,-,-,-,-,-,0.902898371219635,-,-,-,-,-,-,-,-,-,-,-,-,-,0.902898371219635,2022,02,20
111,112,574,Sa Dao (2),Southern EastCoast,6.798055556,100.3905556,-,-,-,-,-,-,-,-,-,-,0.13437111675739288,-,-,-,-,-,-,-,-,-,-,-,-,-,0.13437111675739288,2022,02,20
112,113,580,Pattani,Southern EastCoast,6.7833336110000015,101.1500003,-,-,-,-,-,-,-,-,-,-,-,-,-,-,-,-,-,-,-,-,-,-,-,-,-,2022,02,20
113,114,581,Yala (1),Southern EastCoast,6.050000278,101.2833336,-,-,-,-,-,-,-,-,-,-,-,-,-,0.6409622430801392,1.6643893718719482,1.2559683322906494,-,-,-,-,-,-,-,-,3.5613200664520264,2022,02,20
114,115,583,Narathiwat,Southern EastCoast,6.416666944,101.81666690000002,-,-,-,-,-,-,-,-,-,-,-,-,-,-,-,-,-,-,-,-,-,-,-,-,-,2022,02,20
115,116,532,Ranong,Southern WestCoast,9.983333611,98.61666694,-,-,-,-,-,-,-,-,-,-,-,-,-,-,-,-,4.1232590675354,2.3269617557525635,-,-,-,-,-,-,6.450221061706543,2022,02,20
116,117,561,Takua Pa,Southern WestCoast,8.684166667000001,98.25222222,-,-,-,-,-,-,-,-,-,-,-,-,-,-,-,4.131518363952637,-,-,-,-,-,-,-,-,4.131518363952637,2022,02,20
117,118,564,Phuket,Southern WestCoast,7.883333611,98.40000028,-,-,-,-,-,-,-,-,-,-,-,-,-,-,-,-,-,-,-,-,-,-,-,-,-,2022,02,20
118,119,565,Phuket Airport,Southern WestCoast,8.145,98.31444444,-,-,-,-,-,-,-,-,-,-,-,-,-,-,-,-,-,-,-,-,-,-,-,-,-,2022,02,20
119,120,563,Krabi,Southern WestCoast,8.103611111000001,98.97527778,-,-,-,-,-,-,-,-,-,-,0.2815401256084442,-,-,-,2.2782537937164307,4.1559038162231445,3.2493093013763428,-,-,-,-,-,-,-,9.965006828308105,2022,02,20
120,121,566,Ko Lanta,Southern WestCoast,7.5333336110000015,99.05000028,-,-,-,-,-,-,-,-,-,-,0.10498625785112381,-,4.0746941566467285,-,1.634274959564209,0.49082040786743164,0.04793562367558479,-,-,-,-,-,-,-,6.352711200714111,2022,02,20
121,122,567,Trang,Southern WestCoast,7.516666944,99.61666694,-,-,-,-,-,-,-,-,-,-,1.5009843111038208,54.21969985961914,-,3.564404010772705,0.3119257092475891,-,-,-,-,-,-,-,-,-,59.59701156616211,2022,02,20
122,123,570,Satun,Southern WestCoast,6.650000277999999,100.0833336,-,-,-,-,-,-,-,-,-,-,-,-,2.743468999862671,0.6094627380371094,4.5995192527771,5.405328750610352,1.222475528717041,-,-,-,-,-,-,-,14.580255508422852,2022,02,20
