,ID,WMO_CODE,NAME_EN,Region,Latitude,Longitude,00Z,01Z,02Z,03Z,04Z,05Z,06Z,07Z,08Z,09Z,10Z,11Z,12Z,13Z,14Z,15Z,16Z,17Z,18Z,19Z,20Z,21Z,22Z,23Z,sum,year,month,day
0,1,300,Mae Hong Son,Northern,19.29897222,97.97577778,1.175889492034912,-,-,-,-,-,-,-,-,-,-,-,-,-,-,-,-,1.051931381225586,-,-,-,-,-,-,3.40371036529541,2022,09,01
1,2,325,Mae Sariang,Northern,18.16666667,97.93333333,-,-,0.21249744296073914,1.164840817451477,0.4077605605125427,-,0.21249744296073914,1.164840817451477,0.4077605605125427,0.15824167430400848,0.5367410778999329,-,-,-,0.4780324399471283,-,-,-,-,-,-,-,-,-,4.743212699890137,2022,09,01
2,3,303,Chiang Rai,Northern,19.96138889,99.88138889,0.36937934160232544,-,-,-,-,-,-,-,-,-,-,-,-,-,-,-,-,-,-,-,-,-,-,-,0.7387586832046509,2022,09,01
3,4,304,Chiang Rai (1),Northern,19.87083333,99.78277778,0.3287273347377777,-,-,-,-,-,-,-,-,-,-,-,-,-,-,-,-,-,-,-,-,-,-,-,0.6574546694755554,2022,09,01
4,5,310,Phayao,Northern,19.13333333,99.9,-,-,-,-,-,-,-,-,-,-,-,-,-,-,-,-,-,-,-,-,-,-,-,-,-,2022,09,01
5,6,327,Chiang Mai,Northern,18.79,98.97694444,-,-,0.2873450815677643,0.6704052686691284,0.8988872170448303,-,0.2873450815677643,0.6704052686691284,0.8988872170448303,0.33154988288879395,-,-,-,-,-,-,-,-,-,-,-,-,-,-,4.044825077056885,2022,09,01
6,7,302,Doi Angkhlang,Northern,19.93138889,99.04833333,0.7015870213508606,-,-,-,-,-,-,-,-,-,-,-,-,-,-,-,-,-,-,-,-,-,-,-,1.4031740427017212,2022,09,01
7,8,331,Nan,Northern,18.77972222,100.7777778,-,0.18726405501365662,0.20019836723804474,-,-,0.18726405501365662,0.20019836723804474,-,-,-,-,-,-,-,-,-,-,-,-,-,-,-,-,-,0.7749248147010803,2022,09,01
8,9,333,Nan (1),Northern,18.86666667,100.75,-,-,0.09689755737781525,-,-,-,0.09689755737781525,-,-,-,-,-,-,-,-,-,-,-,-,-,-,-,-,-,0.1937951147556305,2022,09,01
9,10,315,Tha Wang Pha (2),Northern,19.11055556,100.8025,-,-,-,-,-,-,-,-,-,-,-,-,-,-,0.022038424387574196,0.026283422484993935,-,-,-,-,-,-,-,-,0.04832184687256813,2022,09,01
10,11,307,Thung Chang (2),Northern,19.41194444,100.8835278,-,-,-,-,-,-,-,-,-,-,-,-,-,-,-,-,-,-,-,-,-,-,-,-,-,2022,09,01
11,12,329,Lamphun,Northern,18.56666667,99.03333333,-,0.3013313114643097,1.9748735427856445,0.8765836358070374,0.928093433380127,0.3013313114643097,1.9748735427856445,0.8765836358070374,0.928093433380127,0.38525480031967163,0.08611316978931427,-,-,-,-,-,-,-,-,-,-,-,-,-,8.633131980895996,2022,09,01
12,13,328,Lampang,Northern,18.33333333,99.51666667,-,9.109386444091797,2.5812065601348877,0.5468704104423523,0.47122642397880554,9.109386444091797,2.5812065601348877,0.5468704104423523,0.47122642397880554,0.17324618995189667,0.36434513330459595,-,-,-,-,-,0.016000783070921898,-,-,-,-,-,-,-,25.97097396850586,2022,09,01
13,14,334,Lampang (1),Northern,18.31666667,99.28333333,-,2.3341119289398193,4.691205978393555,1.7220838069915771,0.5870108008384705,2.3341119289398193,4.691205978393555,1.7220838069915771,0.5870108008384705,0.3366466164588928,0.274027019739151,1.142695426940918,-,-,-,-,-,-,-,-,-,-,-,-,20.422195434570312,2022,09,01
14,15,324,Thoen,Northern,17.63661111,99.24475,-,0.5307385921478271,2.2557473182678223,6.2949538230896,-,0.5307385921478271,2.2557473182678223,6.2949538230896,-,-,-,-,-,-,-,-,-,-,-,-,-,-,-,-,18.162879943847656,2022,09,01
15,16,330,Phrae,Northern,18.16666667,100.1666667,2.9750747680664062,-,0.6908281445503235,-,-,-,0.6908281445503235,-,-,-,-,-,-,-,1.6388568878173828,-,-,-,-,-,-,-,-,-,8.970663070678711,2022,09,01
16,17,351,Uttaradit,Northern,17.61666667,100.1000028,-,-,-,-,-,-,-,-,-,-,-,-,-,-,-,-,-,0.025047043338418007,-,-,-,-,-,-,0.025047043338418007,2022,09,01
17,18,372,Sukhothai,Northern,17.10611111,99.8,-,-,-,-,-,-,-,-,-,-,-,-,-,-,-,-,-,-,-,-,-,-,-,-,-,2022,09,01
18,19,373,Si Samrong (1),Northern,17.77361111,99.24944444,-,1.0568245649337769,5.9936299324035645,5.422840595245361,-,1.0568245649337769,5.9936299324035645,5.422840595245361,-,-,-,0.03187322989106178,-,-,-,-,-,-,-,-,-,-,-,-,24.978464126586914,2022,09,01
19,20,377,Bhumibol Dam,Northern,17.24391667,99.00252778,-,-,-,-,-,-,-,-,-,-,-,-,-,-,-,-,-,-,-,-,-,-,-,-,-,2022,09,01
20,21,376,Tak,Northern,16.87836111,99.14336111,-,-,-,-,-,-,-,-,-,-,-,-,-,-,-,-,-,-,-,-,-,-,-,-,-,2022,09,01
21,22,375,Mae Sot,Northern,16.65916667,98.55086111,-,-,-,-,-,-,-,-,-,-,-,1.5362058877944946,0.03485573083162308,-,-,-,-,-,-,-,-,-,-,-,1.571061611175537,2022,09,01
22,23,385,Umphang (2),Northern,16.02472222,98.86444444,-,-,-,-,-,-,-,-,-,-,-,3.4972715377807617,0.5148645639419556,1.0427684783935547,-,-,-,-,-,0.03334773704409599,-,-,-,-,5.088252067565918,2022,09,01
23,24,387,Doi Muser (1),Northern,16.75,98.93333611,-,-,-,-,-,-,-,-,-,-,-,-,-,-,-,-,-,-,-,-,-,-,-,-,-,2022,09,01
24,25,378,Phitsanulok,Northern,16.79622222,100.2759444,-,-,-,-,-,-,-,-,-,-,-,-,-,-,-,-,0.030646895989775658,-,-,-,-,-,-,-,0.030646895989775658,2022,09,01
25,26,374,Lom Sak (2),Northern,16.77363889,101.2494722,-,-,-,-,-,-,-,-,-,-,-,-,-,0.1761198192834854,-,-,-,-,-,-,-,-,-,-,0.1761198192834854,2022,09,01
26,27,379,Phetchabun,Northern,16.43333611,101.15,-,-,-,-,-,-,-,-,-,-,-,-,2.723053455352783,0.18645723164081573,-,-,-,-,-,-,-,-,-,-,2.909510612487793,2022,09,01
27,28,413,Wichian Buri (2),Northern,15.65694444,101.1083333,-,-,-,-,-,-,-,-,-,-,-,-,-,2.15554141998291,3.4083871841430664,-,-,-,-,-,-,-,-,-,5.563928604125977,2022,09,01
28,29,380,Kamphaeng Phet,Northern,16.48680556,99.52697222,-,-,-,-,-,-,-,-,-,-,-,-,-,-,-,-,-,-,-,-,-,0.019374513998627663,0.016503404825925827,-,0.03587792068719864,2022,09,01
29,30,386,Phicit (1),Northern,16.33861111,100.3671111,-,-,-,-,-,-,-,-,-,-,-,-,-,-,-,-,-,0.11242450028657913,0.06012565642595291,-,-,-,-,-,0.17255015671253204,2022,09,01
30,31,352,Nong Khai,Northeastern,17.86716667,102.7330278,-,-,-,-,-,-,-,-,-,-,-,-,-,-,-,-,-,-,-,-,-,-,-,-,-,2022,09,01
31,32,353,Loei,Northeastern,17.45,101.7333333,-,-,-,-,-,-,-,-,-,-,-,-,-,-,-,-,-,-,-,-,-,-,-,-,-,2022,09,01
32,33,350,Loei (1),Northeastern,17.4,101.7333333,-,-,-,-,-,-,-,-,-,-,-,-,-,-,-,-,-,-,-,-,-,-,-,-,-,2022,09,01
33,34,354,Udon Thani,Northeastern,17.38333333,102.8,-,-,-,-,-,-,-,-,-,-,-,-,-,-,-,-,-,-,-,-,-,0.025428956374526024,0.01964479126036167,0.018279284238815308,0.063353031873703,2022,09,01
34,35,357,Nakhon Phanom,Northeastern,17.41083333,104.7825,-,-,-,-,-,-,-,-,-,-,-,-,-,0.23056869208812714,1.4513722658157349,0.05968524515628815,-,0.017344646155834198,-,-,-,-,-,-,1.7589707374572754,2022,09,01
35,36,358,Nakhon Phanom (1),Northeastern,17.44305556,104.7736111,-,-,-,-,-,-,-,-,-,-,-,-,-,0.23056869208812714,1.4513722658157349,0.05968524515628815,-,0.017344646155834198,-,-,-,-,-,-,1.7589707374572754,2022,09,01
36,37,356,Sakon Nakhon,Northeastern,17.15000278,104.1333361,-,-,-,-,-,-,-,-,-,-,-,-,1.2032434940338135,-,-,2.3373501300811768,2.064486265182495,0.034240610897541046,0.03744550794363022,-,-,-,-,-,5.6767659187316895,2022,09,01
37,38,355,Sakon Nakhon (1),Northeastern,17.12502778,104.061,-,-,-,-,-,-,-,-,-,-,-,-,0.20841827988624573,-,-,-,1.601919412612915,0.12605026364326477,0.04034483805298805,0.022196635603904724,-,-,-,-,1.9989293813705444,2022,09,01
38,39,360,Nong Bua Lumphu,Northeastern,17.2325,102.4294444,-,-,-,-,-,-,-,-,-,-,-,-,-,-,-,-,-,-,-,-,-,-,-,0.019423319026827812,0.019423319026827812,2022,09,01
39,40,383,Mukdahan,Northeastern,16.54955556,104.7308889,-,-,-,-,-,-,-,-,-,-,-,-,-,-,-,-,-,-,0.013468758203089237,-,-,-,-,-,0.013468758203089237,2022,09,01
40,41,381,Khon Kaen,Northeastern,16.46111111,102.7897222,-,-,-,-,-,-,-,-,-,-,-,-,-,-,2.7719218730926514,0.2657758295536041,0.018632180988788605,-,-,-,-,-,-,-,3.0563299655914307,2022,09,01
41,42,384,Tha Pra (1),Northeastern,16.333,102.8166667,-,-,-,-,-,-,-,-,-,-,-,-,-,-,0.45169246196746826,0.13789957761764526,0.01854991540312767,-,-,-,-,-,-,-,0.6081419587135315,2022,09,01
42,43,382,Kosum Phisai (2),Northeastern,16.24722222,103.0680556,-,-,-,-,-,-,-,-,-,-,-,-,-,1.8606351613998413,0.6547911763191223,0.03848472982645035,0.015750765800476074,-,-,-,-,-,-,-,2.569662094116211,2022,09,01
43,44,390,Kamalasai (2),Northeastern,16.3325,103.5883333,-,-,-,-,-,-,-,-,-,-,-,-,2.5535266399383545,2.2713091373443604,0.4758192002773285,-,-,-,-,-,-,-,-,-,5.300654888153076,2022,09,01
44,45,405,Roi Et,Northeastern,16.05000028,103.68333359999998,-,-,-,-,-,-,-,-,-,-,-,-,-,2.9460813999176025,0.47203561663627625,-,-,-,-,-,-,0.016280438750982285,0.017639415338635445,-,3.4520368576049805,2022,09,01
45,46,404,Roi Et (1),Northeastern,16.07322222,103.6084444,-,-,-,-,-,-,-,-,-,-,-,-,-,2.9460813999176025,0.47203561663627625,-,-,-,-,-,-,0.016280438750982285,0.017639415338635445,-,3.4520368576049805,2022,09,01
46,47,403,Chaiyaphum,Northeastern,15.80000028,102.0333336,-,-,-,-,-,-,-,-,-,-,-,-,-,-,-,-,-,0.22198626399040222,0.7175033092498779,-,-,-,-,-,0.9394896030426025,2022,09,01
47,48,407,Ubon Ratchathani,Northeastern,15.25000278,104.8666694,-,-,-,-,-,-,-,-,-,-,-,-,-,-,-,-,-,-,-,0.01596929505467415,-,-,-,-,0.01596929505467415,2022,09,01
48,49,408,Ubon Ratchathani (1),Northeastern,15.24072222,105.01966670000002,-,-,-,-,-,-,-,-,-,-,-,-,-,-,-,-,-,-,0.021540524438023567,-,-,-,-,-,0.021540524438023567,2022,09,01
49,50,409,Si Saket (1),Northeastern,15.00000028,104.0500003,-,-,-,-,-,-,-,-,-,-,-,-,-,-,-,-,-,-,-,-,-,0.016644688323140144,-,-,0.016644688323140144,2022,09,01
50,51,416,Tha Tum (2),Northeastern,15.31666694,103.68333359999998,-,-,-,-,-,-,-,-,-,-,-,-,-,-,-,-,-,-,-,-,-,-,-,-,-,2022,09,01
51,52,432,Surin,Northeastern,14.88333361,103.5000003,-,-,-,-,-,-,-,-,-,-,-,-,-,-,-,-,-,-,-,-,-,-,-,0.018387075513601303,0.018387075513601303,2022,09,01
52,53,433,Surin (1),Northeastern,14.88333361,103.4500003,-,-,-,-,-,-,-,-,-,-,-,-,-,-,-,0.09624598920345306,-,-,-,-,-,-,-,0.01723485253751278,0.11348084360361099,2022,09,01
53,54,431,Nakhon Ratchasima,Northeastern,14.96830556,102.0860278,-,-,-,-,-,-,-,-,-,-,-,-,-,-,-,-,0.014822370372712612,-,-,-,-,-,-,-,0.014822370372712612,2022,09,01
54,55,435,Pakchong (1),Northeastern,14.64388889,101.3319444,-,-,-,-,-,-,-,-,-,-,-,-,-,-,-,-,0.03689231723546982,0.20048905909061432,0.3446587324142456,0.059323713183403015,-,-,-,-,0.641363799571991,2022,09,01
55,56,434,Chok Chai (2),Northeastern,14.71888889,102.1686111,-,-,-,-,-,-,-,-,-,-,-,-,-,-,-,0.08471628278493881,0.013624907471239567,-,-,-,-,-,-,-,0.0983411893248558,2022,09,01
56,57,437,Buri Ram,Northeastern,15.22575,103.2480833,-,-,-,-,-,-,-,-,-,-,-,-,-,-,-,-,-,-,-,-,-,-,-,-,-,2022,09,01
57,58,436,Nang Rong (2),Northeastern,14.58333361,102.8000003,-,-,-,-,-,-,-,-,-,-,-,-,0.059933893382549286,1.356525182723999,0.17212770879268646,0.025374170392751694,-,-,-,-,-,-,-,-,1.6139609813690186,2022,09,01
58,59,400,Nakhon Sawan,Central,15.67183333,100.1323611,-,-,-,-,-,-,-,-,-,-,-,-,-,-,-,-,-,-,-,-,-,-,-,-,-,2022,09,01
59,60,401,Takfa (1),Central,15.34944444,100.5302778,-,-,-,-,-,-,-,-,-,-,-,-,-,-,-,-,-,-,-,-,-,-,-,-,-,2022,09,01
60,61,402,Chai Nat,Central,15.15000278,100.18333359999998,-,-,-,-,-,-,-,-,-,-,-,-,-,-,-,-,-,-,-,-,-,-,-,-,-,2022,09,01
61,62,410,U Thai Thani,Central,15.37416667,100.0388889,-,-,-,-,-,-,-,-,-,-,-,-,-,-,-,-,-,-,-,-,-,-,-,-,-,2022,09,01
62,63,415,Ayuthaya (1),Central,14.53472222,100.725,-,-,-,-,-,-,-,-,-,-,-,-,-,-,-,-,-,-,-,1.3925631046295166,0.027105681598186493,0.018274355679750443,0.014580151066184044,0.016186848282814026,1.4687100648880005,2022,09,01
63,64,418,Bua Chum (2),Central,15.10000028,101.6166669,-,-,-,-,-,-,-,-,-,-,-,-,-,-,-,-,-,-,-,-,-,-,-,-,-,2022,09,01
64,65,426,Lop Buri,Central,14.79972222,100.6283333,-,-,-,-,-,-,-,-,-,-,-,-,-,-,-,-,-,0.17609798908233643,-,-,0.043013542890548706,0.01678873598575592,0.014878704212605953,-,0.2507789731025696,2022,09,01
65,66,425,Suphan Buri,Central,14.47444444,100.1388889,-,-,-,-,-,-,-,-,-,-,-,-,-,-,-,-,-,-,-,-,-,-,-,-,-,2022,09,01
66,67,427,Uthong (1),Central,14.30361111,99.86472222,-,-,-,-,-,-,-,-,-,-,-,-,-,-,-,-,-,-,-,-,-,-,-,-,-,2022,09,01
67,68,421,Thong Pha Phum,Central,14.74222222,98.63638889,-,-,-,-,-,-,-,-,-,-,-,1.5333280563354492,1.2528188228607178,3.9225704669952393,1.6883066892623901,0.10064125061035156,1.5055181980133057,-,-,-,-,-,-,-,10.003183364868164,2022,09,01
68,69,450,Kanchanaburi,Central,14.0225,99.53583333,-,-,-,-,-,-,-,-,-,-,-,1.2286405563354492,0.18543605506420135,-,-,-,-,-,-,-,-,-,-,-,1.414076566696167,2022,09,01
69,70,464,Ratcha Buri (1),Central,13.48930556,99.79238889,-,-,-,-,-,-,-,-,-,-,-,-,-,-,-,-,-,-,-,-,-,-,-,-,-,2022,09,01
70,71,451,Kampheang Saen (1),Central,14.01166667,99.97,-,-,-,-,-,-,-,-,-,-,-,-,-,-,-,-,-,-,-,-,-,-,-,-,-,2022,09,01
71,72,419,Pathum Thani (1),Central,14.1,100.616,-,-,-,-,-,-,-,-,-,-,-,-,-,-,-,-,-,-,-,-,-,-,-,-,-,2022,09,01
72,73,420,Samut Prakan,Central,13.51666694,100.7616667,-,-,-,-,-,-,-,-,-,-,-,-,-,-,-,-,-,-,-,-,-,-,-,-,-,2022,09,01
73,74,429,Suvarnabhumi Airport,Central,13.68638889,100.7675,-,-,-,-,-,-,-,-,-,-,-,-,-,-,-,-,-,-,-,-,-,-,-,-,-,2022,09,01
74,75,456,Don Muang Airport,Central,13.91916667,100.605,-,-,-,-,-,-,-,-,-,-,-,-,-,-,-,-,-,-,-,-,-,-,-,-,-,2022,09,01
75,76,455,Sirikit Center,Central,13.72638889,100.56,-,-,-,-,-,-,-,-,-,-,-,-,-,-,-,-,-,-,-,-,-,-,-,-,-,2022,09,01
76,77,454,Bangkok Port,Central,13.70694444,100.5680556,-,-,-,-,-,-,-,-,-,-,-,-,-,-,-,-,-,-,-,-,-,-,-,-,-,2022,09,01
77,78,453,Bang Na (1),Central,13.66638889,100.6061111,-,-,-,-,-,-,-,-,-,-,-,-,-,-,-,-,-,-,-,-,-,-,-,-,-,2022,09,01
78,79,457,Bangkok Pilot,Central,13.37722222,100.5994444,-,-,-,-,-,-,-,-,-,-,-,-,-,-,-,-,-,-,-,-,-,-,-,-,-,2022,09,01
79,80,430,Prachin Buri,Eastern,14.05091667,101.3693056,-,-,-,-,-,-,-,-,-,-,-,-,-,-,-,-,-,-,-,-,-,-,-,-,-,2022,09,01
80,81,439,Kabin Buri (2),Eastern,13.98333361,101.7072222,-,-,-,-,-,-,-,-,-,-,-,-,-,-,-,-,-,-,-,-,-,-,-,-,-,2022,09,01
81,82,440,Sa Kaeo (2),Eastern,13.78888889,102.0347222,-,-,-,-,-,-,-,-,-,-,-,-,-,-,-,-,-,-,-,-,-,-,-,-,-,2022,09,01
82,83,462,Aranyaprathet,Eastern,13.70000028,102.5833336,-,-,-,-,-,-,-,-,-,-,-,-,-,-,-,-,-,-,-,-,-,-,-,-,-,2022,09,01
83,84,458,Chachoengsao (1),Eastern,13.51555556,101.4583333,-,-,-,-,-,-,-,-,-,-,-,-,-,-,-,-,-,-,-,-,-,-,-,-,-,2022,09,01
84,85,459,Chon Buri,Eastern,13.36666694,100.9833336,-,-,-,-,-,-,-,-,-,-,-,-,-,-,-,-,-,-,-,-,-,-,-,-,-,2022,09,01
85,86,463,Laem Chabang,Eastern,13.07694444,100.8758333,-,-,-,-,-,-,-,-,-,-,-,-,-,-,-,-,0.10549658536911011,-,-,-,-,-,-,-,0.10549658536911011,2022,09,01
86,87,460,Ko Sichang,Eastern,13.16166667,100.8019444,-,-,-,-,-,-,-,-,-,-,-,-,-,-,-,-,-,-,-,-,-,-,-,-,-,2022,09,01
87,88,461,Pattaya,Eastern,12.92,100.8694444,-,-,-,-,-,-,-,-,-,-,-,-,-,-,-,-,0.13057109713554382,-,-,-,-,-,-,-,0.13057109713554382,2022,09,01
88,89,477,Sattahip,Eastern,12.68333361,100.9833336,-,-,-,-,-,-,-,-,-,-,-,-,-,-,-,-,-,-,-,-,-,-,-,-,-,2022,09,01
89,90,478,Rayong,Eastern,12.61702778,101.34075,-,-,-,-,-,-,-,-,-,-,-,-,-,-,-,-,0.03730867803096771,-,-,-,-,-,-,-,0.03730867803096771,2022,09,01
90,91,479,Huai Pong (1),Eastern,12.73333361,101.1333336,-,-,-,-,-,-,-,-,-,-,-,-,-,-,-,0.9750825762748718,-,-,-,-,-,-,-,-,0.9750825762748718,2022,09,01
91,92,480,Chanthaburi,Eastern,12.61666694,102.1133333,-,-,-,-,-,-,-,-,-,-,-,-,1.4348418712615967,-,-,-,-,-,-,-,-,-,-,-,1.4348418712615967,2022,09,01
92,93,481,Pluei (1),Eastern,12.50861111,102.1730556,-,-,-,-,-,-,-,-,-,-,-,-,-,-,-,-,-,-,-,-,-,-,-,-,-,2022,09,01
93,94,501,Khlong Yai,Eastern,11.76666694,102.8833336,-,-,-,-,-,-,-,-,-,-,-,-,-,-,0.6009916067123413,-,-,-,-,-,-,-,-,-,0.6009916067123413,2022,09,01
94,95,465,Phetchaburi,Southern EastCoast,12.99930556,100.0605278,-,-,-,-,-,-,-,-,-,-,-,-,-,-,-,-,-,-,-,-,-,-,-,-,-,2022,09,01
95,96,474,Nong Plub (1),Southern EastCoast,12.58925,99.73461111,-,-,-,-,-,-,-,-,-,-,-,0.09048064798116684,-,-,-,-,-,-,-,-,-,-,-,-,0.09048064798116684,2022,09,01
96,97,475,Hua Hin,Southern EastCoast,12.57797222,99.95372222,-,-,-,-,-,-,-,-,-,-,-,-,-,-,-,-,-,-,-,-,-,-,-,-,-,2022,09,01
97,98,500,Prachuap Khiri Khan,Southern EastCoast,11.83497222,99.81047222,-,-,-,-,-,-,-,-,-,-,-,-,-,-,-,-,-,-,-,-,-,-,-,-,-,2022,09,01
98,99,517,Chumphon,Southern EastCoast,10.49875,99.18847222,-,-,-,-,-,-,-,-,-,-,-,0.32449963688850403,-,-,-,-,-,-,-,-,-,-,-,-,0.32449963688850403,2022,09,01
99,100,520,Sawee (1),Southern EastCoast,10.33063889,99.09186111,-,-,-,-,-,-,-,-,-,-,-,-,-,-,-,-,-,-,-,-,-,-,-,-,-,2022,09,01
100,101,551,Surat Thani,Southern EastCoast,9.1335,99.15213889,-,-,-,-,-,-,-,-,-,-,-,-,0.25939494371414185,0.02370383031666279,-,-,-,-,-,-,-,-,-,-,0.2830987870693207,2022,09,01
101,102,555,Surat Thani (1),Southern EastCoast,9.144805556,99.63361111,-,-,-,-,-,-,-,-,-,-,-,3.5328845977783203,-,-,-,-,-,-,-,-,-,-,-,-,3.5328845977783203,2022,09,01
102,103,550,Ko Samui,Southern EastCoast,9.466666667,100.05,-,-,-,-,-,-,-,-,-,-,-,-,-,-,-,-,-,-,-,-,-,-,-,-,-,2022,09,01
103,104,556,Prasang (2),Southern EastCoast,8.572083333,99.25519444,-,-,-,-,-,-,-,-,-,-,-,-,-,0.2037324756383896,0.16006022691726685,-,-,-,-,-,-,-,-,-,0.3637927174568176,2022,09,01
104,105,557,Chawang (2),Southern EastCoast,8.424694444,99.50661111,-,-,-,-,-,-,-,-,-,-,-,-,-,-,-,-,-,-,-,-,-,-,-,-,-,2022,09,01
105,106,552,Nakhon Si Thammarat,Southern EastCoast,8.537777777999999,99.94722222,-,-,-,-,-,-,-,-,-,-,-,-,-,-,-,-,-,-,-,-,-,-,-,-,-,2022,09,01
106,107,554,Nakhon Si Thammarat (1),Southern EastCoast,8.359305556,100.0,-,-,-,-,-,-,-,-,-,-,-,-,-,-,-,-,-,-,-,-,-,-,-,-,-,2022,09,01
107,108,560,Pattalung (1),Southern EastCoast,7.583333611,100.1666669,-,-,-,-,-,-,-,-,-,-,-,-,-,-,-,-,-,-,-,-,-,-,-,-,-,2022,09,01
108,109,568,Songkhla,Southern EastCoast,7.182111111,100.6076944,-,-,-,-,-,-,-,-,-,-,-,-,-,-,-,-,-,-,-,-,-,-,-,-,-,2022,09,01
109,110,569,Hat Yai,Southern EastCoast,6.916666944,100.43333359999998,-,-,-,-,-,-,-,-,-,-,-,39.317501068115234,0.1259274035692215,0.02506573125720024,-,-,-,-,-,-,-,-,-,-,39.4684944152832,2022,09,01
110,111,571,Korhong (1),Southern EastCoast,7.0,100.5,-,-,-,-,-,-,-,-,-,-,-,76.0162353515625,0.0498167909681797,0.024687180295586586,-,-,-,-,-,-,-,-,-,-,76.09074401855469,2022,09,01
111,112,574,Sa Dao (2),Southern EastCoast,6.798055556,100.3905556,-,-,-,-,-,-,-,-,-,-,-,0.23631168901920319,3.3245954513549805,4.7966628074646,4.9724321365356445,3.3090450763702393,-,-,-,-,-,-,-,-,16.639047622680664,2022,09,01
112,113,580,Pattani,Southern EastCoast,6.7833336110000015,101.1500003,-,-,-,-,-,-,-,-,-,-,-,-,-,-,-,-,-,-,-,-,-,-,-,-,-,2022,09,01
113,114,581,Yala (1),Southern EastCoast,6.050000278,101.2833336,-,-,-,-,-,-,-,-,-,-,-,0.05686947703361511,-,-,-,-,-,-,-,-,-,-,-,-,0.05686947703361511,2022,09,01
114,115,583,Narathiwat,Southern EastCoast,6.416666944,101.81666690000002,-,-,-,-,-,-,-,-,-,-,-,-,-,-,-,-,-,-,-,-,-,-,-,-,-,2022,09,01
115,116,532,Ranong,Southern WestCoast,9.983333611,98.61666694,-,-,-,-,-,-,-,-,-,-,-,1.671269178390503,1.2362537384033203,-,-,-,-,-,-,-,-,-,-,-,2.9075229167938232,2022,09,01
116,117,561,Takua Pa,Southern WestCoast,8.684166667000001,98.25222222,-,-,-,-,-,-,-,-,-,-,-,1.427783727645874,0.9881440997123718,-,-,-,4.85910177230835,-,-,-,-,-,-,-,7.27502965927124,2022,09,01
117,118,564,Phuket,Southern WestCoast,7.883333611,98.40000028,-,-,-,-,-,-,-,-,-,-,-,-,-,-,6.348736763000488,7.020200252532959,-,1.2779980897903442,-,-,-,-,-,-,14.646934509277344,2022,09,01
118,119,565,Phuket Airport,Southern WestCoast,8.145,98.31444444,-,-,-,-,-,-,-,-,-,-,-,0.9822092652320862,-,-,-,-,-,5.73030948638916,0.4160378575325012,0.027518169954419136,-,-,-,-,7.1560750007629395,2022,09,01
119,120,563,Krabi,Southern WestCoast,8.103611111000001,98.97527778,-,-,-,-,-,-,-,-,-,-,-,-,-,-,-,6.975571155548096,-,-,-,-,-,-,-,-,6.975571155548096,2022,09,01
120,121,566,Ko Lanta,Southern WestCoast,7.5333336110000015,99.05000028,-,-,-,-,-,-,-,-,-,-,-,-,-,68.38489532470703,4.475275039672852,0.29057013988494873,0.04351387172937393,11.892725944519043,0.05783500522375107,-,-,-,-,-,85.14481353759766,2022,09,01
121,122,567,Trang,Southern WestCoast,7.516666944,99.61666694,-,-,-,-,-,-,-,-,-,-,-,27.635604858398438,2.816404342651367,0.12963366508483887,-,-,-,-,-,-,-,-,-,-,30.581642150878906,2022,09,01
122,123,570,Satun,Southern WestCoast,6.650000277999999,100.0833336,-,-,-,-,-,-,-,-,-,-,-,-,-,5.593803882598877,7.6387434005737305,6.934563159942627,2.555164337158203,0.27053096890449524,-,-,-,-,-,-,22.99280548095703,2022,09,01
