,ID,WMO_CODE,NAME_EN,Region,Latitude,Longitude,00Z,01Z,02Z,03Z,04Z,05Z,06Z,07Z,08Z,09Z,10Z,11Z,12Z,13Z,14Z,15Z,16Z,17Z,18Z,19Z,20Z,21Z,22Z,23Z,sum,year,month,day
0,1,300,Mae Hong Son,Northern,19.29897222,97.97577778,-,-,-,0.047848835587501526,2.49587345123291,-,-,0.047848835587501526,2.49587345123291,2.9078190326690674,0.8458725810050964,0.8856089115142822,1.5686429738998413,-,-,-,-,-,-,0.8610298037528992,0.48966678977012634,-,0.10915815830230713,-,12.755242347717285,2022,07,21
1,2,325,Mae Sariang,Northern,18.16666667,97.93333333,-,-,-,1.8170819282531738,6.598088264465332,-,-,1.8170819282531738,6.598088264465332,17.313440322875977,-,-,-,-,-,-,-,-,-,-,-,2.2300784587860107,-,1.6634106636047363,38.037269592285156,2022,07,21
2,3,303,Chiang Rai,Northern,19.96138889,99.88138889,1.0907483100891113,0.546787679195404,0.46658408641815186,-,-,0.546787679195404,0.46658408641815186,-,-,-,-,-,-,-,-,-,-,1.0015813112258911,0.8050245642662048,6.763964653015137,13.64853286743164,0.9152498841285706,-,-,27.342592239379883,2022,07,21
3,4,304,Chiang Rai (1),Northern,19.87083333,99.78277778,1.9900522232055664,0.12522263824939728,1.2398322820663452,-,-,0.12522263824939728,1.2398322820663452,-,-,-,-,-,-,-,-,-,-,1.9202874898910522,0.36846300959587097,7.070407390594482,10.613107681274414,3.6103246212005615,-,-,30.292804718017578,2022,07,21
4,5,310,Phayao,Northern,19.13333333,99.9,4.099526882171631,0.5637871623039246,0.6203252673149109,-,-,0.5637871623039246,0.6203252673149109,-,-,-,-,0.045919813215732574,-,-,-,-,-,0.08441607654094696,-,1.636283278465271,3.418729066848755,2.688960075378418,-,-,18.441587448120117,2022,07,21
5,6,327,Chiang Mai,Northern,18.79,98.97694444,-,-,-,0.4958987832069397,-,-,-,0.4958987832069397,-,-,-,-,-,-,-,-,0.7048867344856262,-,-,-,-,-,-,1.0560628175735474,2.752747058868408,2022,07,21
6,7,302,Doi Angkhlang,Northern,19.93138889,99.04833333,2.386229991912842,4.423666000366211,2.920903205871582,0.05518071725964546,0.17373016476631165,4.423666000366211,2.920903205871582,0.05518071725964546,0.17373016476631165,-,-,-,-,-,-,-,-,-,-,-,-,5.529616832733154,9.078060150146484,1.3298922777175903,35.85698699951172,2022,07,21
7,8,331,Nan,Northern,18.77972222,100.7777778,0.8139212131500244,0.4004569351673126,-,-,-,0.4004569351673126,-,-,-,-,-,-,-,0.22006629407405853,-,-,-,-,-,-,-,-,-,-,2.648822546005249,2022,07,21
8,9,333,Nan (1),Northern,18.86666667,100.75,0.7535781264305115,0.19268931448459625,-,-,-,0.19268931448459625,-,-,-,-,2.3862757682800293,-,-,0.9512608647346497,-,-,-,-,-,-,-,-,-,-,5.230071544647217,2022,07,21
9,10,315,Tha Wang Pha (2),Northern,19.11055556,100.8025,-,-,-,-,-,-,-,-,-,-,-,-,-,-,0.3289490342140198,0.6912443041801453,0.6394391655921936,0.44087621569633484,0.10361668467521667,2.3948984146118164,0.7776915431022644,-,-,-,5.376715183258057,2022,07,21
10,11,307,Thung Chang (2),Northern,19.41194444,100.8835278,-,-,-,-,-,-,-,-,-,-,0.04016539826989174,-,-,-,0.12065666913986206,-,0.6101634502410889,0.48139137029647827,2.658200263977051,3.3311076164245605,1.778855800628662,-,-,-,9.020540237426758,2022,07,21
11,12,329,Lamphun,Northern,18.56666667,99.03333333,-,-,-,2.4214534759521484,1.3179911375045776,-,-,2.4214534759521484,1.3179911375045776,-,-,-,0.05027557536959648,-,-,1.2488062381744385,0.39866510033607483,-,-,-,-,-,2.0977861881256104,1.3609217405319214,12.635344505310059,2022,07,21
12,13,328,Lampang,Northern,18.33333333,99.51666667,-,-,-,0.3028211295604706,-,-,-,0.3028211295604706,-,-,-,-,-,0.47576504945755005,1.2865155935287476,0.7940255999565125,1.6264430284500122,-,-,-,-,-,-,-,4.788391590118408,2022,07,21
13,14,334,Lampang (1),Northern,18.31666667,99.28333333,-,-,-,2.062493324279785,0.7367697358131409,-,-,2.062493324279785,0.7367697358131409,-,-,-,-,-,0.15664032101631165,2.017256498336792,0.8054909706115723,-,-,-,-,-,0.4592311382293701,-,9.037144660949707,2022,07,21
14,15,324,Thoen,Northern,17.63661111,99.24475,-,-,-,1.1989881992340088,-,-,-,1.1989881992340088,-,-,-,-,-,-,0.46602481603622437,3.973176956176758,3.1719236373901367,0.20103539526462555,6.934849739074707,-,-,-,-,-,17.144987106323242,2022,07,21
15,16,330,Phrae,Northern,18.16666667,100.1666667,-,-,1.1264393329620361,-,-,-,1.1264393329620361,-,-,-,-,-,-,3.866824150085449,1.4973561763763428,-,-,-,-,1.1461988687515259,-,-,-,-,8.76325798034668,2022,07,21
16,17,351,Uttaradit,Northern,17.61666667,100.1000028,-,-,-,-,-,-,-,-,-,-,1.147458553314209,0.38116249442100525,2.823322057723999,1.106522560119629,-,-,-,0.35800397396087646,-,-,1.781088948249817,1.1343122720718384,-,-,8.731870651245117,2022,07,21
17,18,372,Sukhothai,Northern,17.10611111,99.8,-,-,-,-,-,-,-,-,-,-,-,-,3.76694655418396,1.2446092367172241,0.22389711439609528,0.4354826807975769,0.35632267594337463,-,-,-,-,-,-,-,6.027257919311523,2022,07,21
18,19,373,Si Samrong (1),Northern,17.77361111,99.24944444,-,-,-,1.0147933959960938,-,-,-,1.0147933959960938,-,-,-,-,-,-,-,3.796290874481201,2.7156906127929688,0.23398295044898987,2.119971990585327,-,-,-,-,-,10.895523071289062,2022,07,21
19,20,377,Bhumibol Dam,Northern,17.24391667,99.00252778,-,-,-,0.4721823036670685,0.7936092019081116,-,-,0.4721823036670685,0.7936092019081116,-,-,-,-,0.07406939566135406,0.570763885974884,2.1221470832824707,3.1761271953582764,0.11730444431304932,0.2618751525878906,0.27551472187042236,-,-,-,-,9.129385948181152,2022,07,21
20,21,376,Tak,Northern,16.87836111,99.14336111,-,-,-,-,-,-,-,-,-,-,-,-,-,0.12990479171276093,-,1.755545973777771,1.6863913536071777,0.1481444090604782,0.6751391291618347,0.8309062123298645,-,-,-,-,5.226032257080078,2022,07,21
21,22,375,Mae Sot,Northern,16.65916667,98.55086111,-,-,-,-,-,-,-,-,-,-,-,-,-,-,-,1.637953519821167,-,1.222942590713501,-,-,0.7242695689201355,2.2944679260253906,0.5966382026672363,-,6.476272106170654,2022,07,21
22,23,385,Umphang (2),Northern,16.02472222,98.86444444,9.92204761505127,8.95604419708252,6.445566654205322,-,-,8.95604419708252,6.445566654205322,-,-,-,0.6883262395858765,-,0.8283141851425171,0.32716256380081177,0.2945973575115204,2.9062893390655518,-,4.996517658233643,3.473226547241211,7.319694519042969,4.7884039878845215,2.293107271194458,0.386685848236084,-,78.94963073730469,2022,07,21
23,24,387,Doi Muser (1),Northern,16.75,98.93333611,-,-,-,-,-,-,-,-,-,-,-,-,-,-,0.1278107911348343,1.1557921171188354,2.5605661869049072,0.33222344517707825,-,0.3779272735118866,-,-,-,-,4.554319858551025,2022,07,21
24,25,378,Phitsanulok,Northern,16.79622222,100.2759444,-,5.7410736083984375,-,-,-,5.7410736083984375,-,-,-,-,-,1.8271024227142334,-,2.056281089782715,2.582487106323242,1.382838487625122,-,-,-,-,-,-,-,0.12388477474451065,19.454742431640625,2022,07,21
25,26,374,Lom Sak (2),Northern,16.77363889,101.2494722,-,-,-,-,-,-,-,-,-,-,0.1775500625371933,-,-,-,-,-,-,-,-,1.2463111877441406,2.6697046756744385,5.536927700042725,-,-,9.6304931640625,2022,07,21
26,27,379,Phetchabun,Northern,16.43333611,101.15,-,-,-,-,-,-,-,-,-,-,7.898993492126465,0.7389428019523621,-,-,-,-,-,0.3828827738761902,-,1.6962260007858276,2.9842681884765625,4.43115758895874,1.5226916074752808,1.3873279094696045,21.042490005493164,2022,07,21
27,28,413,Wichian Buri (2),Northern,15.65694444,101.1083333,-,-,-,-,-,-,-,-,-,-,0.30473631620407104,1.4691708087921143,-,2.295398235321045,3.3504421710968018,2.886185646057129,-,0.7774368524551392,0.5994387865066528,4.517992973327637,-,-,-,-,16.200801849365234,2022,07,21
28,29,380,Kamphaeng Phet,Northern,16.48680556,99.52697222,-,-,-,-,-,-,-,-,-,-,0.08769330382347107,-,4.16024112701416,-,-,2.6006412506103516,3.0989296436309814,1.14960515499115,4.517563343048096,2.6318459510803223,-,-,-,-,18.246519088745117,2022,07,21
29,30,386,Phicit (1),Northern,16.33861111,100.3671111,-,-,-,-,-,-,-,-,-,-,0.022975847125053406,-,2.531872272491455,0.45006078481674194,-,-,-,-,-,0.28905540704727173,-,-,2.762010335922241,4.368889808654785,10.424864768981934,2022,07,21
30,31,352,Nong Khai,Northeastern,17.86716667,102.7330278,-,-,-,-,0.7446085214614868,-,-,-,0.7446085214614868,-,0.10081355273723602,3.6657800674438477,-,-,-,-,-,0.30247846245765686,4.4892897605896,1.4052095413208008,1.255052089691162,-,-,-,12.707840919494629,2022,07,21
31,32,353,Loei,Northeastern,17.45,101.7333333,-,-,-,-,-,-,-,-,-,-,-,-,1.416257381439209,-,-,-,-,-,-,1.899124026298523,3.8292622566223145,3.5906009674072266,-,-,10.735244750976562,2022,07,21
32,33,350,Loei (1),Northeastern,17.4,101.7333333,-,-,-,-,-,-,-,-,-,-,-,1.2136658430099487,1.4607088565826416,0.12234759330749512,-,-,-,-,-,2.138491630554199,4.906637668609619,3.2905397415161133,-,-,13.132391929626465,2022,07,21
33,34,354,Udon Thani,Northeastern,17.38333333,102.8,-,-,-,-,0.14584463834762573,-,-,-,0.14584463834762573,1.0368199348449707,3.011233329772949,1.1940255165100098,-,-,-,-,3.1064932346343994,2.9318253993988037,2.1143417358398438,1.219191551208496,-,-,2.078385829925537,0.9647186398506165,17.9487247467041,2022,07,21
34,35,357,Nakhon Phanom,Northeastern,17.41083333,104.7825,-,-,-,-,-,-,-,-,-,-,-,-,-,2.5881738662719727,2.7068209648132324,0.3793054223060608,0.8306506276130676,1.2554861307144165,-,-,-,-,-,0.07368756830692291,7.834124565124512,2022,07,21
35,36,358,Nakhon Phanom (1),Northeastern,17.44305556,104.7736111,-,-,-,-,-,-,-,-,-,-,-,-,-,2.5881738662719727,2.7068209648132324,0.3793054223060608,0.8306506276130676,1.2554861307144165,-,-,-,-,-,0.07368756830692291,7.834124565124512,2022,07,21
36,37,356,Sakon Nakhon,Northeastern,17.15000278,104.1333361,-,-,-,-,-,-,-,-,-,-,-,-,-,0.13885462284088135,0.2521347105503082,-,0.3154154121875763,-,2.728389024734497,1.73880136013031,2.04319429397583,0.1085088700056076,-,-,7.325298309326172,2022,07,21
37,38,355,Sakon Nakhon (1),Northeastern,17.12502778,104.061,-,-,-,-,-,-,-,-,-,-,-,-,-,0.6179264783859253,0.20989540219306946,-,0.873278021812439,-,2.8209519386291504,2.1760830879211426,2.1604132652282715,0.079817995429039,-,-,8.938365936279297,2022,07,21
38,39,360,Nong Bua Lumphu,Northeastern,17.2325,102.4294444,-,-,-,-,-,-,-,-,-,0.6135008931159973,0.43576860427856445,4.25970983505249,1.8417491912841797,-,-,-,-,0.18960584700107574,15.983884811401367,8.974289894104004,1.6139672994613647,-,-,2.620417833328247,36.532894134521484,2022,07,21
39,40,383,Mukdahan,Northeastern,16.54955556,104.7308889,-,-,-,-,-,-,-,-,-,-,-,-,2.1512348651885986,-,-,-,-,-,1.5889424085617065,2.1697824001312256,2.2314324378967285,0.765597403049469,-,-,8.906989097595215,2022,07,21
40,41,381,Khon Kaen,Northeastern,16.46111111,102.7897222,-,-,-,-,-,-,-,-,-,-,-,-,-,-,-,0.18832644820213318,4.397795677185059,0.3072972893714905,2.8463525772094727,0.7233611941337585,-,-,-,-,8.463132858276367,2022,07,21
41,42,384,Tha Pra (1),Northeastern,16.333,102.8166667,-,-,-,-,-,-,-,-,-,-,-,-,-,-,0.038450561463832855,1.932629108428955,5.456879138946533,0.25792139768600464,2.2981269359588623,0.39029309153556824,-,-,-,-,10.374300003051758,2022,07,21
42,43,382,Kosum Phisai (2),Northeastern,16.24722222,103.0680556,-,-,-,-,-,-,-,-,-,-,-,-,-,0.8394293189048767,0.6086627840995789,2.3198885917663574,2.894017219543457,0.3543391525745392,0.6327471733093262,0.8694548010826111,-,0.5340287089347839,-,-,9.052567481994629,2022,07,21
43,44,390,Kamalasai (2),Northeastern,16.3325,103.5883333,-,-,-,-,-,-,-,-,-,-,-,-,-,0.9500119686126709,3.513291358947754,1.9697198867797852,0.34496253728866577,0.23452788591384888,0.12728124856948853,0.31609082221984863,0.1864144504070282,-,-,-,7.642300128936768,2022,07,21
44,45,405,Roi Et,Northeastern,16.05000028,103.68333359999998,-,-,-,-,-,-,-,-,-,-,-,-,-,2.0149168968200684,2.433218240737915,3.4001197814941406,0.9409310221672058,1.1809488534927368,1.089562177658081,0.314760684967041,0.18480205535888672,0.09576845914125443,-,-,11.655029296875,2022,07,21
45,46,404,Roi Et (1),Northeastern,16.07322222,103.6084444,-,-,-,-,-,-,-,-,-,-,-,-,-,2.0149168968200684,2.433218240737915,3.4001197814941406,0.9409310221672058,1.1809488534927368,1.089562177658081,0.314760684967041,0.18480205535888672,0.09576845914125443,-,-,11.655029296875,2022,07,21
46,47,403,Chaiyaphum,Northeastern,15.80000028,102.0333336,-,-,-,-,-,-,-,-,-,-,0.372395783662796,1.17098069190979,-,-,-,0.9255335330963135,3.0808374881744385,0.16362892091274261,0.9685794115066528,1.976417899131775,1.413141131401062,1.8715044260025024,-,0.9600384831428528,12.903058052062988,2022,07,21
47,48,407,Ubon Ratchathani,Northeastern,15.25000278,104.8666694,-,-,-,-,0.03317635506391525,-,-,-,0.03317635506391525,0.7248671650886536,-,-,-,0.15354973077774048,1.818519949913025,1.6276190280914307,3.23600435256958,3.5753085613250732,0.32625773549079895,1.4658843278884888,1.1242125034332275,-,-,-,14.118576049804688,2022,07,21
48,49,408,Ubon Ratchathani (1),Northeastern,15.24072222,105.01966670000002,-,-,0.030335823073983192,0.03877114877104759,0.10929296165704727,-,0.030335823073983192,0.03877114877104759,0.10929296165704727,-,-,-,-,-,-,-,-,-,-,-,-,-,0.08498275279998779,-,0.4417825937271118,2022,07,21
49,50,409,Si Saket (1),Northeastern,15.00000028,104.0500003,-,-,-,-,-,-,-,-,-,-,2.25473690032959,-,-,-,0.40010106563568115,1.603708028793335,3.131044387817383,3.0766704082489014,-,-,-,1.0744398832321167,-,-,11.540700912475586,2022,07,21
50,51,416,Tha Tum (2),Northeastern,15.31666694,103.68333359999998,-,0.8478103876113892,1.4568365812301636,-,-,0.8478103876113892,1.4568365812301636,-,-,-,-,-,-,0.0682588517665863,1.545395851135254,-,-,1.919330358505249,-,-,-,-,-,-,8.142278671264648,2022,07,21
51,52,432,Surin,Northeastern,14.88333361,103.5000003,-,-,-,-,-,-,-,-,-,-,0.6487447619438171,1.8409112691879272,1.4090824127197266,-,0.07423876225948334,0.2884490191936493,-,0.24329239130020142,-,0.9831943511962891,0.7385320663452148,0.6879050135612488,-,-,6.914349555969238,2022,07,21
52,53,433,Surin (1),Northeastern,14.88333361,103.4500003,-,-,-,-,-,-,-,-,-,-,0.3553664982318878,0.1493472307920456,0.44712984561920166,-,-,0.5201389193534851,1.1189796924591064,0.25187039375305176,-,-,1.0632855892181396,0.5323948860168457,-,-,4.438512802124023,2022,07,21
53,54,431,Nakhon Ratchasima,Northeastern,14.96830556,102.0860278,-,-,-,0.033061426132917404,-,-,-,0.033061426132917404,-,-,0.3435457944869995,-,-,-,-,-,0.4691074788570404,-,1.4208812713623047,2.5645716190338135,2.4092390537261963,1.6234887838363647,-,-,8.896955490112305,2022,07,21
54,55,435,Pakchong (1),Northeastern,14.64388889,101.3319444,-,-,-,-,-,-,-,-,-,0.1772623360157013,1.190412998199463,4.426365852355957,3.2959964275360107,-,-,-,-,-,-,-,0.5570586919784546,0.2034018337726593,0.3929401934146881,-,10.243437767028809,2022,07,21
55,56,434,Chok Chai (2),Northeastern,14.71888889,102.1686111,-,-,-,0.030178524553775787,-,-,-,0.030178524553775787,-,-,0.8251939415931702,0.8368552923202515,0.2171950787305832,-,-,-,0.22567230463027954,0.9188482165336609,1.8555110692977905,1.5890460014343262,1.9032880067825317,1.5348018407821655,-,-,9.966768264770508,2022,07,21
56,57,437,Buri Ram,Northeastern,15.22575,103.2480833,-,-,1.3297866582870483,3.160681962966919,0.4423353970050812,-,1.3297866582870483,3.160681962966919,0.4423353970050812,-,-,0.07102259993553162,-,0.8742948174476624,1.5055826902389526,1.6050918102264404,-,1.785696029663086,-,-,-,-,-,-,15.707295417785645,2022,07,21
57,58,436,Nang Rong (2),Northeastern,14.58333361,102.8000003,-,-,-,-,-,-,-,-,-,-,-,0.3924751877784729,0.12118876725435257,1.471483588218689,3.3381285667419434,4.422855377197266,2.214136838912964,0.6482911109924316,0.44893330335617065,2.1156227588653564,2.235851287841797,1.8194942474365234,-,-,19.22846221923828,2022,07,21
58,59,400,Nakhon Sawan,Central,15.67183333,100.1323611,-,6.612959384918213,-,-,-,6.612959384918213,-,-,-,-,-,-,3.6673645973205566,0.4220658540725708,1.340061068534851,2.085373640060425,-,0.9632521271705627,0.64617919921875,1.8307714462280273,1.458153486251831,0.8583650588989258,-,-,26.49750328063965,2022,07,21
59,60,401,Takfa (1),Central,15.34944444,100.5302778,-,-,-,-,-,-,-,-,-,-,-,0.21549153327941895,-,0.19913047552108765,3.5840508937835693,5.055042743682861,2.7319321632385254,0.8025016188621521,0.5904145240783691,-,-,-,-,-,13.178564071655273,2022,07,21
60,61,402,Chai Nat,Central,15.15000278,100.18333359999998,1.9223462343215942,-,-,-,-,-,-,-,-,-,-,-,-,-,1.3890454769134521,3.5076801776885986,4.956579208374023,3.3057913780212402,1.973516583442688,1.6652239561080933,0.9657947421073914,0.7694451808929443,-,-,22.377769470214844,2022,07,21
61,62,410,U Thai Thani,Central,15.37416667,100.0388889,-,-,-,-,-,-,-,-,-,-,-,-,3.169311046600342,1.080015778541565,1.7295660972595215,3.5042293071746826,2.482337713241577,3.910703182220459,2.467942714691162,1.397367238998413,1.7562488317489624,-,-,-,21.497722625732422,2022,07,21
62,63,415,Ayuthaya (1),Central,14.53472222,100.725,-,-,-,-,-,-,-,-,-,-,0.03774695098400116,-,-,0.17070063948631287,2.7164406776428223,3.9375665187835693,3.531947612762451,-,-,-,-,-,-,-,10.394402503967285,2022,07,21
63,64,418,Bua Chum (2),Central,15.10000028,101.6166669,-,-,-,-,-,-,-,-,-,-,2.0817203521728516,3.9645581245422363,-,-,-,-,-,-,-,-,0.9170790314674377,0.40175947546958923,-,-,7.365117073059082,2022,07,21
64,65,426,Lop Buri,Central,14.79972222,100.6283333,-,-,-,-,-,-,-,-,-,-,-,0.744606077671051,-,1.6384798288345337,4.37185525894165,4.702662467956543,4.62949800491333,0.12288373708724976,-,-,-,-,-,-,16.209983825683594,2022,07,21
65,66,425,Suphan Buri,Central,14.47444444,100.1388889,-,1.0651438236236572,-,-,-,1.0651438236236572,-,-,-,-,0.10621832311153412,-,-,0.06318790465593338,2.840362787246704,5.584716796875,5.2238264083862305,0.25328516960144043,0.16185274720191956,0.6971323490142822,-,-,-,-,17.060871124267578,2022,07,21
66,67,427,Uthong (1),Central,14.30361111,99.86472222,5.23105001449585,4.141870975494385,-,-,-,4.141870975494385,-,-,-,-,-,-,-,-,1.8764209747314453,4.179629325866699,6.433708667755127,0.10581550747156143,0.8336355686187744,1.9725050926208496,2.5799813270568848,-,-,-,36.7275390625,2022,07,21
67,68,421,Thong Pha Phum,Central,14.74222222,98.63638889,2.9418206214904785,2.7310972213745117,-,-,-,2.7310972213745117,-,-,-,-,-,-,-,-,-,2.7350401878356934,0.8192100524902344,1.5651291608810425,1.652444839477539,3.960319757461548,4.148597240447998,4.176319122314453,-,-,30.402896881103516,2022,07,21
68,69,450,Kanchanaburi,Central,14.0225,99.53583333,3.076932907104492,2.5501492023468018,0.06365750730037689,-,-,2.5501492023468018,0.06365750730037689,-,-,-,0.18305590748786926,-,-,-,-,-,4.946647644042969,-,-,-,3.0639684200286865,-,-,-,19.575151443481445,2022,07,21
69,70,464,Ratcha Buri (1),Central,13.48930556,99.79238889,4.6232099533081055,2.8346357345581055,-,-,-,2.8346357345581055,-,-,-,-,-,-,0.4363553524017334,-,-,-,-,0.4568403661251068,-,-,-,-,-,-,15.808887481689453,2022,07,21
70,71,451,Kampheang Saen (1),Central,14.01166667,99.97,5.1668477058410645,3.9466018676757812,-,-,-,3.9466018676757812,-,-,-,-,-,0.18543913960456848,0.2372674196958542,-,-,3.3848800659179688,3.688385009765625,-,1.5792900323867798,-,-,-,-,-,27.302160263061523,2022,07,21
71,72,419,Pathum Thani (1),Central,14.1,100.616,-,-,-,-,-,-,-,-,-,-,0.06295663118362427,-,0.8329561352729797,-,-,-,-,-,-,-,-,-,-,-,0.895912766456604,2022,07,21
72,73,420,Samut Prakan,Central,13.51666694,100.7616667,-,-,0.5579262375831604,-,-,-,0.5579262375831604,-,-,-,-,1.9310519695281982,1.6413037776947021,-,-,-,-,-,-,-,-,-,-,-,4.688208103179932,2022,07,21
73,74,429,Suvarnabhumi Airport,Central,13.68638889,100.7675,-,-,-,-,-,-,-,-,-,-,-,1.8972431421279907,3.417147159576416,-,-,-,-,-,-,-,-,-,-,-,5.314390182495117,2022,07,21
74,75,456,Don Muang Airport,Central,13.91916667,100.605,-,-,-,-,-,-,-,-,-,-,-,0.5581568479537964,-,-,-,-,-,-,-,-,-,-,-,-,0.5581568479537964,2022,07,21
75,76,455,Sirikit Center,Central,13.72638889,100.56,-,-,-,-,-,-,-,-,-,-,0.21808123588562012,0.32785162329673767,2.860083818435669,-,-,-,-,-,-,-,-,-,-,-,3.4060168266296387,2022,07,21
76,77,454,Bangkok Port,Central,13.70694444,100.5680556,-,-,-,-,-,-,-,-,-,-,0.21808123588562012,0.32785162329673767,2.860083818435669,-,-,-,-,-,-,-,-,-,-,-,3.4060168266296387,2022,07,21
77,78,453,Bang Na (1),Central,13.66638889,100.6061111,-,-,-,-,-,-,-,-,-,-,-,1.488884687423706,3.34649920463562,-,-,-,-,-,-,-,-,-,-,-,4.835383892059326,2022,07,21
78,79,457,Bangkok Pilot,Central,13.37722222,100.5994444,-,-,-,1.6923279762268066,-,-,-,1.6923279762268066,-,-,-,-,1.989728331565857,-,-,-,-,-,-,-,-,-,-,-,5.37438440322876,2022,07,21
79,80,430,Prachin Buri,Eastern,14.05091667,101.3693056,-,-,-,-,-,-,-,-,-,-,0.4355771243572235,-,-,-,0.669853925704956,0.1904759258031845,-,-,-,0.6405641436576843,0.16348886489868164,0.1227237731218338,-,-,2.222683906555176,2022,07,21
80,81,439,Kabin Buri (2),Eastern,13.98333361,101.7072222,-,-,-,-,-,-,-,-,-,-,-,-,-,-,0.16805873811244965,0.3765992224216461,1.271069884300232,0.23310261964797974,0.616874098777771,-,-,0.41123679280281067,-,-,3.07694149017334,2022,07,21
81,82,440,Sa Kaeo (2),Eastern,13.78888889,102.0347222,-,-,-,-,-,-,-,-,-,-,-,-,-,0.19645394384860992,0.17966611683368683,0.30988845229148865,1.3486289978027344,0.36996087431907654,0.17839354276657104,0.9478742480278015,0.6890254616737366,0.6563111543655396,-,-,4.876202583312988,2022,07,21
82,83,462,Aranyaprathet,Eastern,13.70000028,102.5833336,-,-,-,-,-,-,-,-,-,-,-,-,-,0.6515839099884033,3.4826486110687256,2.3914623260498047,0.8686614632606506,1.2395039796829224,-,0.4755181670188904,0.4010842442512512,0.34549617767333984,0.3752974569797516,0.19534392654895782,10.426600456237793,2022,07,21
83,84,458,Chachoengsao (1),Eastern,13.51555556,101.4583333,-,-,-,-,-,-,-,-,-,-,-,-,-,0.1303115338087082,-,0.19722886383533478,0.5972262024879456,-,-,-,-,-,-,-,0.9247666001319885,2022,07,21
84,85,459,Chon Buri,Eastern,13.36666694,100.9833336,-,-,0.14041469991207123,-,-,-,0.14041469991207123,-,-,-,-,-,-,-,-,-,-,-,-,-,-,-,-,-,0.28082939982414246,2022,07,21
85,86,463,Laem Chabang,Eastern,13.07694444,100.8758333,0.15640757977962494,1.2297435998916626,4.688107013702393,-,-,1.2297435998916626,4.688107013702393,-,-,-,0.20459209382534027,-,-,-,-,-,1.1504027843475342,-,1.537611722946167,-,-,-,-,-,15.04112434387207,2022,07,21
86,87,460,Ko Sichang,Eastern,13.16166667,100.8019444,0.14034433662891388,-,5.550859451293945,-,-,-,5.550859451293945,-,-,-,-,-,-,-,-,-,1.0231246948242188,-,0.6846596002578735,1.438713550567627,-,-,-,-,14.528905868530273,2022,07,21
87,88,461,Pattaya,Eastern,12.92,100.8694444,0.6879201531410217,1.3021265268325806,8.565946578979492,-,-,1.3021265268325806,8.565946578979492,-,-,-,-,-,0.8603032231330872,-,-,-,-,-,2.731173038482666,-,-,-,-,-,24.703462600708008,2022,07,21
88,89,477,Sattahip,Eastern,12.68333361,100.9833336,1.9110326766967773,2.2067062854766846,2.4498796463012695,-,-,2.2067062854766846,2.4498796463012695,-,-,-,-,-,0.4059407711029053,-,-,-,0.957569420337677,-,-,-,-,0.25841230154037476,-,-,14.757159233093262,2022,07,21
89,90,478,Rayong,Eastern,12.61702778,101.34075,3.165395975112915,1.9140433073043823,-,-,-,1.9140433073043823,-,-,-,-,0.09829255193471909,0.4138583838939667,0.4482572674751282,-,-,-,0.35774824023246765,-,1.6287446022033691,2.3482089042663574,2.808709144592285,1.029577374458313,-,-,19.29227638244629,2022,07,21
90,91,479,Huai Pong (1),Eastern,12.73333361,101.1333336,0.8287427425384521,-,-,-,-,-,-,-,-,-,-,-,-,-,-,0.3496132791042328,-,-,-,-,0.41585537791252136,0.6829977631568909,-,0.24337629973888397,3.3493282794952393,2022,07,21
91,92,480,Chanthaburi,Eastern,12.61666694,102.1133333,0.6423582434654236,-,-,-,-,-,-,-,-,-,-,-,-,3.0159597396850586,2.354341745376587,3.2445240020751953,2.2729146480560303,2.666525363922119,11.521156311035156,3.477510929107666,0.7781636714935303,0.7509793043136597,1.3042500019073486,1.0883725881576538,33.7594108581543,2022,07,21
92,93,481,Pluei (1),Eastern,12.50861111,102.1730556,1.4228976964950562,1.1384130716323853,-,-,-,1.1384130716323853,-,-,-,-,-,-,-,2.970010280609131,3.767385721206665,3.950512647628784,2.2239646911621094,5.7866597175598145,11.872065544128418,3.3701224327087402,1.1805421113967896,0.6515326499938965,0.9104072451591492,0.9177165627479553,42.72353744506836,2022,07,21
93,94,501,Khlong Yai,Eastern,11.76666694,102.8833336,6.9044084548950195,1.3910146951675415,1.3236509561538696,-,-,1.3910146951675415,1.3236509561538696,-,-,-,-,-,3.55045747756958,-,-,2.9983975887298584,3.853219509124756,1.2522754669189453,2.0233945846557617,0.9038206338882446,0.29952359199523926,0.1027195155620575,-,-,34.22195816040039,2022,07,21
94,95,465,Phetchaburi,Southern EastCoast,12.99930556,100.0605278,0.3332008421421051,1.3993953466415405,-,-,-,1.3993953466415405,-,-,-,-,-,-,0.9072145223617554,-,-,-,-,-,-,-,-,1.9957926273345947,-,-,6.368199348449707,2022,07,21
95,96,474,Nong Plub (1),Southern EastCoast,12.58925,99.73461111,0.39695677161216736,2.13502836227417,-,-,-,2.13502836227417,-,-,-,-,0.053096406161785126,-,-,-,-,-,-,0.6608631014823914,-,-,-,-,-,-,5.777929306030273,2022,07,21
96,97,475,Hua Hin,Southern EastCoast,12.57797222,99.95372222,0.3923438489437103,1.506333351135254,-,-,-,1.506333351135254,-,-,-,-,-,-,-,-,0.7636311054229736,-,-,-,-,-,1.9968371391296387,1.8477901220321655,-,-,8.40561294555664,2022,07,21
97,98,500,Prachuap Khiri Khan,Southern EastCoast,11.83497222,99.81047222,0.762580394744873,2.8438055515289307,0.2129221260547638,-,-,2.8438055515289307,0.2129221260547638,-,-,4.538665294647217,1.225765585899353,2.265439033508301,-,1.8002374172210693,0.8303942084312439,0.7052199244499207,-,1.1003037691116333,4.306888103485107,3.608250856399536,2.375223159790039,-,-,-,30.39500617980957,2022,07,21
98,99,517,Chumphon,Southern EastCoast,10.49875,99.18847222,-,-,1.2506506443023682,2.3745195865631104,3.345407247543335,-,1.2506506443023682,2.3745195865631104,3.345407247543335,3.631650447845459,-,2.0450849533081055,2.927415609359741,2.0335006713867188,-,2.690890073776245,3.5388660430908203,3.975532054901123,4.6756367683410645,4.122710227966309,3.587480306625366,4.731438159942627,-,-,51.90135955810547,2022,07,21
99,100,520,Sawee (1),Southern EastCoast,10.33063889,99.09186111,-,-,2.6066410541534424,2.1760873794555664,3.1280994415283203,-,2.6066410541534424,2.1760873794555664,3.1280994415283203,3.5780832767486572,-,-,2.5967352390289307,3.400634288787842,2.1604208946228027,-,3.4345314502716064,3.925541639328003,5.724064826965332,5.637784957885742,4.015970230102539,3.9659085273742676,-,-,54.261322021484375,2022,07,21
100,101,551,Surat Thani,Southern EastCoast,9.1335,99.15213889,0.1070844829082489,1.9989453554153442,-,-,-,1.9989453554153442,-,-,-,-,-,-,-,0.14756031334400177,-,-,-,0.05749443173408508,-,-,-,-,-,-,4.4171142578125,2022,07,21
101,102,555,Surat Thani (1),Southern EastCoast,9.144805556,99.63361111,0.54181307554245,2.375047206878662,3.1277310848236084,2.5748097896575928,3.201406955718994,2.375047206878662,3.1277310848236084,2.5748097896575928,3.201406955718994,4.745989799499512,-,-,-,-,-,-,-,1.686394453048706,-,-,-,-,-,-,30.07400131225586,2022,07,21
102,103,550,Ko Samui,Southern EastCoast,9.466666667,100.05,1.3631678819656372,2.5230159759521484,2.8523199558258057,3.3226161003112793,3.6278207302093506,2.5230159759521484,2.8523199558258057,3.3226161003112793,3.6278207302093506,4.900325298309326,-,-,-,-,-,-,-,-,2.034921407699585,2.943632125854492,2.8691465854644775,3.9055070877075195,-,-,44.03141403198242,2022,07,21
103,104,556,Prasang (2),Southern EastCoast,8.572083333,99.25519444,-,2.825880765914917,-,0.8715053796768188,1.7992459535598755,2.825880765914917,-,0.8715053796768188,1.7992459535598755,1.797942042350769,-,-,-,-,-,-,-,-,-,-,-,-,-,-,12.791206359863281,2022,07,21
104,105,557,Chawang (2),Southern EastCoast,8.424694444,99.50661111,-,5.91211462020874,4.695249080657959,0.4969865381717682,0.23161017894744873,5.91211462020874,4.695249080657959,0.4969865381717682,0.23161017894744873,0.9668004512786865,-,-,-,-,-,-,-,-,-,-,-,-,-,-,23.638721466064453,2022,07,21
105,106,552,Nakhon Si Thammarat,Southern EastCoast,8.537777777999999,99.94722222,-,-,-,0.4393032491207123,0.3676866590976715,-,-,0.4393032491207123,0.3676866590976715,1.253649115562439,-,-,-,-,-,-,-,-,-,-,-,-,-,-,2.867628812789917,2022,07,21
106,107,554,Nakhon Si Thammarat (1),Southern EastCoast,8.359305556,100.0,-,-,-,-,0.4745063781738281,-,-,-,0.4745063781738281,-,-,-,-,-,-,-,-,-,-,-,-,-,-,-,0.9490127563476562,2022,07,21
107,108,560,Pattalung (1),Southern EastCoast,7.583333611,100.1666669,-,-,-,-,-,-,-,-,-,1.445450782775879,-,-,-,-,-,-,-,4.173316478729248,9.421526908874512,21.73965835571289,11.0633544921875,9.634782791137695,-,-,57.47808837890625,2022,07,21
108,109,568,Songkhla,Southern EastCoast,7.182111111,100.6076944,-,-,-,-,-,-,-,-,-,-,-,-,-,-,-,-,-,-,-,-,-,-,-,-,-,2022,07,21
109,110,569,Hat Yai,Southern EastCoast,6.916666944,100.43333359999998,-,-,-,-,-,-,-,-,-,-,-,-,-,-,-,-,-,-,-,-,-,-,-,-,-,2022,07,21
110,111,571,Korhong (1),Southern EastCoast,7.0,100.5,-,-,-,-,-,-,-,-,-,-,-,-,-,-,-,-,-,-,-,-,-,-,-,-,-,2022,07,21
111,112,574,Sa Dao (2),Southern EastCoast,6.798055556,100.3905556,-,-,-,-,-,-,-,-,-,-,-,-,-,-,-,-,-,-,-,-,-,-,-,-,-,2022,07,21
112,113,580,Pattani,Southern EastCoast,6.7833336110000015,101.1500003,-,-,-,-,-,-,-,-,-,-,-,-,-,-,-,-,-,-,-,-,-,-,-,-,-,2022,07,21
113,114,581,Yala (1),Southern EastCoast,6.050000278,101.2833336,-,-,-,-,-,-,-,-,-,-,-,-,-,-,-,-,-,-,-,-,-,-,-,-,-,2022,07,21
114,115,583,Narathiwat,Southern EastCoast,6.416666944,101.81666690000002,-,-,-,-,-,-,-,-,-,-,-,-,-,-,-,-,-,-,-,-,-,-,-,-,-,2022,07,21
115,116,532,Ranong,Southern WestCoast,9.983333611,98.61666694,-,-,3.453547954559326,2.5293641090393066,2.9755473136901855,-,3.453547954559326,2.5293641090393066,2.9755473136901855,2.461801290512085,-,-,-,4.952898979187012,5.186497211456299,5.524578094482422,4.2046332359313965,4.41147518157959,4.2605814933776855,4.393528461456299,3.9448795318603516,3.2515456676483154,-,-,60.50933837890625,2022,07,21
116,117,561,Takua Pa,Southern WestCoast,8.684166667000001,98.25222222,-,4.7080559730529785,-,0.17271284759044647,-,4.7080559730529785,-,0.17271284759044647,-,-,-,0.24359257519245148,-,0.1835823804140091,2.593867540359497,3.890631914138794,6.468265056610107,1.407641887664795,-,7.402956008911133,4.658885478973389,4.859245777130127,-,-,41.470211029052734,2022,07,21
117,118,564,Phuket,Southern WestCoast,7.883333611,98.40000028,-,-,-,-,2.3267135620117188,-,-,-,2.3267135620117188,2.070863723754883,-,-,-,-,-,-,-,-,-,-,-,-,-,-,6.72429084777832,2022,07,21
118,119,565,Phuket Airport,Southern WestCoast,8.145,98.31444444,-,-,4.352552890777588,0.5328608751296997,2.6334855556488037,-,4.352552890777588,0.5328608751296997,2.6334855556488037,2.381124258041382,0.3296230435371399,-,1.8099051713943481,-,-,2.3316643238067627,3.361393690109253,-,1.0535017251968384,1.4928085803985596,-,-,-,-,27.797819137573242,2022,07,21
119,120,563,Krabi,Southern WestCoast,8.103611111000001,98.97527778,-,-,-,-,1.908565640449524,-,-,-,1.908565640449524,1.4756418466567993,-,-,-,-,-,-,-,-,-,-,-,-,-,-,5.292773246765137,2022,07,21
120,121,566,Ko Lanta,Southern WestCoast,7.5333336110000015,99.05000028,-,-,-,-,-,-,-,-,-,0.1194230318069458,1.2794172763824463,-,-,-,-,-,-,-,-,-,-,-,-,-,1.398840308189392,2022,07,21
121,122,567,Trang,Southern WestCoast,7.516666944,99.61666694,-,-,-,-,-,-,-,-,-,-,-,-,-,-,-,-,-,-,-,-,-,-,-,-,-,2022,07,21
122,123,570,Satun,Southern WestCoast,6.650000277999999,100.0833336,-,-,-,-,-,-,-,-,-,-,-,-,-,-,-,-,-,-,-,-,-,7.337298393249512,-,-,7.337298393249512,2022,07,21
