,ID,WMO_CODE,NAME_EN,Region,Latitude,Longitude,00Z,01Z,02Z,03Z,04Z,05Z,06Z,07Z,08Z,09Z,10Z,11Z,12Z,13Z,14Z,15Z,16Z,17Z,18Z,19Z,20Z,21Z,22Z,23Z,sum,year,month,day
0,1,300,Mae Hong Son,Northern,19.29897222,97.97577778,-,-,-,-,-,-,-,-,-,-,-,-,-,-,-,-,0.6885979771614075,0.05606174096465111,0.07813086360692978,0.04239483177661896,0.06878700107336044,0.04712983965873718,0.07793798297643661,-,1.0590401887893677,2022,09,15
1,2,325,Mae Sariang,Northern,18.16666667,97.93333333,-,-,-,-,-,-,-,-,-,-,-,-,-,-,-,-,-,-,-,-,-,-,-,-,-,2022,09,15
2,3,303,Chiang Rai,Northern,19.96138889,99.88138889,-,-,-,-,-,-,-,-,-,-,-,-,-,-,-,-,-,-,-,-,-,-,-,-,-,2022,09,15
3,4,304,Chiang Rai (1),Northern,19.87083333,99.78277778,-,-,-,-,-,-,-,-,-,-,-,-,-,-,-,-,-,-,-,-,-,-,-,-,-,2022,09,15
4,5,310,Phayao,Northern,19.13333333,99.9,-,-,-,-,-,-,-,-,-,-,-,-,-,-,-,-,-,-,-,-,-,-,-,-,-,2022,09,15
5,6,327,Chiang Mai,Northern,18.79,98.97694444,-,-,-,-,-,-,-,-,-,-,-,-,-,-,-,-,-,-,-,-,0.07093460857868195,0.20822358131408691,0.11857704818248749,-,0.39773523807525635,2022,09,15
6,7,302,Doi Angkhlang,Northern,19.93138889,99.04833333,-,-,-,-,-,-,-,-,-,-,-,-,-,-,-,-,1.013672113418579,3.9185903072357178,4.160980701446533,-,-,-,-,-,9.093242645263672,2022,09,15
7,8,331,Nan,Northern,18.77972222,100.7777778,-,-,-,-,-,-,-,-,-,-,-,-,-,-,-,-,-,-,-,-,-,-,-,-,-,2022,09,15
8,9,333,Nan (1),Northern,18.86666667,100.75,-,-,-,-,-,-,-,-,-,-,-,-,-,-,-,-,-,-,-,-,-,-,-,-,-,2022,09,15
9,10,315,Tha Wang Pha (2),Northern,19.11055556,100.8025,-,-,-,-,-,-,-,-,-,-,-,-,-,-,-,-,-,-,-,-,-,-,-,-,-,2022,09,15
10,11,307,Thung Chang (2),Northern,19.41194444,100.8835278,1.5248162746429443,0.26870307326316833,-,-,-,0.26870307326316833,-,-,-,-,-,-,-,-,-,-,-,-,-,-,-,-,-,-,3.587038516998291,2022,09,15
11,12,329,Lamphun,Northern,18.56666667,99.03333333,-,-,-,-,-,-,-,-,-,-,-,-,-,-,-,-,-,-,-,0.2863088846206665,0.03282548859715462,0.05037315562367439,0.03578845039010048,-,0.4052959978580475,2022,09,15
12,13,328,Lampang,Northern,18.33333333,99.51666667,-,-,-,-,-,-,-,-,-,-,-,-,-,-,-,-,0.01005714014172554,0.2176169902086258,-,-,-,-,-,-,0.22767412662506104,2022,09,15
13,14,334,Lampang (1),Northern,18.31666667,99.28333333,-,-,-,-,-,-,-,-,-,-,-,-,-,-,0.7430899143218994,-,-,-,0.05711150914430618,0.10037662088871002,-,-,-,-,0.9005780220031738,2022,09,15
14,15,324,Thoen,Northern,17.63661111,99.24475,-,-,-,-,-,-,-,-,-,-,-,-,-,-,-,-,-,-,-,-,-,-,0.028351128101348877,0.020777253434062004,0.04912838339805603,2022,09,15
15,16,330,Phrae,Northern,18.16666667,100.1666667,-,-,-,-,-,-,-,-,-,-,-,-,-,-,-,-,-,-,-,-,-,-,-,-,-,2022,09,15
16,17,351,Uttaradit,Northern,17.61666667,100.1000028,-,-,-,-,-,-,-,-,-,-,-,-,-,-,-,-,-,0.9919894337654114,3.2368674278259277,2.6017744541168213,1.353381633758545,0.037911273539066315,0.021788036450743675,0.020614758133888245,8.264327049255371,2022,09,15
17,18,372,Sukhothai,Northern,17.10611111,99.8,0.24996419250965118,-,-,-,-,-,-,-,-,-,-,-,-,-,-,-,-,-,-,-,-,-,-,0.031196732074022293,0.5311251282691956,2022,09,15
18,19,373,Si Samrong (1),Northern,17.77361111,99.24944444,-,-,-,-,-,-,-,-,-,-,-,-,-,-,-,-,-,-,-,-,-,-,-,0.019423630088567734,0.019423630088567734,2022,09,15
19,20,377,Bhumibol Dam,Northern,17.24391667,99.00252778,-,-,-,-,-,-,-,-,-,-,-,-,-,-,-,-,-,-,-,-,-,-,-,-,-,2022,09,15
20,21,376,Tak,Northern,16.87836111,99.14336111,-,-,-,-,-,-,-,-,-,-,-,-,-,-,-,-,-,-,-,-,-,-,-,-,-,2022,09,15
21,22,375,Mae Sot,Northern,16.65916667,98.55086111,-,-,-,-,-,-,-,-,-,-,-,-,-,-,-,-,-,-,-,-,-,-,-,-,-,2022,09,15
22,23,385,Umphang (2),Northern,16.02472222,98.86444444,-,-,-,-,-,-,-,-,-,-,-,-,-,-,0.1250489503145218,-,1.00697922706604,2.6195802688598633,-,1.5028740167617798,0.26154741644859314,0.06326192617416382,0.08556873351335526,0.16217920184135437,5.82703971862793,2022,09,15
23,24,387,Doi Muser (1),Northern,16.75,98.93333611,-,-,-,-,-,-,-,-,-,-,-,-,-,-,-,-,-,-,-,-,-,-,-,-,-,2022,09,15
24,25,378,Phitsanulok,Northern,16.79622222,100.2759444,0.07622848451137543,-,-,-,-,-,-,-,-,-,-,-,-,-,-,-,-,-,-,-,-,-,-,0.3999807834625244,0.5524377822875977,2022,09,15
25,26,374,Lom Sak (2),Northern,16.77363889,101.2494722,-,-,-,-,-,-,-,-,-,-,-,-,-,-,-,-,-,-,-,-,4.703596591949463,0.9558563232421875,1.0220085382461548,0.6432374119758606,7.3246989250183105,2022,09,15
26,27,379,Phetchabun,Northern,16.43333611,101.15,-,-,-,-,-,-,-,-,-,-,-,-,-,0.19460655748844147,0.42190268635749817,-,-,-,-,-,-,4.196252822875977,1.5226757526397705,0.7956358194351196,7.131073474884033,2022,09,15
27,28,413,Wichian Buri (2),Northern,15.65694444,101.1083333,-,-,-,-,-,-,-,-,-,-,-,-,-,0.28484585881233215,-,-,-,-,-,-,-,0.05269773304462433,-,-,0.3375436067581177,2022,09,15
28,29,380,Kamphaeng Phet,Northern,16.48680556,99.52697222,0.08110233396291733,-,-,-,-,-,-,-,-,-,-,-,-,-,-,-,0.49698981642723083,-,-,-,-,-,-,-,0.6591944694519043,2022,09,15
29,30,386,Phicit (1),Northern,16.33861111,100.3671111,0.15312592685222626,-,-,-,-,-,-,-,-,-,-,-,-,-,-,-,-,-,-,-,-,-,-,-,0.3062518537044525,2022,09,15
30,31,352,Nong Khai,Northeastern,17.86716667,102.7330278,1.1046106815338135,-,-,-,-,-,-,-,-,-,-,-,-,-,-,-,-,0.012929876334965229,0.3187505006790161,1.7656968832015991,1.6453908681869507,5.79801082611084,7.888176918029785,7.96109676361084,27.599273681640625,2022,09,15
31,32,353,Loei,Northeastern,17.45,101.7333333,-,-,-,-,-,-,-,-,-,-,-,-,-,-,-,-,0.11049044132232666,0.05322284996509552,0.14921046793460846,0.31592753529548645,0.24229329824447632,-,-,-,0.8711445927619934,2022,09,15
32,33,350,Loei (1),Northeastern,17.4,101.7333333,-,-,-,-,-,-,-,-,-,-,-,-,-,-,-,-,0.7490404844284058,0.5917038321495056,0.1386883705854416,0.31043004989624023,0.17065945267677307,-,-,-,1.9605220556259155,2022,09,15
33,34,354,Udon Thani,Northeastern,17.38333333,102.8,0.6400895714759827,-,-,-,-,-,-,-,-,-,-,-,0.6020572781562805,-,-,-,-,-,-,-,-,-,0.41524967551231384,2.3548076152801514,4.652293682098389,2022,09,15
34,35,357,Nakhon Phanom,Northeastern,17.41083333,104.7825,2.299978256225586,-,-,-,-,-,-,-,-,-,-,-,-,-,-,-,0.06634083390235901,0.29186829924583435,2.183783531188965,2.3000075817108154,1.4431155920028687,0.2212703675031662,0.5375667810440063,0.9855920076370239,12.629501342773438,2022,09,15
35,36,358,Nakhon Phanom (1),Northeastern,17.44305556,104.7736111,2.299978256225586,-,-,-,-,-,-,-,-,-,-,-,-,-,-,-,0.06634083390235901,0.29186829924583435,2.183783531188965,2.3000075817108154,1.4431155920028687,0.2212703675031662,0.5375667810440063,0.9855920076370239,12.629501342773438,2022,09,15
36,37,356,Sakon Nakhon,Northeastern,17.15000278,104.1333361,1.5009626150131226,0.17659196257591248,-,-,-,0.17659196257591248,-,-,-,-,-,-,-,-,-,-,-,-,-,-,-,-,-,-,3.355109214782715,2022,09,15
37,38,355,Sakon Nakhon (1),Northeastern,17.12502778,104.061,0.9054737091064453,0.2854211926460266,-,-,-,0.2854211926460266,-,-,-,-,-,-,-,-,-,-,-,-,-,-,-,-,-,-,2.3817896842956543,2022,09,15
38,39,360,Nong Bua Lumphu,Northeastern,17.2325,102.4294444,-,-,-,-,-,-,-,-,-,-,-,-,-,-,-,-,-,-,-,-,-,-,-,-,-,2022,09,15
39,40,383,Mukdahan,Northeastern,16.54955556,104.7308889,-,-,-,-,-,-,-,-,-,-,-,-,0.06728563457727432,-,-,-,-,0.12349710613489151,2.0981969833374023,-,-,0.4617163836956024,0.2494526207447052,0.11897246539592743,3.1191213130950928,2022,09,15
40,41,381,Khon Kaen,Northeastern,16.46111111,102.7897222,-,-,-,-,-,-,-,-,-,-,-,-,-,-,-,-,-,-,-,-,-,-,-,-,-,2022,09,15
41,42,384,Tha Pra (1),Northeastern,16.333,102.8166667,-,-,-,-,-,-,-,-,-,-,-,-,-,0.06344877183437347,-,1.2775906324386597,-,-,-,-,-,-,-,-,1.3410394191741943,2022,09,15
42,43,382,Kosum Phisai (2),Northeastern,16.24722222,103.0680556,-,-,-,-,-,-,-,-,-,-,-,-,0.6725419163703918,0.3833807408809662,0.025856589898467064,-,-,-,-,-,-,-,-,-,1.0817792415618896,2022,09,15
43,44,390,Kamalasai (2),Northeastern,16.3325,103.5883333,-,-,-,-,-,-,-,-,-,-,-,-,0.1545145958662033,-,0.21344344317913055,1.7635670900344849,-,-,-,-,-,-,-,-,2.1315250396728516,2022,09,15
44,45,405,Roi Et,Northeastern,16.05000028,103.68333359999998,-,-,-,-,-,-,-,-,-,-,-,-,-,-,-,-,-,0.14638493955135345,1.6623953580856323,3.051130771636963,5.377649307250977,6.732007026672363,-,-,16.969566345214844,2022,09,15
45,46,404,Roi Et (1),Northeastern,16.07322222,103.6084444,-,-,-,-,-,-,-,-,-,-,-,-,-,-,-,-,-,0.14638493955135345,1.6623953580856323,3.051130771636963,5.377649307250977,6.732007026672363,-,-,16.969566345214844,2022,09,15
46,47,403,Chaiyaphum,Northeastern,15.80000028,102.0333336,-,-,-,-,-,-,-,-,-,-,-,-,-,-,-,-,0.29581981897354126,-,-,-,-,-,-,-,0.29581981897354126,2022,09,15
47,48,407,Ubon Ratchathani,Northeastern,15.25000278,104.8666694,-,-,-,-,-,-,-,-,-,-,-,-,-,-,-,5.675868511199951,1.07399582862854,0.1448511779308319,1.7748528718948364,1.44167959690094,1.1037856340408325,0.5028718113899231,0.7077736854553223,0.4664499759674072,12.892129898071289,2022,09,15
48,49,408,Ubon Ratchathani (1),Northeastern,15.24072222,105.01966670000002,-,-,-,-,-,-,-,-,-,-,-,-,-,-,3.725274085998535,7.860092639923096,3.467298746109009,0.3061774671077728,1.6789238452911377,-,1.886884331703186,1.0131267309188843,0.44859710335731506,0.10006356984376907,20.486438751220703,2022,09,15
49,50,409,Si Saket (1),Northeastern,15.00000028,104.0500003,-,-,-,-,-,-,-,-,-,-,-,-,0.23218271136283875,0.09785793721675873,-,-,-,-,-,-,-,0.6058372855186462,0.3239457309246063,1.0219430923461914,2.281766891479492,2022,09,15
50,51,416,Tha Tum (2),Northeastern,15.31666694,103.68333359999998,-,-,-,-,-,-,-,-,-,-,-,-,-,-,-,-,-,0.12907817959785461,1.8963890075683594,3.1481354236602783,0.91820228099823,2.461461305618286,2.869779109954834,2.791733980178833,14.2147798538208,2022,09,15
51,52,432,Surin,Northeastern,14.88333361,103.5000003,-,-,-,-,-,-,-,-,-,-,-,-,-,0.4249056279659271,0.4177972078323364,1.8443931341171265,0.06413877010345459,-,-,-,-,-,0.5386518239974976,0.28645560145378113,3.5763425827026367,2022,09,15
52,53,433,Surin (1),Northeastern,14.88333361,103.4500003,-,-,-,-,-,-,-,-,-,-,-,-,-,0.877082347869873,0.052873287349939346,0.40372878313064575,0.060601625591516495,-,-,-,-,-,0.7402976751327515,0.17897550761699677,2.3135592937469482,2022,09,15
53,54,431,Nakhon Ratchasima,Northeastern,14.96830556,102.0860278,-,-,-,-,-,-,-,-,-,-,-,-,0.28962916135787964,-,-,-,-,-,-,-,-,0.2513851821422577,0.2744060158729553,0.17557772994041443,0.9909980297088623,2022,09,15
54,55,435,Pakchong (1),Northeastern,14.64388889,101.3319444,-,-,-,-,-,-,-,-,-,-,-,-,-,-,-,-,-,-,-,-,-,-,-,-,-,2022,09,15
55,56,434,Chok Chai (2),Northeastern,14.71888889,102.1686111,-,-,-,-,-,-,-,-,-,-,-,-,-,-,-,1.7553478479385376,0.09170674532651901,-,-,-,-,-,0.35218843817710876,0.08408118784427643,2.2833242416381836,2022,09,15
56,57,437,Buri Ram,Northeastern,15.22575,103.2480833,-,-,-,-,-,-,-,-,-,-,-,-,-,-,-,-,-,0.2010251134634018,1.6930798292160034,2.831662178039551,2.197312831878662,0.9403930902481079,1.9136213064193726,1.7631254196166992,11.5402193069458,2022,09,15
57,58,436,Nang Rong (2),Northeastern,14.58333361,102.8000003,-,-,-,-,-,-,-,-,-,-,-,-,-,-,0.6543805003166199,-,0.3977459669113159,0.4734492897987366,-,-,-,-,-,-,1.5255756378173828,2022,09,15
58,59,400,Nakhon Sawan,Central,15.67183333,100.1323611,-,-,-,-,-,-,-,-,-,-,-,-,-,-,0.9309310913085938,-,-,-,-,-,-,-,-,-,0.9309310913085938,2022,09,15
59,60,401,Takfa (1),Central,15.34944444,100.5302778,-,-,-,-,-,-,-,-,-,-,-,-,1.4132640361785889,2.8835561275482178,0.464281290769577,0.19868922233581543,-,-,-,-,-,-,-,-,4.959790229797363,2022,09,15
60,61,402,Chai Nat,Central,15.15000278,100.18333359999998,-,-,-,-,-,-,-,-,-,-,-,-,0.6479717493057251,2.7592482566833496,1.600000262260437,5.495419025421143,0.4097512364387512,0.36116480827331543,-,-,-,-,-,-,11.273555755615234,2022,09,15
61,62,410,U Thai Thani,Central,15.37416667,100.0388889,-,-,-,-,-,-,-,-,-,-,-,-,0.3733491599559784,5.780783653259277,1.711398959159851,3.2978856563568115,-,-,-,-,-,-,-,-,11.16341781616211,2022,09,15
62,63,415,Ayuthaya (1),Central,14.53472222,100.725,-,-,-,-,-,-,-,-,-,-,-,-,-,-,-,-,0.09159485995769501,0.3872390687465668,0.23012834787368774,-,0.05587155371904373,0.1773729920387268,0.2740079164505005,0.17740698158740997,1.3936216831207275,2022,09,15
63,64,418,Bua Chum (2),Central,15.10000028,101.6166669,-,-,-,-,-,-,-,-,-,-,-,-,-,-,-,-,0.2726907432079315,0.5806505084037781,0.21779680252075195,0.14267747104167938,-,-,-,-,1.213815450668335,2022,09,15
64,65,426,Lop Buri,Central,14.79972222,100.6283333,-,-,-,-,-,-,-,-,-,-,-,-,-,-,-,-,0.17441050708293915,0.7694883942604065,0.17722517251968384,0.23515479266643524,0.17165955901145935,0.1192290410399437,0.2016410529613495,0.31563305854797363,2.1644415855407715,2022,09,15
65,66,425,Suphan Buri,Central,14.47444444,100.1388889,-,-,-,-,-,-,-,-,-,-,-,-,-,-,-,-,-,0.6989248394966125,0.8015211820602417,0.6132071614265442,0.5140361189842224,0.22093848884105682,0.17483912408351898,0.25451213121414185,3.2779788970947266,2022,09,15
66,67,427,Uthong (1),Central,14.30361111,99.86472222,-,-,-,-,-,-,-,-,-,-,-,-,-,-,-,-,-,-,-,0.603064239025116,0.6950938701629639,0.2186995893716812,0.1976260095834732,0.32655349373817444,2.0410373210906982,2022,09,15
67,68,421,Thong Pha Phum,Central,14.74222222,98.63638889,-,4.537935733795166,2.7858800888061523,2.3304648399353027,0.5239073634147644,4.537935733795166,2.7858800888061523,2.3304648399353027,0.5239073634147644,-,-,-,-,-,-,-,-,-,0.23197510838508606,0.20014947652816772,0.09711876511573792,-,0.3062441051006317,0.11721733212471008,21.309080123901367,2022,09,15
68,69,450,Kanchanaburi,Central,14.0225,99.53583333,-,-,-,-,-,-,-,-,-,-,-,-,-,-,-,-,-,-,-,-,-,-,0.2669200003147125,0.16221681237220764,0.42913681268692017,2022,09,15
69,70,464,Ratcha Buri (1),Central,13.48930556,99.79238889,-,-,-,-,-,-,-,-,-,-,-,-,-,-,-,-,-,-,1.5862176418304443,1.5478428602218628,0.8288877010345459,0.8303440809249878,0.2931348383426666,0.09008395671844482,5.176510810852051,2022,09,15
70,71,451,Kampheang Saen (1),Central,14.01166667,99.97,-,-,-,-,-,-,-,-,-,-,-,-,-,-,-,-,0.35614442825317383,0.6819905042648315,-,-,0.5786932110786438,0.16375763714313507,0.16511335968971252,0.2504276931285858,2.196126937866211,2022,09,15
71,72,419,Pathum Thani (1),Central,14.1,100.616,-,-,-,-,-,-,-,-,-,-,-,-,-,-,-,-,2.3244481086730957,0.1433010995388031,-,-,-,-,-,-,2.4677491188049316,2022,09,15
72,73,420,Samut Prakan,Central,13.51666694,100.7616667,-,-,-,-,-,-,-,-,-,-,-,-,-,-,-,-,-,-,-,1.5865294933319092,1.3286669254302979,-,-,-,2.915196418762207,2022,09,15
73,74,429,Suvarnabhumi Airport,Central,13.68638889,100.7675,-,-,-,-,-,-,-,-,-,-,-,-,-,-,-,-,-,-,-,1.663047432899475,1.8823106288909912,-,-,-,3.545358180999756,2022,09,15
74,75,456,Don Muang Airport,Central,13.91916667,100.605,-,-,-,-,-,-,-,-,-,-,-,-,-,-,-,-,1.6907426118850708,1.7071874141693115,0.5003552436828613,-,-,-,-,-,3.898285388946533,2022,09,15
75,76,455,Sirikit Center,Central,13.72638889,100.56,-,-,-,-,-,-,-,-,-,-,-,-,-,-,-,-,-,2.2576091289520264,2.570462703704834,0.7967830300331116,1.5544276237487793,-,-,-,7.179282188415527,2022,09,15
76,77,454,Bangkok Port,Central,13.70694444,100.5680556,-,-,-,-,-,-,-,-,-,-,-,-,-,-,-,-,-,2.2576091289520264,2.570462703704834,0.7967830300331116,1.5544276237487793,-,-,-,7.179282188415527,2022,09,15
77,78,453,Bang Na (1),Central,13.66638889,100.6061111,-,-,-,-,-,-,-,-,-,-,-,-,-,-,-,-,-,-,-,1.3918125629425049,1.5036273002624512,2.0696182250976562,-,-,4.965058326721191,2022,09,15
78,79,457,Bangkok Pilot,Central,13.37722222,100.5994444,-,-,-,-,-,-,-,-,-,-,-,-,-,-,-,-,-,-,-,-,-,0.5860875248908997,0.32436221837997437,-,0.910449743270874,2022,09,15
79,80,430,Prachin Buri,Eastern,14.05091667,101.3693056,-,-,-,-,-,-,-,-,-,-,-,-,-,0.22095097601413727,0.7799171209335327,1.2109804153442383,-,-,-,-,0.9848737716674805,0.6133755445480347,0.29289644956588745,0.566277801990509,4.669271945953369,2022,09,15
80,81,439,Kabin Buri (2),Eastern,13.98333361,101.7072222,-,-,-,-,-,-,-,-,-,-,-,-,-,-,0.31888705492019653,-,-,-,-,1.0452831983566284,0.5729622840881348,0.17327021062374115,0.1675763577222824,1.0689494609832764,3.346928596496582,2022,09,15
81,82,440,Sa Kaeo (2),Eastern,13.78888889,102.0347222,-,-,-,-,-,-,-,-,-,-,-,-,0.3715014159679413,1.1053121089935303,0.2866765260696411,1.4735283851623535,-,-,1.9771820306777954,1.2857457399368286,0.24938218295574188,0.05395936220884323,0.0486919991672039,0.23881520330905914,7.090795040130615,2022,09,15
82,83,462,Aranyaprathet,Eastern,13.70000028,102.5833336,-,-,-,-,-,-,-,-,-,-,-,-,1.852743148803711,-,-,-,0.1791943609714508,2.5611412525177,1.9154540300369263,0.43617427349090576,0.19330869615077972,0.0310809463262558,-,-,7.16909646987915,2022,09,15
83,84,458,Chachoengsao (1),Eastern,13.51555556,101.4583333,-,-,-,-,-,-,-,-,-,-,-,-,-,-,-,-,-,-,-,-,-,0.1559838503599167,0.052322547882795334,0.234392449259758,0.4426988363265991,2022,09,15
84,85,459,Chon Buri,Eastern,13.36666694,100.9833336,-,-,-,-,-,-,-,-,-,-,-,-,-,-,-,-,-,-,-,-,-,-,-,-,-,2022,09,15
85,86,463,Laem Chabang,Eastern,13.07694444,100.8758333,-,-,-,1.0021694898605347,-,-,-,1.0021694898605347,-,-,-,-,-,-,-,-,-,-,-,-,-,-,-,-,2.0043389797210693,2022,09,15
86,87,460,Ko Sichang,Eastern,13.16166667,100.8019444,-,-,-,0.28161707520484924,-,-,-,0.28161707520484924,-,-,-,-,-,-,-,-,-,-,-,-,-,-,-,-,0.5632341504096985,2022,09,15
87,88,461,Pattaya,Eastern,12.92,100.8694444,-,-,-,0.7944428324699402,1.1822186708450317,-,-,0.7944428324699402,1.1822186708450317,-,-,-,-,-,-,-,-,-,-,-,-,-,-,-,3.9533228874206543,2022,09,15
88,89,477,Sattahip,Eastern,12.68333361,100.9833336,-,-,-,-,-,-,-,-,-,-,-,-,-,-,-,-,-,-,-,-,-,-,-,-,-,2022,09,15
89,90,478,Rayong,Eastern,12.61702778,101.34075,-,-,-,-,-,-,-,-,-,-,-,-,-,-,-,-,-,-,-,-,-,-,-,0.07387787848711014,0.07387787848711014,2022,09,15
90,91,479,Huai Pong (1),Eastern,12.73333361,101.1333336,-,-,-,-,-,-,-,-,-,-,-,-,-,-,-,-,-,-,-,-,-,-,-,-,-,2022,09,15
91,92,480,Chanthaburi,Eastern,12.61666694,102.1133333,-,-,1.6469199657440186,-,-,-,1.6469199657440186,-,-,-,-,-,1.170065999031067,-,-,-,-,-,-,0.5053601264953613,-,0.16338902711868286,0.18979278206825256,0.06411996483802795,5.386568069458008,2022,09,15
92,93,481,Pluei (1),Eastern,12.50861111,102.1730556,-,-,2.3786282539367676,0.1932424157857895,0.050762683153152466,-,2.3786282539367676,0.1932424157857895,0.050762683153152466,0.3700454831123352,2.5424413681030273,-,0.6394997835159302,-,-,-,-,-,-,-,-,0.12999358773231506,0.13596920669078827,0.13567830622196198,9.198894500732422,2022,09,15
93,94,501,Khlong Yai,Eastern,11.76666694,102.8833336,-,9.119736671447754,55.13759231567383,27.221473693847656,4.713551998138428,9.119736671447754,55.13759231567383,27.221473693847656,4.713551998138428,-,1.526509404182434,-,-,-,-,-,-,-,-,-,-,-,0.05381082370877266,0.03262379765510559,193.99766540527344,2022,09,15
94,95,465,Phetchaburi,Southern EastCoast,12.99930556,100.0605278,-,-,-,-,-,-,-,-,-,-,-,-,-,-,-,-,-,-,-,-,-,-,-,-,-,2022,09,15
95,96,474,Nong Plub (1),Southern EastCoast,12.58925,99.73461111,-,-,-,-,-,-,-,-,-,-,-,-,-,-,-,-,-,-,-,-,-,-,-,-,-,2022,09,15
96,97,475,Hua Hin,Southern EastCoast,12.57797222,99.95372222,-,-,-,-,-,-,-,-,-,-,-,-,-,-,-,-,-,-,-,-,-,-,-,-,-,2022,09,15
97,98,500,Prachuap Khiri Khan,Southern EastCoast,11.83497222,99.81047222,-,-,-,-,-,-,-,-,-,-,-,-,-,-,-,-,-,-,-,-,-,-,-,-,-,2022,09,15
98,99,517,Chumphon,Southern EastCoast,10.49875,99.18847222,-,-,-,-,-,-,-,-,-,-,-,-,-,-,-,-,-,-,-,-,-,-,-,-,-,2022,09,15
99,100,520,Sawee (1),Southern EastCoast,10.33063889,99.09186111,-,-,-,-,-,-,-,-,-,-,-,-,-,-,-,-,-,-,-,-,-,-,-,-,-,2022,09,15
100,101,551,Surat Thani,Southern EastCoast,9.1335,99.15213889,-,-,-,-,-,-,-,-,-,-,-,-,-,-,-,-,-,-,-,-,-,-,-,-,-,2022,09,15
101,102,555,Surat Thani (1),Southern EastCoast,9.144805556,99.63361111,-,-,-,-,-,-,-,-,-,-,-,-,-,-,-,-,-,-,-,-,-,-,-,-,-,2022,09,15
102,103,550,Ko Samui,Southern EastCoast,9.466666667,100.05,-,-,-,-,-,-,-,-,-,-,-,-,-,-,-,-,-,-,-,-,-,-,-,-,-,2022,09,15
103,104,556,Prasang (2),Southern EastCoast,8.572083333,99.25519444,-,-,-,-,-,-,-,-,-,-,-,-,-,-,-,-,-,-,-,-,-,-,-,-,-,2022,09,15
104,105,557,Chawang (2),Southern EastCoast,8.424694444,99.50661111,-,-,-,-,-,-,-,-,-,-,-,-,-,-,-,-,-,-,-,-,-,-,-,-,-,2022,09,15
105,106,552,Nakhon Si Thammarat,Southern EastCoast,8.537777777999999,99.94722222,-,-,-,-,-,-,-,-,-,-,-,-,-,-,-,-,-,-,-,-,-,-,-,-,-,2022,09,15
106,107,554,Nakhon Si Thammarat (1),Southern EastCoast,8.359305556,100.0,-,-,-,-,-,-,-,-,-,-,-,-,-,-,-,-,-,-,-,-,-,-,-,-,-,2022,09,15
107,108,560,Pattalung (1),Southern EastCoast,7.583333611,100.1666669,-,-,-,-,-,-,-,-,-,-,-,-,-,-,-,-,-,-,-,-,-,-,-,-,-,2022,09,15
108,109,568,Songkhla,Southern EastCoast,7.182111111,100.6076944,-,-,-,-,-,-,-,-,-,-,-,-,-,-,-,-,-,-,-,-,-,-,-,-,-,2022,09,15
109,110,569,Hat Yai,Southern EastCoast,6.916666944,100.43333359999998,-,-,-,-,-,-,-,-,-,-,-,-,-,-,-,-,-,-,-,-,-,-,-,-,-,2022,09,15
110,111,571,Korhong (1),Southern EastCoast,7.0,100.5,-,-,-,-,-,-,-,-,-,-,-,-,-,-,-,-,-,-,-,-,-,-,-,-,-,2022,09,15
111,112,574,Sa Dao (2),Southern EastCoast,6.798055556,100.3905556,-,-,-,-,-,-,-,-,-,-,-,-,-,0.07007409632205963,0.2150987684726715,-,-,-,-,-,-,-,-,-,0.28517287969589233,2022,09,15
112,113,580,Pattani,Southern EastCoast,6.7833336110000015,101.1500003,-,-,-,-,-,-,-,-,-,-,-,-,-,-,-,-,-,-,-,-,-,-,-,-,-,2022,09,15
113,114,581,Yala (1),Southern EastCoast,6.050000278,101.2833336,-,-,-,-,-,-,-,-,-,-,-,-,-,-,-,-,-,-,-,-,-,-,-,-,-,2022,09,15
114,115,583,Narathiwat,Southern EastCoast,6.416666944,101.81666690000002,-,-,-,-,-,-,-,-,-,-,-,-,-,-,-,-,-,-,-,-,-,0.6152576208114624,1.2633967399597168,0.5219022631645203,2.4005565643310547,2022,09,15
115,116,532,Ranong,Southern WestCoast,9.983333611,98.61666694,-,-,-,-,-,-,-,-,-,-,-,-,-,-,-,-,-,-,-,0.06438755989074707,-,-,-,-,0.06438755989074707,2022,09,15
116,117,561,Takua Pa,Southern WestCoast,8.684166667000001,98.25222222,-,-,-,-,-,-,-,-,-,-,-,-,-,-,-,-,-,-,-,-,-,-,-,-,-,2022,09,15
117,118,564,Phuket,Southern WestCoast,7.883333611,98.40000028,-,-,1.6360347270965576,0.39419302344322205,-,-,1.6360347270965576,0.39419302344322205,-,-,-,-,-,-,-,-,-,-,-,-,-,-,-,-,4.060455322265625,2022,09,15
118,119,565,Phuket Airport,Southern WestCoast,8.145,98.31444444,-,-,-,-,-,-,-,-,-,-,-,-,-,-,-,-,-,-,-,-,-,-,-,-,-,2022,09,15
119,120,563,Krabi,Southern WestCoast,8.103611111000001,98.97527778,-,-,-,-,-,-,-,-,-,-,-,-,-,-,-,-,-,-,-,-,-,-,-,-,-,2022,09,15
120,121,566,Ko Lanta,Southern WestCoast,7.5333336110000015,99.05000028,-,-,-,-,-,-,-,-,-,-,-,-,-,-,-,-,-,-,-,-,-,-,-,-,-,2022,09,15
121,122,567,Trang,Southern WestCoast,7.516666944,99.61666694,-,-,-,-,-,-,-,-,-,-,-,-,-,-,-,-,-,-,-,-,-,-,-,-,-,2022,09,15
122,123,570,Satun,Southern WestCoast,6.650000277999999,100.0833336,-,-,-,-,-,-,-,-,-,-,-,-,-,-,-,-,-,-,-,-,-,-,-,-,-,2022,09,15
