,ID,WMO_CODE,NAME_EN,Region,Latitude,Longitude,00Z,01Z,02Z,03Z,04Z,05Z,06Z,07Z,08Z,09Z,10Z,11Z,12Z,13Z,14Z,15Z,16Z,17Z,18Z,19Z,20Z,21Z,22Z,23Z,sum,year,month,day
0,1,300,Mae Hong Son,Northern,19.29897222,97.97577778,-,-,-,-,-,-,-,-,-,-,-,17.460851669311523,-,0.5530140995979309,-,-,-,-,-,-,-,-,-,1.9638466835021973,19.977712631225586,2022,02,05
1,2,325,Mae Sariang,Northern,18.16666667,97.93333333,-,-,-,-,-,-,-,-,-,-,-,-,0.025644376873970032,-,-,-,-,-,-,-,-,-,-,-,0.025644376873970032,2022,02,05
2,3,303,Chiang Rai,Northern,19.96138889,99.88138889,-,-,-,-,-,-,-,-,-,-,-,-,-,-,-,1.1438716650009155,-,-,-,-,-,-,-,-,1.1438716650009155,2022,02,05
3,4,304,Chiang Rai (1),Northern,19.87083333,99.78277778,-,-,-,-,-,-,-,-,-,-,-,-,-,-,0.6714985966682434,1.0525652170181274,-,-,-,-,-,-,-,-,1.7240638732910156,2022,02,05
4,5,310,Phayao,Northern,19.13333333,99.9,-,-,-,-,-,-,-,-,-,-,-,-,-,0.22417332231998444,-,-,-,-,-,-,-,-,-,-,0.22417332231998444,2022,02,05
5,6,327,Chiang Mai,Northern,18.79,98.97694444,-,-,-,-,-,-,-,-,-,-,-,-,0.12868882715702057,-,-,-,-,-,-,-,-,-,-,-,0.12868882715702057,2022,02,05
6,7,302,Doi Angkhlang,Northern,19.93138889,99.04833333,-,-,-,-,-,-,-,-,-,-,-,-,-,0.5068542957305908,-,-,-,-,-,-,-,-,-,-,0.5068542957305908,2022,02,05
7,8,331,Nan,Northern,18.77972222,100.7777778,0.14809361100196838,0.17544499039649963,0.6780509948730469,0.9746738076210022,0.6214916110038757,0.17544499039649963,0.6780509948730469,0.9746738076210022,0.6214916110038757,0.22887031733989716,0.10780258476734161,0.31020909547805786,-,-,-,-,-,-,-,-,0.485545814037323,-,-,-,6.476031303405762,2022,02,05
8,9,333,Nan (1),Northern,18.86666667,100.75,0.11321034282445908,0.14113351702690125,0.3209143280982971,0.8111945390701294,0.4878357946872711,0.14113351702690125,0.3209143280982971,0.8111945390701294,0.4878357946872711,0.18245314061641693,0.18296097218990326,0.27911028265953064,-,-,0.1475990116596222,-,-,-,-,-,-,-,-,-,4.6539106369018555,2022,02,05
9,10,315,Tha Wang Pha (2),Northern,19.11055556,100.8025,-,0.1097097396850586,0.2098100483417511,0.07942609488964081,0.4542119801044464,0.1097097396850586,0.2098100483417511,0.07942609488964081,0.4542119801044464,0.20317426323890686,0.1772119700908661,0.20744746923446655,-,-,0.2049083262681961,0.03117983788251877,-,-,-,-,-,-,-,-,2.5302376747131348,2022,02,05
10,11,307,Thung Chang (2),Northern,19.41194444,100.8835278,-,-,0.09176210314035416,-,-,-,0.09176210314035416,-,-,-,0.2035505324602127,-,-,-,-,-,-,-,-,-,-,-,-,-,0.387074738740921,2022,02,05
11,12,329,Lamphun,Northern,18.56666667,99.03333333,-,-,-,-,-,-,-,-,-,-,-,-,0.30744031071662903,-,-,-,-,-,-,-,-,-,-,-,0.30744031071662903,2022,02,05
12,13,328,Lampang,Northern,18.33333333,99.51666667,-,-,0.06029287353157997,-,-,-,0.06029287353157997,-,-,-,-,-,-,-,-,-,-,-,-,-,-,-,-,-,0.12058574706315994,2022,02,05
13,14,334,Lampang (1),Northern,18.31666667,99.28333333,0.0758921355009079,-,-,-,-,-,-,-,-,-,-,-,0.1536194533109665,-,-,0.25495994091033936,-,-,-,-,-,-,-,-,0.6362558007240295,2022,02,05
14,15,324,Thoen,Northern,17.63661111,99.24475,0.20329509675502777,-,-,0.023769022896885872,-,-,-,0.023769022896885872,-,-,-,-,-,-,-,-,-,0.47368374466896057,-,-,-,-,-,-,1.1311070919036865,2022,02,05
15,16,330,Phrae,Northern,18.16666667,100.1666667,0.20071354508399963,0.38512125611305237,1.5897587537765503,0.8879141211509705,0.1521444022655487,0.38512125611305237,1.5897587537765503,0.8879141211509705,0.1521444022655487,-,-,-,-,-,-,-,0.129858136177063,0.5220004916191101,-,0.458487331867218,-,-,-,-,7.742364406585693,2022,02,05
16,17,351,Uttaradit,Northern,17.61666667,100.1000028,0.40306416153907776,2.3679182529449463,1.5287232398986816,0.9560093879699707,0.1419181525707245,2.3679182529449463,1.5287232398986816,0.9560093879699707,0.1419181525707245,0.07516942918300629,-,-,-,-,-,-,0.24305766820907593,0.6959835290908813,-,-,-,-,-,-,12.212541580200195,2022,02,05
17,18,372,Sukhothai,Northern,17.10611111,99.8,0.3066306412220001,1.077810287475586,2.5088489055633545,0.4669758379459381,-,1.077810287475586,2.5088489055633545,0.4669758379459381,-,-,-,-,-,-,-,0.22660799324512482,0.8013008832931519,0.32132405042648315,-,-,-,-,-,-,10.376395225524902,2022,02,05
18,19,373,Si Samrong (1),Northern,17.77361111,99.24944444,0.17838498950004578,-,0.03826354444026947,-,-,-,0.03826354444026947,-,-,-,-,-,-,-,0.15079240500926971,-,-,-,-,-,-,-,-,-,0.762474536895752,2022,02,05
19,20,377,Bhumibol Dam,Northern,17.24391667,99.00252778,0.32748115062713623,-,-,-,-,-,-,-,-,-,-,-,-,-,-,0.24366331100463867,2.3953299522399902,0.34512093663215637,-,-,-,-,-,-,3.9665579795837402,2022,02,05
20,21,376,Tak,Northern,16.87836111,99.14336111,0.26225683093070984,-,-,-,-,-,-,-,-,-,-,-,0.21534022688865662,0.8551664352416992,-,0.34511470794677734,0.6030331254005432,0.2783581614494324,-,-,-,-,-,-,3.0837831497192383,2022,02,05
21,22,375,Mae Sot,Northern,16.65916667,98.55086111,-,-,-,-,-,-,-,-,-,-,-,0.23893806338310242,0.05369705706834793,0.7555772662162781,0.6513624787330627,0.31920644640922546,-,-,-,-,-,-,-,-,2.0187814235687256,2022,02,05
22,23,385,Umphang (2),Northern,16.02472222,98.86444444,-,-,-,-,-,-,-,-,-,-,-,-,-,-,0.22720031440258026,0.11320287734270096,-,-,-,-,-,-,-,-,0.3404031991958618,2022,02,05
23,24,387,Doi Muser (1),Northern,16.75,98.93333611,0.05997243523597717,-,-,-,-,-,-,-,-,-,-,0.4973858594894409,0.14290155470371246,-,0.41216838359832764,0.24985170364379883,1.856235146522522,-,-,-,-,-,-,-,3.3384599685668945,2022,02,05
24,25,378,Phitsanulok,Northern,16.79622222,100.2759444,0.10663218796253204,0.22245872020721436,-,-,-,0.22245872020721436,-,-,-,-,-,-,0.1446532905101776,-,-,-,-,0.15787333250045776,-,-,-,-,-,-,1.067340612411499,2022,02,05
25,26,374,Lom Sak (2),Northern,16.77363889,101.2494722,-,-,-,-,-,-,-,-,-,-,-,-,-,-,-,-,-,-,-,-,-,-,-,-,-,2022,02,05
26,27,379,Phetchabun,Northern,16.43333611,101.15,-,-,-,-,-,-,-,-,-,-,-,-,-,-,-,-,-,-,-,-,-,-,-,-,-,2022,02,05
27,28,413,Wichian Buri (2),Northern,15.65694444,101.1083333,-,-,-,-,-,-,-,-,-,-,0.1397830843925476,-,-,-,-,-,-,-,-,-,-,-,-,-,0.1397830843925476,2022,02,05
28,29,380,Kamphaeng Phet,Northern,16.48680556,99.52697222,-,-,-,-,-,-,-,-,-,-,-,-,-,-,-,-,-,0.11000525206327438,-,-,-,-,-,-,0.11000525206327438,2022,02,05
29,30,386,Phicit (1),Northern,16.33861111,100.3671111,0.12273629754781723,0.06295676529407501,-,-,-,0.06295676529407501,-,-,-,0.10496942698955536,0.08148587495088577,-,-,-,-,-,-,-,-,-,-,-,-,-,0.6805776953697205,2022,02,05
30,31,352,Nong Khai,Northeastern,17.86716667,102.7330278,-,-,-,-,-,-,-,-,-,-,-,-,-,-,-,-,-,-,-,-,-,-,-,-,-,2022,02,05
31,32,353,Loei,Northeastern,17.45,101.7333333,-,-,-,-,-,-,-,-,-,-,-,-,-,0.8475786447525024,0.15702754259109497,-,0.23558583855628967,-,-,-,-,-,-,-,1.2401920557022095,2022,02,05
32,33,350,Loei (1),Northeastern,17.4,101.7333333,-,-,-,-,-,-,-,-,-,-,-,-,-,0.8250873684883118,-,-,-,-,-,-,-,-,-,-,0.8250873684883118,2022,02,05
33,34,354,Udon Thani,Northeastern,17.38333333,102.8,-,-,-,-,-,-,-,-,-,-,-,-,-,0.08038390427827835,0.2053898572921753,-,-,-,-,-,-,-,-,-,0.28577375411987305,2022,02,05
34,35,357,Nakhon Phanom,Northeastern,17.41083333,104.7825,-,-,-,-,-,-,-,-,-,-,-,-,-,-,-,-,-,-,-,-,-,-,-,-,-,2022,02,05
35,36,358,Nakhon Phanom (1),Northeastern,17.44305556,104.7736111,-,-,-,-,-,-,-,-,-,-,-,-,-,-,-,-,-,-,-,-,-,-,-,-,-,2022,02,05
36,37,356,Sakon Nakhon,Northeastern,17.15000278,104.1333361,-,-,-,-,-,-,-,-,-,-,-,-,-,-,-,-,-,-,-,-,-,-,-,-,-,2022,02,05
37,38,355,Sakon Nakhon (1),Northeastern,17.12502778,104.061,-,-,-,-,-,-,-,-,-,-,-,-,-,-,-,-,-,-,-,-,-,-,-,-,-,2022,02,05
38,39,360,Nong Bua Lumphu,Northeastern,17.2325,102.4294444,-,-,-,-,-,-,-,-,-,-,-,-,-,0.09953315556049347,-,-,-,-,-,-,-,-,-,-,0.09953315556049347,2022,02,05
39,40,383,Mukdahan,Northeastern,16.54955556,104.7308889,-,-,-,-,-,-,-,-,-,-,-,-,-,-,-,-,-,-,-,-,-,-,-,-,-,2022,02,05
40,41,381,Khon Kaen,Northeastern,16.46111111,102.7897222,-,-,-,-,-,-,-,-,-,-,-,-,-,-,-,-,-,-,-,-,-,-,-,-,-,2022,02,05
41,42,384,Tha Pra (1),Northeastern,16.333,102.8166667,-,-,-,-,-,-,-,-,-,-,-,-,-,-,-,-,-,-,-,-,-,-,-,-,-,2022,02,05
42,43,382,Kosum Phisai (2),Northeastern,16.24722222,103.0680556,-,-,-,-,-,-,-,-,-,-,-,-,-,-,-,-,-,-,-,-,-,-,-,-,-,2022,02,05
43,44,390,Kamalasai (2),Northeastern,16.3325,103.5883333,-,-,-,-,-,-,-,-,-,-,-,-,-,-,-,-,-,-,-,-,-,-,-,-,-,2022,02,05
44,45,405,Roi Et,Northeastern,16.05000028,103.68333359999998,-,-,-,-,-,-,-,-,-,-,-,-,-,-,-,-,-,-,-,-,-,-,-,-,-,2022,02,05
45,46,404,Roi Et (1),Northeastern,16.07322222,103.6084444,-,-,-,-,-,-,-,-,-,-,-,-,-,-,-,-,-,-,-,-,-,-,-,-,-,2022,02,05
46,47,403,Chaiyaphum,Northeastern,15.80000028,102.0333336,-,-,-,-,-,-,-,-,-,-,-,-,-,-,-,-,-,-,-,-,-,-,-,-,-,2022,02,05
47,48,407,Ubon Ratchathani,Northeastern,15.25000278,104.8666694,-,-,0.13474136590957642,-,-,-,0.13474136590957642,-,-,-,-,-,-,-,-,-,-,-,-,-,-,-,-,-,0.26948273181915283,2022,02,05
48,49,408,Ubon Ratchathani (1),Northeastern,15.24072222,105.01966670000002,-,-,-,-,-,-,-,-,-,-,-,-,-,-,-,-,-,-,-,-,-,-,-,-,-,2022,02,05
49,50,409,Si Saket (1),Northeastern,15.00000028,104.0500003,-,-,-,-,-,-,-,-,-,-,-,-,-,-,-,-,-,-,-,-,-,-,-,-,-,2022,02,05
50,51,416,Tha Tum (2),Northeastern,15.31666694,103.68333359999998,-,-,-,-,-,-,-,-,-,-,-,-,-,-,-,-,-,-,-,-,-,-,-,-,-,2022,02,05
51,52,432,Surin,Northeastern,14.88333361,103.5000003,-,-,-,-,-,-,-,-,-,-,-,-,-,-,-,-,-,-,-,-,-,-,-,-,-,2022,02,05
52,53,433,Surin (1),Northeastern,14.88333361,103.4500003,-,-,-,-,-,-,-,-,-,-,-,-,-,-,-,-,-,-,-,-,-,-,-,-,-,2022,02,05
53,54,431,Nakhon Ratchasima,Northeastern,14.96830556,102.0860278,-,-,-,-,-,-,-,-,-,-,-,-,-,-,-,-,-,-,-,-,-,-,-,-,-,2022,02,05
54,55,435,Pakchong (1),Northeastern,14.64388889,101.3319444,-,-,-,-,-,-,-,-,-,-,-,-,-,-,-,-,-,-,-,-,-,-,-,-,-,2022,02,05
55,56,434,Chok Chai (2),Northeastern,14.71888889,102.1686111,-,-,-,-,-,-,-,-,-,-,-,-,-,-,-,-,-,-,-,-,-,-,-,-,-,2022,02,05
56,57,437,Buri Ram,Northeastern,15.22575,103.2480833,-,-,-,-,-,-,-,-,-,-,-,-,-,-,-,-,-,-,-,-,-,-,-,-,-,2022,02,05
57,58,436,Nang Rong (2),Northeastern,14.58333361,102.8000003,-,-,-,-,-,-,-,-,-,-,-,-,-,-,-,-,-,-,-,-,-,-,-,-,-,2022,02,05
58,59,400,Nakhon Sawan,Central,15.67183333,100.1323611,-,0.09819867461919785,-,-,-,0.09819867461919785,-,-,-,-,-,-,-,-,-,-,-,-,-,-,-,-,-,-,0.1963973492383957,2022,02,05
59,60,401,Takfa (1),Central,15.34944444,100.5302778,-,0.07513105869293213,-,-,-,0.07513105869293213,-,-,-,-,-,-,-,-,-,-,-,-,-,-,-,-,-,-,0.15026211738586426,2022,02,05
60,61,402,Chai Nat,Central,15.15000278,100.18333359999998,-,-,-,-,-,-,-,-,-,-,-,-,-,-,-,-,-,-,-,-,-,-,-,-,-,2022,02,05
61,62,410,U Thai Thani,Central,15.37416667,100.0388889,-,0.08846596628427505,-,-,-,0.08846596628427505,-,-,-,-,-,-,-,-,-,-,-,-,-,-,-,-,-,-,0.1769319325685501,2022,02,05
62,63,415,Ayuthaya (1),Central,14.53472222,100.725,-,-,-,-,-,-,-,-,-,-,-,-,-,-,-,-,-,-,-,-,-,-,-,-,-,2022,02,05
63,64,418,Bua Chum (2),Central,15.10000028,101.6166669,-,-,-,-,-,-,-,-,-,-,-,-,-,-,-,-,-,-,-,-,-,-,-,-,-,2022,02,05
64,65,426,Lop Buri,Central,14.79972222,100.6283333,-,-,-,-,-,-,-,-,-,-,-,-,-,-,-,-,-,-,-,-,-,-,-,-,-,2022,02,05
65,66,425,Suphan Buri,Central,14.47444444,100.1388889,-,-,-,-,-,-,-,-,-,-,-,-,-,-,-,-,0.29942405223846436,0.024183033034205437,-,-,-,-,-,-,0.32360708713531494,2022,02,05
66,67,427,Uthong (1),Central,14.30361111,99.86472222,-,-,-,-,-,-,-,-,-,-,-,-,-,-,-,-,-,-,-,-,-,-,-,-,-,2022,02,05
67,68,421,Thong Pha Phum,Central,14.74222222,98.63638889,-,-,-,-,-,-,-,-,-,-,-,-,-,-,-,-,-,-,-,-,-,-,-,-,-,2022,02,05
68,69,450,Kanchanaburi,Central,14.0225,99.53583333,-,-,-,-,-,-,-,-,-,-,-,-,-,-,-,-,-,-,-,-,-,-,0.13844890892505646,-,0.13844890892505646,2022,02,05
69,70,464,Ratcha Buri (1),Central,13.48930556,99.79238889,-,-,-,-,-,-,-,-,-,-,-,-,-,-,-,-,-,-,-,-,-,-,-,-,-,2022,02,05
70,71,451,Kampheang Saen (1),Central,14.01166667,99.97,-,-,-,-,-,-,-,-,-,-,-,-,-,-,-,-,-,-,-,-,-,-,-,-,-,2022,02,05
71,72,419,Pathum Thani (1),Central,14.1,100.616,-,-,-,-,-,-,-,-,-,-,-,-,-,-,-,-,-,-,-,-,-,-,-,-,-,2022,02,05
72,73,420,Samut Prakan,Central,13.51666694,100.7616667,-,-,-,-,-,-,-,-,-,-,-,-,-,-,-,-,-,-,-,-,-,-,-,-,-,2022,02,05
73,74,429,Suvarnabhumi Airport,Central,13.68638889,100.7675,-,-,-,-,-,-,-,-,-,-,-,-,-,-,-,-,-,-,-,-,-,-,-,-,-,2022,02,05
74,75,456,Don Muang Airport,Central,13.91916667,100.605,-,-,-,-,-,-,-,-,-,-,-,-,-,-,-,-,-,-,-,-,-,-,-,-,-,2022,02,05
75,76,455,Sirikit Center,Central,13.72638889,100.56,-,-,-,-,-,-,-,-,-,-,-,-,-,-,-,-,-,-,-,-,-,-,-,-,-,2022,02,05
76,77,454,Bangkok Port,Central,13.70694444,100.5680556,-,-,-,-,-,-,-,-,-,-,-,-,-,-,-,-,-,-,-,-,-,-,-,-,-,2022,02,05
77,78,453,Bang Na (1),Central,13.66638889,100.6061111,-,-,-,-,-,-,-,-,-,-,-,-,-,-,-,-,-,-,-,-,-,-,-,-,-,2022,02,05
78,79,457,Bangkok Pilot,Central,13.37722222,100.5994444,-,-,-,-,-,-,-,-,-,-,-,-,-,-,-,-,-,-,-,-,-,-,-,-,-,2022,02,05
79,80,430,Prachin Buri,Eastern,14.05091667,101.3693056,-,-,-,-,-,-,-,-,-,-,-,-,-,-,-,-,-,-,-,-,-,-,-,-,-,2022,02,05
80,81,439,Kabin Buri (2),Eastern,13.98333361,101.7072222,-,-,-,-,-,-,-,-,-,-,-,-,-,-,-,-,-,-,-,-,-,-,-,-,-,2022,02,05
81,82,440,Sa Kaeo (2),Eastern,13.78888889,102.0347222,-,-,-,-,-,-,-,-,-,-,-,-,-,-,-,-,-,-,-,-,-,-,-,-,-,2022,02,05
82,83,462,Aranyaprathet,Eastern,13.70000028,102.5833336,-,-,-,-,-,-,-,-,-,-,-,-,-,-,-,-,-,-,-,-,-,-,-,-,-,2022,02,05
83,84,458,Chachoengsao (1),Eastern,13.51555556,101.4583333,-,-,-,-,-,-,-,-,-,-,-,-,0.1376638263463974,-,-,-,-,-,-,-,-,-,-,-,0.1376638263463974,2022,02,05
84,85,459,Chon Buri,Eastern,13.36666694,100.9833336,-,-,-,-,-,-,-,-,-,-,-,0.04518277943134308,-,-,-,-,-,-,-,-,-,-,-,-,0.04518277943134308,2022,02,05
85,86,463,Laem Chabang,Eastern,13.07694444,100.8758333,-,-,-,-,-,-,-,-,-,-,0.11087992042303085,1.0298970937728882,0.9597662687301636,-,-,-,-,-,-,-,-,-,-,-,2.100543260574341,2022,02,05
86,87,460,Ko Sichang,Eastern,13.16166667,100.8019444,-,-,-,-,-,-,-,-,-,-,0.16473305225372314,0.6276545524597168,0.769517183303833,-,-,-,-,-,-,-,-,-,-,-,1.561904788017273,2022,02,05
87,88,461,Pattaya,Eastern,12.92,100.8694444,-,-,-,-,-,-,-,-,-,-,0.15945406258106232,1.4787042140960693,0.8161682486534119,-,-,-,-,-,-,-,-,-,-,-,2.454326629638672,2022,02,05
88,89,477,Sattahip,Eastern,12.68333361,100.9833336,-,-,-,-,-,-,-,-,-,3.1754660606384277,3.364102840423584,9.640885353088379,3.427602767944336,-,-,-,-,-,-,-,-,-,-,-,19.608057022094727,2022,02,05
89,90,478,Rayong,Eastern,12.61702778,101.34075,-,-,-,-,-,-,-,-,-,-,6.5044660568237305,3.1193723678588867,0.9821074604988098,-,-,-,-,-,-,-,-,-,-,-,10.605945587158203,2022,02,05
90,91,479,Huai Pong (1),Eastern,12.73333361,101.1333336,-,-,-,-,-,-,-,-,-,-,4.7760233879089355,3.175036668777466,10.074392318725586,-,-,-,-,-,-,-,-,-,-,-,18.02545166015625,2022,02,05
91,92,480,Chanthaburi,Eastern,12.61666694,102.1133333,-,-,-,-,-,-,-,-,-,-,2.5726637840270996,0.14022405445575714,0.4145822823047638,-,-,-,-,-,-,-,-,-,-,-,3.127470016479492,2022,02,05
92,93,481,Pluei (1),Eastern,12.50861111,102.1730556,-,-,-,-,-,-,-,-,-,-,1.7987440824508667,0.04849087446928024,0.5047620534896851,-,-,-,-,-,-,-,-,-,-,-,2.351996898651123,2022,02,05
93,94,501,Khlong Yai,Eastern,11.76666694,102.8833336,-,-,-,-,-,-,-,-,-,-,0.37227651476860046,0.16679522395133972,-,-,-,-,-,-,-,-,-,-,-,-,0.5390717387199402,2022,02,05
94,95,465,Phetchaburi,Southern EastCoast,12.99930556,100.0605278,-,-,-,-,-,-,-,-,-,-,-,0.08903761953115463,-,-,-,-,-,-,-,-,-,-,-,-,0.08903761953115463,2022,02,05
95,96,474,Nong Plub (1),Southern EastCoast,12.58925,99.73461111,-,-,-,-,-,-,-,-,-,-,-,-,0.5558993220329285,-,0.9637664556503296,-,-,-,-,-,-,-,-,-,1.5196657180786133,2022,02,05
96,97,475,Hua Hin,Southern EastCoast,12.57797222,99.95372222,-,-,-,-,-,-,-,-,-,-,-,-,-,-,-,-,-,-,-,-,-,-,-,-,-,2022,02,05
97,98,500,Prachuap Khiri Khan,Southern EastCoast,11.83497222,99.81047222,-,-,-,0.3387131094932556,1.8710201978683472,-,-,0.3387131094932556,1.8710201978683472,3.4644863605499268,1.4068970680236816,2.012554168701172,-,-,-,-,-,-,-,-,-,-,-,-,11.303403854370117,2022,02,05
98,99,517,Chumphon,Southern EastCoast,10.49875,99.18847222,-,-,-,-,-,-,-,-,-,-,-,-,-,-,-,-,-,-,-,-,-,-,-,-,-,2022,02,05
99,100,520,Sawee (1),Southern EastCoast,10.33063889,99.09186111,-,-,-,-,-,-,-,-,-,-,-,-,-,-,-,-,-,-,-,-,-,-,-,-,-,2022,02,05
100,101,551,Surat Thani,Southern EastCoast,9.1335,99.15213889,-,-,-,-,-,-,-,-,-,-,-,-,-,-,-,-,-,-,-,-,-,-,-,-,-,2022,02,05
101,102,555,Surat Thani (1),Southern EastCoast,9.144805556,99.63361111,-,-,-,-,-,-,-,-,-,-,-,-,-,-,-,-,-,-,-,-,-,-,-,-,-,2022,02,05
102,103,550,Ko Samui,Southern EastCoast,9.466666667,100.05,-,-,-,-,-,-,-,-,-,-,-,-,-,-,-,-,-,-,-,-,-,-,-,-,-,2022,02,05
103,104,556,Prasang (2),Southern EastCoast,8.572083333,99.25519444,-,-,-,-,-,-,-,-,-,-,-,-,-,-,-,-,-,-,-,-,-,-,-,-,-,2022,02,05
104,105,557,Chawang (2),Southern EastCoast,8.424694444,99.50661111,-,-,-,-,-,-,-,-,-,-,-,-,-,-,-,-,-,-,-,-,-,-,-,-,-,2022,02,05
105,106,552,Nakhon Si Thammarat,Southern EastCoast,8.537777777999999,99.94722222,-,-,-,-,-,-,-,-,-,-,-,-,-,-,-,-,-,-,-,-,-,-,-,-,-,2022,02,05
106,107,554,Nakhon Si Thammarat (1),Southern EastCoast,8.359305556,100.0,-,-,-,-,-,-,-,-,-,-,-,-,-,-,-,-,-,-,-,-,-,-,-,-,-,2022,02,05
107,108,560,Pattalung (1),Southern EastCoast,7.583333611,100.1666669,-,-,-,-,-,-,-,-,-,-,-,-,-,-,-,-,-,-,-,-,-,-,-,-,-,2022,02,05
108,109,568,Songkhla,Southern EastCoast,7.182111111,100.6076944,-,-,-,-,-,-,-,-,-,-,-,-,-,-,-,-,-,-,-,-,-,-,-,-,-,2022,02,05
109,110,569,Hat Yai,Southern EastCoast,6.916666944,100.43333359999998,-,-,-,-,-,-,-,-,-,-,-,-,0.03839481994509697,-,-,-,-,-,-,-,-,-,-,-,0.03839481994509697,2022,02,05
110,111,571,Korhong (1),Southern EastCoast,7.0,100.5,-,-,-,-,-,-,-,-,-,-,-,-,-,-,-,-,-,-,-,-,-,-,-,-,-,2022,02,05
111,112,574,Sa Dao (2),Southern EastCoast,6.798055556,100.3905556,-,-,-,-,-,-,-,-,-,-,-,-,-,-,-,-,-,-,-,-,-,-,-,-,-,2022,02,05
112,113,580,Pattani,Southern EastCoast,6.7833336110000015,101.1500003,-,-,-,-,-,-,-,-,-,-,-,-,-,-,-,-,-,-,-,-,-,-,-,-,-,2022,02,05
113,114,581,Yala (1),Southern EastCoast,6.050000278,101.2833336,-,-,-,-,-,-,-,-,-,-,-,0.062252819538116455,0.050211336463689804,-,-,0.12563291192054749,-,-,-,-,-,-,-,-,0.23809707164764404,2022,02,05
114,115,583,Narathiwat,Southern EastCoast,6.416666944,101.81666690000002,-,-,-,-,-,-,-,-,-,-,-,-,-,-,-,-,-,-,-,-,-,-,-,-,-,2022,02,05
115,116,532,Ranong,Southern WestCoast,9.983333611,98.61666694,-,-,-,-,-,-,-,-,-,-,-,-,-,-,-,-,-,-,-,-,-,-,-,-,-,2022,02,05
116,117,561,Takua Pa,Southern WestCoast,8.684166667000001,98.25222222,-,-,-,-,-,-,-,-,-,-,-,-,-,-,-,-,-,-,-,-,-,-,-,-,-,2022,02,05
117,118,564,Phuket,Southern WestCoast,7.883333611,98.40000028,-,-,-,-,-,-,-,-,-,-,-,-,-,-,-,-,-,-,-,-,-,-,-,-,-,2022,02,05
118,119,565,Phuket Airport,Southern WestCoast,8.145,98.31444444,-,-,-,-,-,-,-,-,-,-,-,-,-,-,-,-,-,-,-,-,-,-,-,-,-,2022,02,05
119,120,563,Krabi,Southern WestCoast,8.103611111000001,98.97527778,-,-,-,-,-,-,-,-,-,-,-,-,-,-,-,-,-,-,-,-,-,-,-,-,-,2022,02,05
120,121,566,Ko Lanta,Southern WestCoast,7.5333336110000015,99.05000028,-,-,-,-,-,-,-,-,-,-,-,-,-,-,-,-,-,-,-,-,-,-,-,-,-,2022,02,05
121,122,567,Trang,Southern WestCoast,7.516666944,99.61666694,-,-,-,-,-,-,-,-,-,-,-,-,-,-,-,-,-,-,-,-,-,-,-,-,-,2022,02,05
122,123,570,Satun,Southern WestCoast,6.650000277999999,100.0833336,-,-,-,-,-,-,-,-,-,-,-,-,-,0.948223352432251,1.2073909044265747,-,-,-,-,-,-,-,-,-,2.1556143760681152,2022,02,05
