,ID,WMO_CODE,NAME_EN,Region,Latitude,Longitude,00Z,01Z,02Z,03Z,04Z,05Z,06Z,07Z,08Z,09Z,10Z,11Z,12Z,13Z,14Z,15Z,16Z,17Z,18Z,19Z,20Z,21Z,22Z,23Z,sum,year,month,day
0,1,300,Mae Hong Son,Northern,19.29897222,97.97577778,-,-,-,-,-,-,-,-,-,-,-,-,-,-,-,-,-,-,-,-,-,-,-,-,-,2022,03,28
1,2,325,Mae Sariang,Northern,18.16666667,97.93333333,-,-,-,-,-,-,-,-,-,-,-,-,-,-,-,-,-,-,-,-,-,-,-,-,-,2022,03,28
2,3,303,Chiang Rai,Northern,19.96138889,99.88138889,-,-,-,-,-,-,-,-,-,-,-,-,-,-,-,-,0.5800185799598694,-,-,-,-,-,-,-,0.5800185799598694,2022,03,28
3,4,304,Chiang Rai (1),Northern,19.87083333,99.78277778,-,-,-,-,-,-,-,-,-,-,-,-,-,-,0.10143408179283142,-,-,-,-,-,-,-,-,-,0.10143408179283142,2022,03,28
4,5,310,Phayao,Northern,19.13333333,99.9,-,-,-,-,-,-,-,-,-,-,-,-,-,0.17840765416622162,3.1033878326416016,-,-,1.7107816934585571,10.514371871948242,-,-,-,-,-,15.506948471069336,2022,03,28
5,6,327,Chiang Mai,Northern,18.79,98.97694444,-,-,-,-,-,-,-,-,-,-,-,-,-,-,-,0.13171829283237457,-,-,-,-,-,-,-,-,0.13171829283237457,2022,03,28
6,7,302,Doi Angkhlang,Northern,19.93138889,99.04833333,-,-,-,-,-,-,-,-,-,-,-,-,-,-,-,-,-,-,-,-,-,-,-,-,-,2022,03,28
7,8,331,Nan,Northern,18.77972222,100.7777778,-,-,-,-,-,-,-,-,-,-,-,-,-,-,-,-,0.11575353890657425,-,-,1.6100149154663086,5.405313968658447,2.090559482574463,0.2631945013999939,-,9.484835624694824,2022,03,28
8,9,333,Nan (1),Northern,18.86666667,100.75,-,-,-,-,-,-,-,-,-,-,0.010426323860883713,-,-,-,-,-,0.10796217620372772,-,-,1.8715026378631592,5.59385347366333,0.3341333568096161,0.6360291242599487,-,8.553906440734863,2022,03,28
9,10,315,Tha Wang Pha (2),Northern,19.11055556,100.8025,-,-,-,-,-,-,-,-,-,-,-,-,-,-,-,-,-,-,0.0762125700712204,1.2097747325897217,2.081533193588257,0.17157404124736786,0.9776848554611206,-,4.51677942276001,2022,03,28
10,11,307,Thung Chang (2),Northern,19.41194444,100.8835278,-,-,-,-,-,-,-,-,-,-,-,-,-,-,-,-,-,-,1.1736164093017578,0.7678644061088562,0.15887266397476196,0.12423665076494217,0.2757704257965088,-,2.5003604888916016,2022,03,28
11,12,329,Lamphun,Northern,18.56666667,99.03333333,-,-,-,-,-,-,-,-,-,-,-,-,-,-,-,-,-,-,-,-,-,-,-,-,-,2022,03,28
12,13,328,Lampang,Northern,18.33333333,99.51666667,-,-,-,-,-,-,-,-,-,-,-,-,-,-,-,-,-,-,3.571972608566284,0.12738697230815887,-,-,-,-,3.699359655380249,2022,03,28
13,14,334,Lampang (1),Northern,18.31666667,99.28333333,-,-,-,-,-,-,-,-,-,-,-,-,-,-,-,-,-,-,-,-,-,-,-,-,-,2022,03,28
14,15,324,Thoen,Northern,17.63661111,99.24475,-,-,-,-,-,-,-,-,-,-,-,-,-,-,-,-,6.43594217300415,4.4852471351623535,0.08314399421215057,-,-,-,-,-,11.00433349609375,2022,03,28
15,16,330,Phrae,Northern,18.16666667,100.1666667,-,-,-,-,-,-,-,-,-,-,-,-,-,-,0.07275694608688354,-,-,-,-,0.6644431948661804,2.98750376701355,4.7963385581970215,0.8574400544166565,-,9.3784818649292,2022,03,28
16,17,351,Uttaradit,Northern,17.61666667,100.1000028,-,-,-,-,-,-,-,-,-,-,-,-,-,-,-,-,-,-,0.10531093925237656,-,0.7663869261741638,0.7473888993263245,1.7059671878814697,0.1002790629863739,3.425333023071289,2022,03,28
17,18,372,Sukhothai,Northern,17.10611111,99.8,-,-,-,-,-,-,-,-,-,-,-,-,-,-,-,-,-,1.6009212732315063,-,-,-,-,-,-,1.6009212732315063,2022,03,28
18,19,373,Si Samrong (1),Northern,17.77361111,99.24944444,-,-,-,-,-,-,-,-,-,-,-,-,-,-,-,-,5.273619651794434,2.3935749530792236,0.24123980104923248,-,-,-,-,-,7.9084343910217285,2022,03,28
19,20,377,Bhumibol Dam,Northern,17.24391667,99.00252778,-,-,-,-,-,-,-,-,-,-,-,-,-,-,-,-,-,-,-,-,-,-,-,-,-,2022,03,28
20,21,376,Tak,Northern,16.87836111,99.14336111,-,-,-,-,-,-,-,-,-,-,-,-,-,-,-,-,-,-,-,-,-,-,-,-,-,2022,03,28
21,22,375,Mae Sot,Northern,16.65916667,98.55086111,-,-,-,-,-,-,-,-,-,-,-,-,-,-,-,-,-,-,-,-,-,-,-,-,-,2022,03,28
22,23,385,Umphang (2),Northern,16.02472222,98.86444444,-,-,-,-,-,-,-,-,-,-,-,-,-,-,-,-,-,-,-,-,-,-,-,-,-,2022,03,28
23,24,387,Doi Muser (1),Northern,16.75,98.93333611,-,-,-,-,-,-,-,-,-,-,-,-,-,-,-,-,-,-,-,-,-,-,-,-,-,2022,03,28
24,25,378,Phitsanulok,Northern,16.79622222,100.2759444,-,-,-,-,-,-,-,-,-,-,-,-,-,-,-,0.02244078926742077,-,-,-,-,-,-,-,-,0.02244078926742077,2022,03,28
25,26,374,Lom Sak (2),Northern,16.77363889,101.2494722,-,-,-,-,-,-,-,-,-,-,-,-,-,-,-,-,-,-,-,-,-,-,-,-,-,2022,03,28
26,27,379,Phetchabun,Northern,16.43333611,101.15,-,-,-,-,-,-,-,-,-,-,-,-,-,-,-,-,-,-,4.273257255554199,0.20745384693145752,-,-,-,-,4.480710983276367,2022,03,28
27,28,413,Wichian Buri (2),Northern,15.65694444,101.1083333,-,-,-,-,-,-,-,-,-,-,-,-,-,-,-,-,-,-,-,-,-,-,0.3060377538204193,0.20465433597564697,0.5106921195983887,2022,03,28
28,29,380,Kamphaeng Phet,Northern,16.48680556,99.52697222,-,-,-,-,-,-,-,-,-,-,-,-,-,-,-,-,1.4156097173690796,1.972095012664795,-,-,-,-,-,-,3.387704849243164,2022,03,28
29,30,386,Phicit (1),Northern,16.33861111,100.3671111,-,-,-,-,-,-,-,-,-,-,-,-,-,-,-,-,-,-,-,-,-,-,-,-,-,2022,03,28
30,31,352,Nong Khai,Northeastern,17.86716667,102.7330278,-,0.3528394103050232,1.1193597316741943,0.6342147588729858,-,0.3528394103050232,1.1193597316741943,0.6342147588729858,-,-,-,-,-,-,-,-,-,-,-,-,-,-,-,-,4.212827682495117,2022,03,28
31,32,353,Loei,Northeastern,17.45,101.7333333,-,-,-,-,-,-,-,-,-,-,-,-,-,-,-,-,-,-,-,-,-,-,-,-,-,2022,03,28
32,33,350,Loei (1),Northeastern,17.4,101.7333333,-,-,-,-,-,-,-,-,-,-,-,-,-,-,-,-,-,-,-,-,-,-,-,-,-,2022,03,28
33,34,354,Udon Thani,Northeastern,17.38333333,102.8,-,-,-,-,-,-,-,-,-,-,-,-,-,-,-,-,-,-,-,-,-,-,-,-,-,2022,03,28
34,35,357,Nakhon Phanom,Northeastern,17.41083333,104.7825,-,-,-,0.09546981751918793,-,-,-,0.09546981751918793,-,-,-,-,-,-,-,-,-,-,-,-,-,-,-,-,0.19093963503837585,2022,03,28
35,36,358,Nakhon Phanom (1),Northeastern,17.44305556,104.7736111,-,-,-,0.09546981751918793,-,-,-,0.09546981751918793,-,-,-,-,-,-,-,-,-,-,-,-,-,-,-,-,0.19093963503837585,2022,03,28
36,37,356,Sakon Nakhon,Northeastern,17.15000278,104.1333361,-,-,-,-,-,-,-,-,-,-,-,-,-,-,-,-,-,-,-,-,-,-,-,-,-,2022,03,28
37,38,355,Sakon Nakhon (1),Northeastern,17.12502778,104.061,0.0317818745970726,-,-,-,-,-,-,-,-,-,-,-,-,-,-,-,-,-,-,-,-,-,-,-,0.0635637491941452,2022,03,28
38,39,360,Nong Bua Lumphu,Northeastern,17.2325,102.4294444,-,-,-,-,-,-,-,-,-,-,-,-,-,-,-,-,-,-,-,-,-,-,-,-,-,2022,03,28
39,40,383,Mukdahan,Northeastern,16.54955556,104.7308889,0.23283609747886658,-,-,-,-,-,-,-,-,-,-,-,-,-,-,-,-,-,-,-,-,-,-,-,0.46567219495773315,2022,03,28
40,41,381,Khon Kaen,Northeastern,16.46111111,102.7897222,-,-,-,-,-,-,-,-,-,-,-,-,-,-,-,-,-,-,-,-,-,-,-,-,-,2022,03,28
41,42,384,Tha Pra (1),Northeastern,16.333,102.8166667,-,-,-,-,-,-,-,-,-,-,-,-,-,-,-,-,-,-,-,-,-,-,-,-,-,2022,03,28
42,43,382,Kosum Phisai (2),Northeastern,16.24722222,103.0680556,-,-,-,-,-,-,-,-,-,-,-,-,-,-,-,-,-,-,-,-,-,-,-,-,-,2022,03,28
43,44,390,Kamalasai (2),Northeastern,16.3325,103.5883333,-,-,-,-,-,-,-,-,-,-,-,-,-,-,-,-,-,-,-,-,-,-,-,-,-,2022,03,28
44,45,405,Roi Et,Northeastern,16.05000028,103.68333359999998,-,0.011564376763999462,-,-,-,0.011564376763999462,-,-,-,-,-,-,-,-,-,-,-,-,-,-,-,-,-,-,0.023128753527998924,2022,03,28
45,46,404,Roi Et (1),Northeastern,16.07322222,103.6084444,-,0.011564376763999462,-,-,-,0.011564376763999462,-,-,-,-,-,-,-,-,-,-,-,-,-,-,-,-,-,-,0.023128753527998924,2022,03,28
46,47,403,Chaiyaphum,Northeastern,15.80000028,102.0333336,-,-,-,-,-,-,-,-,-,-,-,-,-,-,-,-,0.2162298709154129,0.13211652636528015,-,0.4691588282585144,0.5701500773429871,0.4605470597743988,0.42300891876220703,0.2717546224594116,2.542965888977051,2022,03,28
47,48,407,Ubon Ratchathani,Northeastern,15.25000278,104.8666694,-,-,-,-,-,-,-,-,-,-,0.03144987300038338,0.24523219466209412,-,-,-,-,-,-,-,-,-,-,-,-,0.2766820788383484,2022,03,28
48,49,408,Ubon Ratchathani (1),Northeastern,15.24072222,105.01966670000002,-,-,-,-,-,-,-,-,-,-,-,-,-,-,-,-,-,-,-,-,-,-,-,-,-,2022,03,28
49,50,409,Si Saket (1),Northeastern,15.00000028,104.0500003,0.28736019134521484,0.29575422406196594,-,0.17175863683223724,0.22371609508991241,0.29575422406196594,-,0.17175863683223724,0.22371609508991241,0.24147772789001465,-,-,-,-,-,-,-,-,-,-,-,-,-,-,2.198655843734741,2022,03,28
50,51,416,Tha Tum (2),Northeastern,15.31666694,103.68333359999998,0.44590094685554504,0.332416832447052,-,0.3003527820110321,0.3265027403831482,0.332416832447052,-,0.3003527820110321,0.3265027403831482,0.3027645945549011,-,-,-,-,-,-,-,-,-,-,-,-,-,-,3.1131112575531006,2022,03,28
51,52,432,Surin,Northeastern,14.88333361,103.5000003,-,2.2327680587768555,1.6553301811218262,1.2769060134887695,0.679502546787262,2.2327680587768555,1.6553301811218262,1.2769060134887695,0.679502546787262,0.31388363242149353,0.04306827113032341,-,-,-,-,-,-,-,-,-,-,-,-,-,12.045966148376465,2022,03,28
52,53,433,Surin (1),Northeastern,14.88333361,103.4500003,0.46093112230300903,2.83699369430542,3.442803144454956,1.2811437845230103,0.7695320248603821,2.83699369430542,3.442803144454956,1.2811437845230103,0.7695320248603821,0.2720193862915039,-,-,-,-,-,-,-,-,-,-,-,-,-,-,17.854825973510742,2022,03,28
53,54,431,Nakhon Ratchasima,Northeastern,14.96830556,102.0860278,-,0.1511705070734024,-,-,-,0.1511705070734024,-,-,-,-,-,-,-,1.2205771207809448,2.6138875484466553,3.952669143676758,0.2417406588792801,1.814880132675171,-,-,-,-,-,-,10.146096229553223,2022,03,28
54,55,435,Pakchong (1),Northeastern,14.64388889,101.3319444,-,-,-,-,-,-,-,-,-,-,-,-,-,1.4816429615020752,3.0965139865875244,1.7818772792816162,2.4986085891723633,1.3095780611038208,0.19081488251686096,-,-,-,0.31487569212913513,0.1577470898628235,10.831658363342285,2022,03,28
55,56,434,Chok Chai (2),Northeastern,14.71888889,102.1686111,-,-,-,-,-,-,-,-,-,-,-,-,-,0.0852087065577507,1.7044191360473633,3.338630437850952,0.15242524445056915,1.4805437326431274,-,-,-,-,-,-,6.761227130889893,2022,03,28
56,57,437,Buri Ram,Northeastern,15.22575,103.2480833,0.526593804359436,0.17608262598514557,1.9779398441314697,0.8251393437385559,0.49688640236854553,0.17608262598514557,1.9779398441314697,0.8251393437385559,0.49688640236854553,0.3414773643016815,-,-,-,-,-,-,-,-,-,-,-,-,-,-,8.346761703491211,2022,03,28
57,58,436,Nang Rong (2),Northeastern,14.58333361,102.8000003,2.9093053340911865,5.167068004608154,1.68631911277771,-,0.7119690775871277,5.167068004608154,1.68631911277771,-,0.7119690775871277,0.12025555223226547,-,-,-,-,-,-,-,-,-,-,-,-,-,-,21.069580078125,2022,03,28
58,59,400,Nakhon Sawan,Central,15.67183333,100.1323611,-,-,-,-,-,-,-,-,-,-,-,-,-,1.265236258506775,0.07391668856143951,-,-,-,-,-,-,-,-,-,1.3391529321670532,2022,03,28
59,60,401,Takfa (1),Central,15.34944444,100.5302778,-,-,-,-,-,-,-,-,-,-,-,-,-,-,-,-,-,-,0.045066386461257935,0.06726472079753876,1.2127314805984497,0.40237101912498474,-,-,1.727433681488037,2022,03,28
60,61,402,Chai Nat,Central,15.15000278,100.18333359999998,-,-,-,-,-,-,-,-,-,-,-,-,-,-,-,-,-,-,-,-,-,-,-,-,-,2022,03,28
61,62,410,U Thai Thani,Central,15.37416667,100.0388889,-,-,-,-,-,-,-,-,-,-,-,-,-,-,1.47674560546875,3.6282644271850586,-,-,-,-,-,-,-,-,5.105010032653809,2022,03,28
62,63,415,Ayuthaya (1),Central,14.53472222,100.725,-,-,-,-,-,-,-,-,-,-,-,-,-,-,-,-,-,-,-,-,-,-,-,-,-,2022,03,28
63,64,418,Bua Chum (2),Central,15.10000028,101.6166669,-,-,-,-,-,-,-,-,-,-,-,-,-,-,-,-,0.32480964064598083,2.22229266166687,0.23196180164813995,-,-,-,-,-,2.7790639400482178,2022,03,28
64,65,426,Lop Buri,Central,14.79972222,100.6283333,-,-,-,-,-,-,-,-,-,-,-,-,-,-,-,-,-,-,-,-,-,-,-,-,-,2022,03,28
65,66,425,Suphan Buri,Central,14.47444444,100.1388889,-,-,-,-,-,-,-,-,-,-,-,-,-,0.8731326460838318,3.332615375518799,4.2485198974609375,-,-,-,-,-,-,-,-,8.454267501831055,2022,03,28
66,67,427,Uthong (1),Central,14.30361111,99.86472222,-,-,-,-,-,-,-,-,-,-,-,-,-,4.2877960205078125,5.886025428771973,6.616313934326172,-,-,-,-,-,-,-,-,16.79013442993164,2022,03,28
67,68,421,Thong Pha Phum,Central,14.74222222,98.63638889,-,-,-,-,-,-,-,-,-,-,-,-,-,-,-,-,-,-,-,-,-,-,-,-,-,2022,03,28
68,69,450,Kanchanaburi,Central,14.0225,99.53583333,-,-,-,-,-,-,-,-,-,-,-,-,-,0.25905290246009827,3.6188201904296875,4.768253803253174,4.634154796600342,4.267656326293945,-,-,-,-,-,-,17.547937393188477,2022,03,28
69,70,464,Ratcha Buri (1),Central,13.48930556,99.79238889,-,-,-,-,-,-,-,-,-,-,-,-,-,-,-,-,62.408504486083984,18.018098831176758,1.5803782939910889,-,-,-,-,-,82.0069808959961,2022,03,28
70,71,451,Kampheang Saen (1),Central,14.01166667,99.97,-,-,-,-,-,-,-,-,-,-,-,-,-,-,1.7570831775665283,4.895351886749268,1.5331498384475708,1.4919019937515259,-,-,-,-,-,-,9.67748737335205,2022,03,28
71,72,419,Pathum Thani (1),Central,14.1,100.616,-,-,-,-,-,-,-,-,-,-,-,-,-,-,-,-,-,-,-,-,-,-,-,-,-,2022,03,28
72,73,420,Samut Prakan,Central,13.51666694,100.7616667,-,-,-,-,-,-,-,-,-,-,-,-,-,-,-,-,-,-,-,-,-,-,-,-,-,2022,03,28
73,74,429,Suvarnabhumi Airport,Central,13.68638889,100.7675,-,-,-,-,-,-,-,-,-,-,-,-,-,-,-,-,-,-,-,-,-,-,-,-,-,2022,03,28
74,75,456,Don Muang Airport,Central,13.91916667,100.605,-,-,-,-,-,-,-,-,-,-,-,-,-,-,-,-,-,-,-,-,-,-,-,-,-,2022,03,28
75,76,455,Sirikit Center,Central,13.72638889,100.56,-,-,-,-,-,-,-,-,-,-,-,-,-,-,-,-,-,-,-,-,-,-,-,-,-,2022,03,28
76,77,454,Bangkok Port,Central,13.70694444,100.5680556,-,-,-,-,-,-,-,-,-,-,-,-,-,-,-,-,-,-,-,-,-,-,-,-,-,2022,03,28
77,78,453,Bang Na (1),Central,13.66638889,100.6061111,-,-,-,-,-,-,-,-,-,-,-,-,-,-,-,-,-,-,-,-,-,-,-,-,-,2022,03,28
78,79,457,Bangkok Pilot,Central,13.37722222,100.5994444,-,-,-,-,-,-,-,-,-,-,-,-,-,-,-,-,-,-,-,-,-,-,-,-,-,2022,03,28
79,80,430,Prachin Buri,Eastern,14.05091667,101.3693056,-,-,-,-,-,-,-,-,-,-,-,-,-,-,-,-,0.7177847623825073,-,-,-,-,-,-,-,0.7177847623825073,2022,03,28
80,81,439,Kabin Buri (2),Eastern,13.98333361,101.7072222,-,-,-,-,-,-,-,-,-,-,-,-,-,-,-,-,-,-,-,-,-,-,-,-,-,2022,03,28
81,82,440,Sa Kaeo (2),Eastern,13.78888889,102.0347222,-,-,-,-,-,-,-,-,-,-,-,-,-,-,-,-,-,-,-,-,-,-,-,-,-,2022,03,28
82,83,462,Aranyaprathet,Eastern,13.70000028,102.5833336,-,-,-,-,-,-,-,-,-,-,-,-,-,-,-,-,-,-,-,-,-,-,-,-,-,2022,03,28
83,84,458,Chachoengsao (1),Eastern,13.51555556,101.4583333,-,-,-,-,-,-,-,-,-,-,-,-,-,2.004251480102539,3.759572744369507,4.758896827697754,-,-,-,-,-,-,-,-,10.522721290588379,2022,03,28
84,85,459,Chon Buri,Eastern,13.36666694,100.9833336,-,-,-,-,-,-,-,-,-,-,-,-,-,-,-,-,-,-,-,-,-,-,-,-,-,2022,03,28
85,86,463,Laem Chabang,Eastern,13.07694444,100.8758333,-,-,-,-,-,-,-,-,-,-,-,-,-,-,-,-,-,-,-,-,-,-,-,-,-,2022,03,28
86,87,460,Ko Sichang,Eastern,13.16166667,100.8019444,-,-,-,-,-,-,-,-,-,-,-,-,-,-,-,-,-,-,-,-,-,-,-,-,-,2022,03,28
87,88,461,Pattaya,Eastern,12.92,100.8694444,-,-,-,-,-,-,-,-,-,-,-,-,-,-,-,-,-,-,-,-,-,-,-,-,-,2022,03,28
88,89,477,Sattahip,Eastern,12.68333361,100.9833336,-,-,-,-,-,-,-,-,-,-,-,-,-,-,-,-,-,-,-,-,-,-,-,-,-,2022,03,28
89,90,478,Rayong,Eastern,12.61702778,101.34075,-,-,-,-,-,-,-,-,-,-,-,-,-,-,-,-,-,-,-,-,-,-,-,-,-,2022,03,28
90,91,479,Huai Pong (1),Eastern,12.73333361,101.1333336,-,-,-,-,-,-,-,-,-,-,-,-,-,-,-,-,-,-,-,-,-,-,-,-,-,2022,03,28
91,92,480,Chanthaburi,Eastern,12.61666694,102.1133333,-,-,-,-,-,-,-,-,-,-,-,-,-,0.8098365664482117,-,-,-,-,-,-,-,-,-,-,0.8098365664482117,2022,03,28
92,93,481,Pluei (1),Eastern,12.50861111,102.1730556,-,-,-,-,-,-,-,-,-,-,-,-,-,3.2061948776245117,3.3162083625793457,3.711181640625,-,-,-,-,-,-,-,-,10.233585357666016,2022,03,28
93,94,501,Khlong Yai,Eastern,11.76666694,102.8833336,-,-,-,-,-,-,-,-,-,-,-,-,-,0.2337232083082199,3.1922662258148193,6.211419105529785,-,-,0.40302976965904236,0.32631370425224304,0.06995518505573273,0.0914282351732254,-,-,10.5281343460083,2022,03,28
94,95,465,Phetchaburi,Southern EastCoast,12.99930556,100.0605278,-,-,-,-,-,-,-,-,-,-,-,-,-,-,-,-,-,-,-,-,-,-,-,-,-,2022,03,28
95,96,474,Nong Plub (1),Southern EastCoast,12.58925,99.73461111,-,-,-,-,-,-,-,-,-,-,-,-,-,-,-,-,-,-,-,-,-,-,-,-,-,2022,03,28
96,97,475,Hua Hin,Southern EastCoast,12.57797222,99.95372222,-,-,-,-,-,-,-,-,-,-,-,-,-,-,-,-,-,-,-,-,-,-,-,-,-,2022,03,28
97,98,500,Prachuap Khiri Khan,Southern EastCoast,11.83497222,99.81047222,-,-,-,-,-,-,-,-,-,-,-,-,-,-,-,-,-,-,-,-,-,-,-,-,-,2022,03,28
98,99,517,Chumphon,Southern EastCoast,10.49875,99.18847222,-,-,-,-,-,-,-,-,-,-,-,-,-,-,-,-,-,-,-,-,-,-,-,-,-,2022,03,28
99,100,520,Sawee (1),Southern EastCoast,10.33063889,99.09186111,-,-,-,-,-,-,-,-,-,-,-,-,-,-,-,-,-,-,-,-,-,-,-,-,-,2022,03,28
100,101,551,Surat Thani,Southern EastCoast,9.1335,99.15213889,-,-,-,-,-,-,-,-,-,-,-,-,-,-,-,-,-,-,-,-,-,-,-,-,-,2022,03,28
101,102,555,Surat Thani (1),Southern EastCoast,9.144805556,99.63361111,-,-,-,-,-,-,-,-,-,-,-,-,-,-,-,-,-,-,-,-,-,-,-,-,-,2022,03,28
102,103,550,Ko Samui,Southern EastCoast,9.466666667,100.05,-,-,-,-,-,-,-,-,-,-,-,-,-,-,-,-,-,-,-,-,-,-,-,-,-,2022,03,28
103,104,556,Prasang (2),Southern EastCoast,8.572083333,99.25519444,-,-,-,-,-,-,-,-,-,-,-,-,-,-,-,-,-,-,-,-,-,-,-,-,-,2022,03,28
104,105,557,Chawang (2),Southern EastCoast,8.424694444,99.50661111,-,-,-,-,-,-,-,-,-,-,-,-,-,-,-,-,-,-,-,-,-,-,-,-,-,2022,03,28
105,106,552,Nakhon Si Thammarat,Southern EastCoast,8.537777777999999,99.94722222,-,-,-,-,-,-,-,-,-,-,-,-,-,-,-,-,-,-,-,-,-,-,-,-,-,2022,03,28
106,107,554,Nakhon Si Thammarat (1),Southern EastCoast,8.359305556,100.0,-,-,-,-,-,-,-,-,-,-,-,-,-,-,-,-,-,-,-,-,-,-,-,-,-,2022,03,28
107,108,560,Pattalung (1),Southern EastCoast,7.583333611,100.1666669,-,-,-,-,-,-,-,-,-,-,-,-,-,-,-,-,-,-,-,-,-,-,-,-,-,2022,03,28
108,109,568,Songkhla,Southern EastCoast,7.182111111,100.6076944,-,-,-,-,-,-,-,-,-,-,-,-,-,-,-,-,-,-,-,-,-,-,-,-,-,2022,03,28
109,110,569,Hat Yai,Southern EastCoast,6.916666944,100.43333359999998,-,-,-,-,-,-,-,-,-,-,-,-,-,-,-,-,-,-,-,-,-,-,-,-,-,2022,03,28
110,111,571,Korhong (1),Southern EastCoast,7.0,100.5,-,-,-,-,-,-,-,-,-,-,-,-,-,-,-,-,-,-,-,-,-,-,-,-,-,2022,03,28
111,112,574,Sa Dao (2),Southern EastCoast,6.798055556,100.3905556,-,-,-,-,-,-,-,-,-,-,-,-,-,6.834838390350342,-,-,-,-,-,-,-,-,-,-,6.834838390350342,2022,03,28
112,113,580,Pattani,Southern EastCoast,6.7833336110000015,101.1500003,-,-,-,-,-,-,-,-,-,-,-,-,-,-,-,-,-,-,-,-,-,-,-,-,-,2022,03,28
113,114,581,Yala (1),Southern EastCoast,6.050000278,101.2833336,-,-,-,-,-,-,-,-,-,-,-,-,-,-,-,-,-,-,-,-,-,-,-,-,-,2022,03,28
114,115,583,Narathiwat,Southern EastCoast,6.416666944,101.81666690000002,-,-,-,-,-,-,-,-,-,-,-,-,-,-,-,-,-,-,-,-,-,-,-,-,-,2022,03,28
115,116,532,Ranong,Southern WestCoast,9.983333611,98.61666694,-,-,-,-,-,-,-,-,-,-,-,-,-,-,-,-,-,-,-,-,-,-,-,-,-,2022,03,28
116,117,561,Takua Pa,Southern WestCoast,8.684166667000001,98.25222222,-,-,-,-,-,-,-,-,-,-,-,-,-,1.5527461767196655,-,-,-,-,-,-,-,-,-,-,1.5527461767196655,2022,03,28
117,118,564,Phuket,Southern WestCoast,7.883333611,98.40000028,-,-,-,-,-,-,-,-,-,-,-,-,-,-,-,-,-,-,-,-,-,-,-,-,-,2022,03,28
118,119,565,Phuket Airport,Southern WestCoast,8.145,98.31444444,-,-,-,-,-,-,-,-,-,-,-,-,-,-,-,-,-,-,-,-,-,-,-,-,-,2022,03,28
119,120,563,Krabi,Southern WestCoast,8.103611111000001,98.97527778,-,-,-,-,-,-,-,-,-,-,-,-,-,-,-,2.234355926513672,2.261497735977173,-,-,-,-,-,-,-,4.495853424072266,2022,03,28
120,121,566,Ko Lanta,Southern WestCoast,7.5333336110000015,99.05000028,-,-,-,-,-,-,-,-,-,-,-,-,-,-,2.3466601371765137,5.86661434173584,3.675433397293091,-,-,-,-,-,-,-,11.888707160949707,2022,03,28
121,122,567,Trang,Southern WestCoast,7.516666944,99.61666694,-,-,-,-,-,-,-,-,-,-,-,-,-,2.0363245010375977,-,-,-,-,-,-,-,-,-,-,2.0363245010375977,2022,03,28
122,123,570,Satun,Southern WestCoast,6.650000277999999,100.0833336,-,-,-,-,-,-,-,-,-,-,-,-,-,0.983203649520874,7.090935707092285,-,-,-,-,-,-,-,-,-,8.074139595031738,2022,03,28
