,ID,WMO_CODE,NAME_EN,Region,Latitude,Longitude,00Z,01Z,02Z,03Z,04Z,05Z,06Z,07Z,08Z,09Z,10Z,11Z,12Z,13Z,14Z,15Z,16Z,17Z,18Z,19Z,20Z,21Z,22Z,23Z,sum,year,month,day
0,1,300,Mae Hong Son,Northern,19.29897222,97.97577778,-,-,-,-,-,-,-,-,-,-,-,-,-,-,0.49039995670318604,0.24017567932605743,-,-,-,-,-,-,-,-,0.7305756211280823,2022,06,05
1,2,325,Mae Sariang,Northern,18.16666667,97.93333333,-,-,-,-,-,-,-,-,-,-,-,-,-,-,-,-,-,-,-,-,-,-,-,-,-,2022,06,05
2,3,303,Chiang Rai,Northern,19.96138889,99.88138889,-,-,-,-,-,-,-,-,-,-,-,-,-,-,-,-,-,-,-,-,-,-,-,-,-,2022,06,05
3,4,304,Chiang Rai (1),Northern,19.87083333,99.78277778,-,-,-,-,-,-,-,-,-,-,-,-,-,-,-,-,-,-,-,-,-,-,-,-,-,2022,06,05
4,5,310,Phayao,Northern,19.13333333,99.9,-,-,-,-,-,-,-,-,-,-,-,-,-,-,-,-,-,0.6680164337158203,0.6798787117004395,0.06496258080005646,-,-,-,-,1.4128577709197998,2022,06,05
5,6,327,Chiang Mai,Northern,18.79,98.97694444,-,-,-,-,-,-,-,-,-,-,-,-,-,-,-,-,1.3031247854232788,1.908631682395935,1.176645040512085,0.15136121213436127,-,-,-,-,4.539762496948242,2022,06,05
6,7,302,Doi Angkhlang,Northern,19.93138889,99.04833333,-,-,-,-,-,-,-,-,-,-,-,-,-,-,-,-,-,-,-,-,-,-,-,-,-,2022,06,05
7,8,331,Nan,Northern,18.77972222,100.7777778,-,-,-,-,-,-,-,-,-,-,-,-,-,-,-,-,-,-,-,-,-,-,-,-,-,2022,06,05
8,9,333,Nan (1),Northern,18.86666667,100.75,-,-,-,-,-,-,-,-,-,-,-,-,-,-,-,-,-,-,-,-,-,-,-,-,-,2022,06,05
9,10,315,Tha Wang Pha (2),Northern,19.11055556,100.8025,-,-,-,-,-,-,-,-,-,-,-,-,-,-,-,-,-,-,-,-,-,-,0.08057944476604462,-,0.08057944476604462,2022,06,05
10,11,307,Thung Chang (2),Northern,19.41194444,100.8835278,-,-,-,-,-,-,-,-,-,-,-,-,-,-,-,-,-,-,-,-,-,-,-,-,-,2022,06,05
11,12,329,Lamphun,Northern,18.56666667,99.03333333,-,-,-,-,-,-,-,-,-,-,-,-,-,0.12702065706253052,0.18225878477096558,1.0327701568603516,-,-,-,-,-,-,-,-,1.3420495986938477,2022,06,05
12,13,328,Lampang,Northern,18.33333333,99.51666667,-,-,-,-,-,-,-,-,-,-,-,-,-,1.9285110235214233,3.221903085708618,3.7790451049804688,-,-,-,-,-,-,-,-,8.929458618164062,2022,06,05
13,14,334,Lampang (1),Northern,18.31666667,99.28333333,-,-,-,-,-,-,-,-,-,-,-,-,1.0134961605072021,1.9707876443862915,1.5624775886535645,2.1157233715057373,-,-,-,-,-,-,-,-,6.662485122680664,2022,06,05
14,15,324,Thoen,Northern,17.63661111,99.24475,-,-,-,-,-,-,-,-,-,-,-,-,-,-,-,-,0.2381184995174408,0.09882990270853043,-,-,-,-,-,-,0.3369483947753906,2022,06,05
15,16,330,Phrae,Northern,18.16666667,100.1666667,-,-,-,-,-,-,-,-,-,-,-,-,-,-,-,-,-,-,-,-,-,-,-,-,-,2022,06,05
16,17,351,Uttaradit,Northern,17.61666667,100.1000028,-,-,-,-,-,-,-,-,-,-,-,-,-,-,-,-,-,-,-,-,-,-,-,-,-,2022,06,05
17,18,372,Sukhothai,Northern,17.10611111,99.8,-,-,-,-,-,-,-,-,-,-,-,-,-,-,-,-,-,-,-,-,-,-,-,-,-,2022,06,05
18,19,373,Si Samrong (1),Northern,17.77361111,99.24944444,-,-,-,-,-,-,-,-,-,-,-,-,0.7275739312171936,0.1425965428352356,-,-,0.20641224086284637,0.13080544769763947,-,-,-,-,-,-,1.207388162612915,2022,06,05
19,20,377,Bhumibol Dam,Northern,17.24391667,99.00252778,-,-,-,-,-,-,-,-,-,-,-,-,-,-,-,-,-,-,-,-,-,-,-,-,-,2022,06,05
20,21,376,Tak,Northern,16.87836111,99.14336111,-,-,-,-,-,-,-,-,-,-,0.2880237102508545,1.6263315677642822,-,-,-,-,-,-,-,-,-,-,-,-,1.9143552780151367,2022,06,05
21,22,375,Mae Sot,Northern,16.65916667,98.55086111,-,-,-,-,-,-,-,-,-,-,0.16174328327178955,0.04424656927585602,-,-,-,-,-,-,-,-,-,-,-,-,0.20598985254764557,2022,06,05
22,23,385,Umphang (2),Northern,16.02472222,98.86444444,-,-,-,-,-,-,-,-,-,-,-,-,-,-,-,-,-,-,-,-,-,-,-,-,-,2022,06,05
23,24,387,Doi Muser (1),Northern,16.75,98.93333611,-,-,-,-,-,-,-,-,-,-,0.2561461627483368,0.6892601251602173,-,-,-,-,-,-,-,-,-,-,-,-,0.9454063177108765,2022,06,05
24,25,378,Phitsanulok,Northern,16.79622222,100.2759444,-,-,-,-,-,-,-,-,-,-,-,-,-,-,-,-,-,-,-,-,-,-,-,-,-,2022,06,05
25,26,374,Lom Sak (2),Northern,16.77363889,101.2494722,-,-,-,-,-,-,-,-,-,-,-,-,-,-,-,-,-,-,-,-,-,-,-,-,-,2022,06,05
26,27,379,Phetchabun,Northern,16.43333611,101.15,-,-,-,-,-,-,-,-,-,-,-,-,-,-,-,-,-,-,-,-,-,-,-,-,-,2022,06,05
27,28,413,Wichian Buri (2),Northern,15.65694444,101.1083333,-,-,-,-,-,-,-,-,-,-,-,0.06665357947349548,-,-,-,-,-,-,-,-,-,-,-,-,0.06665357947349548,2022,06,05
28,29,380,Kamphaeng Phet,Northern,16.48680556,99.52697222,-,-,-,-,-,-,-,-,-,-,-,-,-,-,-,-,-,-,-,-,-,-,-,-,-,2022,06,05
29,30,386,Phicit (1),Northern,16.33861111,100.3671111,-,-,-,-,-,-,-,-,-,-,-,-,-,-,-,-,-,-,-,-,-,-,-,-,-,2022,06,05
30,31,352,Nong Khai,Northeastern,17.86716667,102.7330278,-,-,-,-,-,-,-,-,-,-,-,-,-,-,-,-,-,-,-,-,-,-,-,-,-,2022,06,05
31,32,353,Loei,Northeastern,17.45,101.7333333,-,-,-,-,-,-,-,-,-,-,-,-,-,-,-,-,-,-,-,-,-,-,-,-,-,2022,06,05
32,33,350,Loei (1),Northeastern,17.4,101.7333333,-,-,-,-,-,-,-,-,-,-,-,-,-,-,-,-,-,-,-,-,-,-,-,-,-,2022,06,05
33,34,354,Udon Thani,Northeastern,17.38333333,102.8,-,-,-,-,-,-,-,-,-,-,-,-,-,-,-,-,-,-,-,-,-,-,-,-,-,2022,06,05
34,35,357,Nakhon Phanom,Northeastern,17.41083333,104.7825,-,-,-,-,-,-,-,-,-,-,-,-,-,-,-,-,-,-,-,-,-,-,-,-,-,2022,06,05
35,36,358,Nakhon Phanom (1),Northeastern,17.44305556,104.7736111,-,-,-,-,-,-,-,-,-,-,-,-,-,-,-,-,-,-,-,-,-,-,-,-,-,2022,06,05
36,37,356,Sakon Nakhon,Northeastern,17.15000278,104.1333361,-,-,-,-,-,-,-,-,-,-,-,-,-,-,-,-,-,-,-,-,-,-,-,-,-,2022,06,05
37,38,355,Sakon Nakhon (1),Northeastern,17.12502778,104.061,-,-,-,-,-,-,-,-,-,-,-,-,-,-,-,-,-,-,-,-,-,-,-,-,-,2022,06,05
38,39,360,Nong Bua Lumphu,Northeastern,17.2325,102.4294444,-,-,-,-,-,-,-,-,-,-,-,-,-,-,-,-,-,-,-,-,-,-,-,-,-,2022,06,05
39,40,383,Mukdahan,Northeastern,16.54955556,104.7308889,-,-,-,-,-,-,-,-,-,-,-,-,-,-,-,-,-,-,-,-,-,-,-,-,-,2022,06,05
40,41,381,Khon Kaen,Northeastern,16.46111111,102.7897222,-,-,0.24835720658302307,-,-,-,0.24835720658302307,-,-,-,-,-,-,-,-,-,-,0.10836745798587799,0.05140770226716995,0.030354823917150497,-,-,-,-,0.6868444085121155,2022,06,05
41,42,384,Tha Pra (1),Northeastern,16.333,102.8166667,-,-,0.6088905334472656,-,-,-,0.6088905334472656,-,-,-,-,-,-,-,-,-,-,-,-,-,-,-,-,-,1.2177810668945312,2022,06,05
42,43,382,Kosum Phisai (2),Northeastern,16.24722222,103.0680556,-,-,0.5701673030853271,-,-,-,0.5701673030853271,-,-,-,-,-,-,-,-,-,-,-,-,-,-,-,-,-,1.1403346061706543,2022,06,05
43,44,390,Kamalasai (2),Northeastern,16.3325,103.5883333,-,-,1.140597939491272,-,-,-,1.140597939491272,-,-,-,-,-,-,-,-,-,0.7008751034736633,-,-,-,-,-,-,-,2.9820709228515625,2022,06,05
44,45,405,Roi Et,Northeastern,16.05000028,103.68333359999998,-,-,0.19397057592868805,-,-,-,0.19397057592868805,-,-,-,-,-,-,-,-,-,-,-,-,-,-,-,-,-,0.3879411518573761,2022,06,05
45,46,404,Roi Et (1),Northeastern,16.07322222,103.6084444,-,-,0.19397057592868805,-,-,-,0.19397057592868805,-,-,-,-,-,-,-,-,-,-,-,-,-,-,-,-,-,0.3879411518573761,2022,06,05
46,47,403,Chaiyaphum,Northeastern,15.80000028,102.0333336,-,-,-,-,-,-,-,-,-,-,-,-,-,-,-,-,-,-,-,-,-,-,-,-,-,2022,06,05
47,48,407,Ubon Ratchathani,Northeastern,15.25000278,104.8666694,-,-,-,-,-,-,-,-,-,-,0.08391831815242767,0.3245123028755188,-,-,-,-,-,-,-,-,-,-,-,-,0.40843063592910767,2022,06,05
48,49,408,Ubon Ratchathani (1),Northeastern,15.24072222,105.01966670000002,-,-,-,-,-,-,-,-,-,-,-,-,-,-,-,-,-,-,-,-,-,-,-,-,-,2022,06,05
49,50,409,Si Saket (1),Northeastern,15.00000028,104.0500003,-,-,-,-,-,-,-,-,-,-,-,-,-,-,-,-,-,-,-,-,-,-,-,-,-,2022,06,05
50,51,416,Tha Tum (2),Northeastern,15.31666694,103.68333359999998,-,-,0.4320024847984314,-,-,-,0.4320024847984314,-,-,-,-,-,-,-,-,3.6846609115600586,2.0036990642547607,-,-,-,-,-,-,-,6.552364826202393,2022,06,05
51,52,432,Surin,Northeastern,14.88333361,103.5000003,-,-,0.3274739384651184,-,-,-,0.3274739384651184,-,-,-,-,-,-,-,0.4963725209236145,1.3088672161102295,-,-,-,-,-,-,1.0061110258102417,0.1822054386138916,3.6485042572021484,2022,06,05
52,53,433,Surin (1),Northeastern,14.88333361,103.4500003,-,-,0.14911992847919464,-,-,-,0.14911992847919464,-,-,-,-,-,0.18455655872821808,-,-,-,-,-,-,-,3.0492467880249023,0.4969092607498169,1.6089533567428589,0.2371121495962143,5.875018119812012,2022,06,05
53,54,431,Nakhon Ratchasima,Northeastern,14.96830556,102.0860278,-,-,-,-,-,-,-,-,-,-,-,-,0.2309507578611374,0.16766053438186646,0.22334375977516174,1.4226558208465576,-,-,-,-,-,-,-,-,2.0446109771728516,2022,06,05
54,55,435,Pakchong (1),Northeastern,14.64388889,101.3319444,0.0875067412853241,-,-,-,-,-,-,-,-,-,-,-,-,-,-,-,-,-,-,-,-,-,-,-,0.1750134825706482,2022,06,05
55,56,434,Chok Chai (2),Northeastern,14.71888889,102.1686111,-,-,-,-,-,-,-,-,-,-,-,-,2.2450244426727295,-,-,2.6487491130828857,-,-,-,-,-,-,-,-,4.893773555755615,2022,06,05
56,57,437,Buri Ram,Northeastern,15.22575,103.2480833,-,-,-,-,-,-,-,-,-,-,-,-,-,-,-,-,-,-,-,-,-,-,0.5423004627227783,0.4565809965133667,0.998881459236145,2022,06,05
57,58,436,Nang Rong (2),Northeastern,14.58333361,102.8000003,-,-,-,-,-,-,-,-,-,-,-,-,0.1361076533794403,0.29433369636535645,0.09443630278110504,1.3673055171966553,-,-,-,-,-,-,-,-,1.8921831846237183,2022,06,05
58,59,400,Nakhon Sawan,Central,15.67183333,100.1323611,-,-,-,-,-,-,-,-,-,-,-,-,-,-,-,-,1.336190938949585,1.5469460487365723,2.1915719509124756,1.7417773008346558,0.8726549744606018,0.17251990735530853,-,-,7.861660957336426,2022,06,05
59,60,401,Takfa (1),Central,15.34944444,100.5302778,0.47034814953804016,-,-,-,-,-,-,-,-,-,-,-,-,-,-,-,-,2.4851016998291016,3.2385294437408447,2.6927733421325684,0.3071095943450928,0.205893412232399,-,-,9.870104789733887,2022,06,05
60,61,402,Chai Nat,Central,15.15000278,100.18333359999998,0.6835223436355591,-,-,-,-,-,-,-,-,-,-,-,-,-,-,-,6.521708965301514,7.158198356628418,5.405028820037842,2.7939236164093018,0.8999178409576416,0.4809119999408722,-,-,24.62673568725586,2022,06,05
61,62,410,U Thai Thani,Central,15.37416667,100.0388889,0.45223167538642883,-,-,-,-,-,-,-,-,-,-,-,-,-,-,-,6.319379806518555,7.595244407653809,7.167486190795898,1.0926284790039062,1.0025190114974976,0.34849223494529724,-,-,24.430213928222656,2022,06,05
62,63,415,Ayuthaya (1),Central,14.53472222,100.725,0.7027403116226196,-,-,-,-,-,-,-,-,-,-,-,-,-,-,-,-,1.2133127450942993,1.7344391345977783,1.6587713956832886,0.6503190398216248,0.4884517788887024,0.08872311562299728,-,7.239498138427734,2022,06,05
63,64,418,Bua Chum (2),Central,15.10000028,101.6166669,-,-,-,-,-,-,-,-,-,-,-,-,-,-,-,-,-,-,-,-,-,-,-,-,-,2022,06,05
64,65,426,Lop Buri,Central,14.79972222,100.6283333,0.8243082165718079,-,-,-,-,-,-,-,-,-,-,-,-,-,-,-,0.9105074405670166,0.9433655738830566,0.8856841921806335,0.25139787793159485,0.20255373418331146,0.33649852871894836,-,-,5.178624153137207,2022,06,05
65,66,425,Suphan Buri,Central,14.47444444,100.1388889,1.763824224472046,0.3739593029022217,0.362621009349823,-,-,0.3739593029022217,0.362621009349823,-,-,-,-,-,0.052869364619255066,0.12176170200109482,0.032532207667827606,0.09299495071172714,0.8856597542762756,1.6366591453552246,2.018038272857666,0.8037829995155334,0.7325587868690491,0.3648238182067871,-,-,11.742491722106934,2022,06,05
66,67,427,Uthong (1),Central,14.30361111,99.86472222,-,-,-,-,-,-,-,-,-,-,-,-,0.12873198091983795,-,-,-,0.3603667914867401,-,1.970873236656189,2.1143758296966553,0.6326113939285278,0.31165969371795654,-,-,5.518618583679199,2022,06,05
67,68,421,Thong Pha Phum,Central,14.74222222,98.63638889,0.2097063809633255,-,-,-,-,-,-,-,-,-,-,-,-,0.24481728672981262,1.8497086763381958,3.4256176948547363,0.7014923095703125,2.146740198135376,2.8968026638031006,2.032846450805664,0.981881320476532,0.35245436429977417,-,-,15.051773071289062,2022,06,05
68,69,450,Kanchanaburi,Central,14.0225,99.53583333,-,-,-,-,-,-,-,-,-,-,-,-,-,-,-,-,-,-,-,-,-,1.096229910850525,-,-,1.096229910850525,2022,06,05
69,70,464,Ratcha Buri (1),Central,13.48930556,99.79238889,-,-,-,-,-,-,-,-,-,-,-,-,-,-,-,-,-,-,-,-,-,-,-,-,-,2022,06,05
70,71,451,Kampheang Saen (1),Central,14.01166667,99.97,1.9238115549087524,1.3698517084121704,-,-,-,1.3698517084121704,-,-,-,-,-,-,-,-,-,-,-,-,-,-,-,-,-,-,6.587326526641846,2022,06,05
71,72,419,Pathum Thani (1),Central,14.1,100.616,1.1064047813415527,-,-,-,-,-,-,-,-,-,-,-,-,-,-,-,-,-,-,-,-,2.4328572750091553,0.5075781345367432,0.28124573826789856,5.43449068069458,2022,06,05
72,73,420,Samut Prakan,Central,13.51666694,100.7616667,-,-,-,-,-,-,-,-,-,-,-,-,-,-,-,-,-,-,-,-,-,0.4109237492084503,-,-,0.4109237492084503,2022,06,05
73,74,429,Suvarnabhumi Airport,Central,13.68638889,100.7675,-,-,-,-,-,-,-,-,-,-,-,-,-,-,-,-,-,-,-,-,-,-,-,0.8645988702774048,0.8645988702774048,2022,06,05
74,75,456,Don Muang Airport,Central,13.91916667,100.605,1.8816685676574707,-,-,-,-,-,-,-,-,-,-,-,-,1.8897250890731812,3.0597667694091797,4.461915016174316,-,-,-,-,-,-,0.16452525556087494,0.4424736797809601,13.781742095947266,2022,06,05
75,76,455,Sirikit Center,Central,13.72638889,100.56,1.8131978511810303,-,-,-,-,-,-,-,-,-,-,-,0.7757026553153992,0.4458814859390259,2.731309413909912,4.401972770690918,-,-,-,-,-,-,0.09520437568426132,0.7995011210441589,12.875967979431152,2022,06,05
76,77,454,Bangkok Port,Central,13.70694444,100.5680556,1.8131978511810303,-,-,-,-,-,-,-,-,-,-,-,0.7757026553153992,0.4458814859390259,2.731309413909912,4.401972770690918,-,-,-,-,-,-,0.09520437568426132,0.7995011210441589,12.875967979431152,2022,06,05
77,78,453,Bang Na (1),Central,13.66638889,100.6061111,-,-,-,-,-,-,-,-,-,-,-,-,-,-,-,-,-,-,-,-,-,-,-,0.8529225587844849,0.8529225587844849,2022,06,05
78,79,457,Bangkok Pilot,Central,13.37722222,100.5994444,-,-,-,-,-,-,-,-,-,-,-,-,-,-,-,-,1.9099795818328857,3.7925679683685303,1.932612657546997,-,-,-,-,-,7.635160446166992,2022,06,05
79,80,430,Prachin Buri,Eastern,14.05091667,101.3693056,0.13547682762145996,-,-,-,-,-,-,-,-,-,-,-,-,-,-,-,0.5386391878128052,-,-,-,-,-,0.4480521082878113,0.393093079328537,1.650738000869751,2022,06,05
80,81,439,Kabin Buri (2),Eastern,13.98333361,101.7072222,-,-,-,-,-,-,-,-,-,-,-,-,0.5560415387153625,-,-,0.08036647737026215,-,-,-,-,-,-,0.7139118313789368,0.2796885669231415,1.6300084590911865,2022,06,05
81,82,440,Sa Kaeo (2),Eastern,13.78888889,102.0347222,-,-,-,-,-,-,-,-,-,-,0.032119154930114746,0.030834754928946495,1.8422613143920898,1.0124664306640625,1.8442554473876953,1.9430631399154663,1.892022728919983,-,-,-,-,-,-,-,8.597023010253906,2022,06,05
82,83,462,Aranyaprathet,Eastern,13.70000028,102.5833336,-,-,-,-,-,-,-,-,-,-,-,-,-,-,2.4924497604370117,3.8181777000427246,-,0.06724002212285995,0.07661820203065872,0.03305114433169365,0.029904503375291824,0.03885817527770996,-,-,6.556299209594727,2022,06,05
83,84,458,Chachoengsao (1),Eastern,13.51555556,101.4583333,-,-,-,-,-,-,-,-,-,-,-,-,-,-,-,-,0.31866979598999023,1.305773138999939,1.0871174335479736,0.8248443007469177,0.6121790409088135,0.20098328590393066,-,0.36503326892852783,4.714599609375,2022,06,05
84,85,459,Chon Buri,Eastern,13.36666694,100.9833336,-,-,-,-,-,-,-,-,-,-,-,-,-,-,-,-,-,0.08776857703924179,0.650468647480011,0.6261184215545654,0.16218678653240204,0.4180680215358734,-,-,1.944610357284546,2022,06,05
85,86,463,Laem Chabang,Eastern,13.07694444,100.8758333,-,-,-,-,-,-,-,-,-,-,-,-,-,-,-,-,-,2.009888172149658,3.752986431121826,1.2610299587249756,0.3319709897041321,0.1930808573961258,-,-,7.548956871032715,2022,06,05
86,87,460,Ko Sichang,Eastern,13.16166667,100.8019444,-,-,-,-,-,-,-,-,-,-,-,-,-,-,-,-,1.1793426275253296,2.0734150409698486,3.2152373790740967,1.1094419956207275,-,0.22107745707035065,-,-,7.798513889312744,2022,06,05
87,88,461,Pattaya,Eastern,12.92,100.8694444,-,-,-,-,-,-,-,-,-,-,-,-,-,-,-,-,-,-,3.4298853874206543,1.643351435661316,0.2936765253543854,0.11201266199350357,-,-,5.478926181793213,2022,06,05
88,89,477,Sattahip,Eastern,12.68333361,100.9833336,-,-,-,-,-,-,-,-,-,-,-,-,-,-,-,-,-,-,-,-,-,0.2792665660381317,-,-,0.2792665660381317,2022,06,05
89,90,478,Rayong,Eastern,12.61702778,101.34075,-,-,-,-,-,-,-,-,-,-,-,-,-,-,-,-,-,-,-,-,-,-,-,-,-,2022,06,05
90,91,479,Huai Pong (1),Eastern,12.73333361,101.1333336,-,-,-,-,-,-,-,-,-,-,-,-,-,-,-,-,-,-,-,-,0.08884070068597794,0.30271440744400024,-,-,0.3915551006793976,2022,06,05
91,92,480,Chanthaburi,Eastern,12.61666694,102.1133333,-,-,-,-,-,-,-,-,-,-,-,-,-,-,-,-,-,-,-,-,-,-,-,-,-,2022,06,05
92,93,481,Pluei (1),Eastern,12.50861111,102.1730556,1.0007357597351074,-,-,-,-,-,-,-,-,-,-,-,-,-,-,-,-,-,-,-,-,-,0.8617419600486755,-,2.863213539123535,2022,06,05
93,94,501,Khlong Yai,Eastern,11.76666694,102.8833336,-,-,-,-,-,-,-,-,-,-,-,-,-,-,-,-,-,-,-,-,-,-,-,-,-,2022,06,05
94,95,465,Phetchaburi,Southern EastCoast,12.99930556,100.0605278,-,-,-,-,-,-,-,-,-,-,-,-,-,-,-,-,4.557051658630371,3.7144880294799805,6.043310165405273,4.355035781860352,1.7151154279708862,-,-,-,20.385000228881836,2022,06,05
95,96,474,Nong Plub (1),Southern EastCoast,12.58925,99.73461111,-,-,-,-,-,-,-,-,-,-,-,-,-,-,-,-,-,1.698843240737915,2.6664912700653076,2.751335620880127,1.8828620910644531,0.6577445864677429,-,-,9.65727710723877,2022,06,05
96,97,475,Hua Hin,Southern EastCoast,12.57797222,99.95372222,-,-,-,-,-,-,-,-,-,-,-,-,-,-,-,-,-,-,-,2.4450361728668213,2.374586343765259,0.8519183993339539,-,-,5.6715407371521,2022,06,05
97,98,500,Prachuap Khiri Khan,Southern EastCoast,11.83497222,99.81047222,-,-,-,-,-,-,-,-,-,-,-,-,-,-,-,-,-,-,-,-,0.06107990816235542,1.2027338743209839,-,-,1.2638137340545654,2022,06,05
98,99,517,Chumphon,Southern EastCoast,10.49875,99.18847222,-,-,-,-,-,-,-,-,-,-,-,-,-,-,-,-,-,-,0.09678779542446136,0.08766534924507141,0.04108172655105591,0.03193617984652519,-,-,0.2574710547924042,2022,06,05
99,100,520,Sawee (1),Southern EastCoast,10.33063889,99.09186111,-,-,-,-,-,-,-,-,-,-,-,-,-,-,-,-,-,-,-,0.07424017786979675,0.03552905470132828,0.03746982663869858,-,-,0.1472390592098236,2022,06,05
100,101,551,Surat Thani,Southern EastCoast,9.1335,99.15213889,-,-,-,-,-,-,-,-,-,-,-,-,-,2.0901691913604736,3.871232032775879,4.782495498657227,0.840076744556427,0.05141717940568924,-,-,-,-,-,-,11.635390281677246,2022,06,05
101,102,555,Surat Thani (1),Southern EastCoast,9.144805556,99.63361111,-,-,-,-,-,-,-,-,-,-,-,-,-,-,-,-,-,-,-,-,-,-,-,-,-,2022,06,05
102,103,550,Ko Samui,Southern EastCoast,9.466666667,100.05,-,-,-,-,-,-,-,-,-,-,-,-,-,-,-,-,-,-,-,-,-,-,-,-,-,2022,06,05
103,104,556,Prasang (2),Southern EastCoast,8.572083333,99.25519444,-,-,-,-,-,-,-,-,-,-,-,-,-,1.9390100240707397,2.7337238788604736,0.09656096994876862,-,-,-,-,-,-,-,-,4.769294738769531,2022,06,05
104,105,557,Chawang (2),Southern EastCoast,8.424694444,99.50661111,-,-,-,-,-,-,-,-,-,-,-,-,-,0.18664655089378357,2.159853219985962,0.3787166178226471,0.10445261746644974,-,-,-,-,-,-,-,2.8296689987182617,2022,06,05
105,106,552,Nakhon Si Thammarat,Southern EastCoast,8.537777777999999,99.94722222,-,-,-,-,-,-,-,-,-,-,-,-,-,0.387317955493927,-,-,-,-,-,-,-,-,-,-,0.387317955493927,2022,06,05
106,107,554,Nakhon Si Thammarat (1),Southern EastCoast,8.359305556,100.0,-,-,-,-,-,-,-,-,-,-,-,-,-,-,-,-,0.221133753657341,0.6901358366012573,-,-,-,-,-,-,0.9112696051597595,2022,06,05
107,108,560,Pattalung (1),Southern EastCoast,7.583333611,100.1666669,-,-,-,-,-,-,-,-,-,-,-,-,-,0.2989940941333771,0.4253150224685669,-,-,-,-,-,-,-,-,-,0.7243090867996216,2022,06,05
108,109,568,Songkhla,Southern EastCoast,7.182111111,100.6076944,-,-,-,-,-,-,-,-,-,-,-,-,-,-,-,-,-,-,-,-,-,-,-,-,-,2022,06,05
109,110,569,Hat Yai,Southern EastCoast,6.916666944,100.43333359999998,-,-,-,-,-,-,-,-,-,-,-,-,-,-,-,-,-,-,-,-,-,-,-,-,-,2022,06,05
110,111,571,Korhong (1),Southern EastCoast,7.0,100.5,-,-,-,-,-,-,-,-,-,-,-,-,-,-,-,-,-,-,-,-,-,-,-,-,-,2022,06,05
111,112,574,Sa Dao (2),Southern EastCoast,6.798055556,100.3905556,-,-,-,-,-,-,-,-,-,-,-,-,-,-,-,-,-,-,-,-,-,-,-,-,-,2022,06,05
112,113,580,Pattani,Southern EastCoast,6.7833336110000015,101.1500003,-,-,0.254896342754364,-,-,-,0.254896342754364,-,-,-,-,-,-,-,-,-,-,-,-,-,-,-,-,-,0.509792685508728,2022,06,05
113,114,581,Yala (1),Southern EastCoast,6.050000278,101.2833336,-,-,0.22584326565265656,-,-,-,0.22584326565265656,-,-,-,-,-,0.23537565767765045,-,-,-,2.3358592987060547,3.7471442222595215,0.0675351694226265,-,-,-,-,-,6.837601184844971,2022,06,05
114,115,583,Narathiwat,Southern EastCoast,6.416666944,101.81666690000002,0.2765956223011017,-,-,-,-,-,-,-,-,-,-,-,-,-,-,-,-,-,-,-,-,-,-,-,0.5531912446022034,2022,06,05
115,116,532,Ranong,Southern WestCoast,9.983333611,98.61666694,-,-,-,-,-,-,-,-,-,-,-,-,-,-,-,-,-,-,-,-,-,-,-,-,-,2022,06,05
116,117,561,Takua Pa,Southern WestCoast,8.684166667000001,98.25222222,-,-,-,-,-,-,-,-,-,-,-,0.8788766860961914,2.8847055435180664,-,-,-,-,1.4252368211746216,0.3115139901638031,0.08086328953504562,0.19682857394218445,-,-,-,5.778024673461914,2022,06,05
117,118,564,Phuket,Southern WestCoast,7.883333611,98.40000028,-,-,-,-,-,-,-,-,-,-,-,-,-,-,-,3.1468489170074463,-,-,-,-,-,-,-,-,3.1468489170074463,2022,06,05
118,119,565,Phuket Airport,Southern WestCoast,8.145,98.31444444,-,-,-,-,-,-,-,-,-,-,-,-,-,-,2.076592206954956,-,-,-,0.8978753089904785,0.04208322986960411,0.03698728233575821,0.0335170142352581,-,-,3.087055206298828,2022,06,05
119,120,563,Krabi,Southern WestCoast,8.103611111000001,98.97527778,-,-,-,-,-,-,-,-,-,-,-,0.5588353872299194,-,0.6981263160705566,2.877906560897827,3.8153820037841797,-,-,-,-,-,-,-,-,7.950250148773193,2022,06,05
120,121,566,Ko Lanta,Southern WestCoast,7.5333336110000015,99.05000028,-,-,-,-,-,-,-,-,-,-,-,-,-,-,-,-,-,-,-,0.7959445118904114,1.5003719329833984,3.5775628089904785,0.7077828645706177,0.7489147186279297,7.3305768966674805,2022,06,05
121,122,567,Trang,Southern WestCoast,7.516666944,99.61666694,-,-,-,-,-,-,-,-,-,-,-,-,1.5943946838378906,1.6838884353637695,1.308707594871521,-,-,-,-,-,-,-,-,-,4.586990833282471,2022,06,05
122,123,570,Satun,Southern WestCoast,6.650000277999999,100.0833336,-,-,-,-,-,-,-,-,-,-,-,-,-,-,3.1118414402008057,-,1.1234550476074219,0.8431452512741089,0.08197685331106186,-,-,-,-,-,5.160418510437012,2022,06,05
