,ID,WMO_CODE,NAME_EN,Region,Latitude,Longitude,00Z,01Z,02Z,03Z,04Z,05Z,06Z,07Z,08Z,09Z,10Z,11Z,12Z,13Z,14Z,15Z,16Z,17Z,18Z,19Z,20Z,21Z,22Z,23Z,sum,year,month,day
0,1,300,Mae Hong Son,Northern,19.29897222,97.97577778,-,-,-,-,-,-,-,-,-,-,-,-,-,-,-,-,-,-,-,-,-,-,-,-,-,2020,07,23
1,2,325,Mae Sariang,Northern,18.16666667,97.93333333,-,-,-,-,-,-,-,-,-,-,-,-,-,-,-,0.07632391154766083,0.01772664301097393,-,-,-,-,-,-,-,0.09405055642127991,2020,07,23
2,3,303,Chiang Rai,Northern,19.96138889,99.88138889,-,-,-,-,-,-,-,-,-,-,-,-,-,-,-,-,-,-,-,-,-,-,-,-,-,2020,07,23
3,4,304,Chiang Rai (1),Northern,19.87083333,99.78277778,-,-,-,-,-,-,-,-,-,-,-,-,-,-,-,-,-,-,-,-,-,-,-,-,-,2020,07,23
4,5,310,Phayao,Northern,19.13333333,99.9,-,-,-,-,-,-,-,-,-,-,-,0.043299708515405655,0.03806215897202492,-,-,-,-,-,-,-,-,-,-,-,0.08136186748743057,2020,07,23
5,6,327,Chiang Mai,Northern,18.79,98.97694444,-,-,-,-,-,-,-,-,-,-,-,-,-,-,-,0.25642162561416626,-,-,-,-,-,-,-,0.341704398393631,0.5981260538101196,2020,07,23
6,7,302,Doi Angkhlang,Northern,19.93138889,99.04833333,-,-,-,-,-,-,-,-,-,-,-,-,-,-,-,-,-,-,-,-,-,-,-,-,-,2020,07,23
7,8,331,Nan,Northern,18.77972222,100.7777778,1.2211155891418457,1.4235094785690308,0.1224108561873436,0.48500680923461914,0.5883907079696655,1.4235094785690308,0.1224108561873436,0.48500680923461914,0.5883907079696655,0.0855475440621376,0.04924800246953964,0.11891818046569824,0.022509034723043442,-,-,-,-,-,-,-,-,-,-,-,9.178205490112305,2020,07,23
8,9,333,Nan (1),Northern,18.86666667,100.75,1.1328818798065186,1.2257314920425415,0.10052042454481125,0.3811943829059601,0.41850295662879944,1.2257314920425415,0.10052042454481125,0.3811943829059601,0.41850295662879944,0.15462464094161987,0.03639879450201988,0.03200674057006836,0.021411674097180367,-,-,-,-,-,-,-,-,-,-,-,7.894986629486084,2020,07,23
9,10,315,Tha Wang Pha (2),Northern,19.11055556,100.8025,-,0.2653321623802185,0.14183619618415833,0.25570574402809143,0.2075788676738739,0.2653321623802185,0.14183619618415833,0.25570574402809143,0.2075788676738739,0.24459034204483032,0.05756564438343048,-,-,-,-,-,-,-,-,-,-,-,-,-,2.0430619716644287,2020,07,23
10,11,307,Thung Chang (2),Northern,19.41194444,100.8835278,-,-,-,-,-,-,-,-,-,-,-,-,-,-,-,0.022731726989150047,-,-,-,-,-,-,-,-,0.022731726989150047,2020,07,23
11,12,329,Lamphun,Northern,18.56666667,99.03333333,-,-,-,-,-,-,-,-,-,-,-,-,-,-,-,-,-,-,-,-,-,-,-,-,-,2020,07,23
12,13,328,Lampang,Northern,18.33333333,99.51666667,-,-,-,-,-,-,-,-,-,-,-,-,-,-,-,-,-,-,-,-,-,-,-,-,-,2020,07,23
13,14,334,Lampang (1),Northern,18.31666667,99.28333333,-,-,-,-,-,-,-,-,-,-,-,-,-,-,-,0.0315217450261116,-,-,-,-,-,-,-,-,0.0315217450261116,2020,07,23
14,15,324,Thoen,Northern,17.63661111,99.24475,-,-,-,-,-,-,-,-,-,-,-,-,-,0.379150927066803,-,-,-,-,-,-,-,-,-,-,0.379150927066803,2020,07,23
15,16,330,Phrae,Northern,18.16666667,100.1666667,-,-,-,-,-,-,-,-,-,-,-,-,-,-,-,-,-,-,-,-,-,-,-,-,-,2020,07,23
16,17,351,Uttaradit,Northern,17.61666667,100.1000028,-,-,-,-,-,-,-,-,-,-,-,-,-,-,-,-,0.2980741858482361,1.0460814237594604,-,-,-,-,-,-,1.3441555500030518,2020,07,23
17,18,372,Sukhothai,Northern,17.10611111,99.8,-,-,-,-,-,-,-,-,-,-,-,-,-,-,-,1.056791067123413,0.9212915301322937,-,-,-,-,-,-,-,1.9780826568603516,2020,07,23
18,19,373,Si Samrong (1),Northern,17.77361111,99.24944444,-,-,-,-,-,-,-,-,-,-,-,-,-,-,-,-,-,-,-,-,-,-,-,-,-,2020,07,23
19,20,377,Bhumibol Dam,Northern,17.24391667,99.00252778,-,-,-,-,-,-,-,-,-,-,-,-,-,-,-,-,-,-,-,-,-,-,-,-,-,2020,07,23
20,21,376,Tak,Northern,16.87836111,99.14336111,-,-,-,-,-,-,-,-,-,-,-,-,-,-,-,-,-,-,-,-,-,-,-,-,-,2020,07,23
21,22,375,Mae Sot,Northern,16.65916667,98.55086111,-,-,-,-,-,-,-,-,-,-,-,-,-,0.27097591757774353,-,-,-,-,-,-,-,-,-,-,0.27097591757774353,2020,07,23
22,23,385,Umphang (2),Northern,16.02472222,98.86444444,-,-,-,-,-,-,-,-,-,-,-,-,-,1.7219241857528687,0.1156965047121048,0.1987980604171753,-,-,-,-,-,-,-,-,2.036418914794922,2020,07,23
23,24,387,Doi Muser (1),Northern,16.75,98.93333611,-,-,-,-,-,-,-,-,-,-,-,-,-,-,-,-,-,-,-,-,-,-,-,-,-,2020,07,23
24,25,378,Phitsanulok,Northern,16.79622222,100.2759444,-,-,-,-,-,-,-,-,-,-,-,-,-,-,-,-,-,-,-,-,-,-,-,-,-,2020,07,23
25,26,374,Lom Sak (2),Northern,16.77363889,101.2494722,-,-,-,-,-,-,-,-,-,-,-,-,-,-,0.10983652621507645,-,-,-,-,-,-,-,-,-,0.10983652621507645,2020,07,23
26,27,379,Phetchabun,Northern,16.43333611,101.15,-,-,-,-,-,-,-,-,-,-,-,-,-,0.6637137532234192,0.020657341927289963,1.2026234865188599,-,-,-,-,-,-,-,-,1.8869946002960205,2020,07,23
27,28,413,Wichian Buri (2),Northern,15.65694444,101.1083333,-,-,-,-,-,-,-,-,-,-,-,-,-,-,-,-,-,0.07567796111106873,0.07076764851808548,-,-,-,-,-,0.1464456021785736,2020,07,23
28,29,380,Kamphaeng Phet,Northern,16.48680556,99.52697222,-,-,-,-,-,-,-,-,-,-,-,-,-,-,-,-,-,-,-,-,-,-,-,-,-,2020,07,23
29,30,386,Phicit (1),Northern,16.33861111,100.3671111,-,-,-,-,-,-,-,-,-,-,-,-,-,-,-,-,-,-,-,-,-,-,-,-,-,2020,07,23
30,31,352,Nong Khai,Northeastern,17.86716667,102.7330278,3.149043321609497,3.6511342525482178,-,-,-,3.6511342525482178,-,-,-,-,-,-,-,-,-,-,-,-,-,-,-,-,-,-,16.74939727783203,2020,07,23
31,32,353,Loei,Northeastern,17.45,101.7333333,-,-,-,-,-,-,-,-,-,-,-,-,-,-,-,-,-,-,-,-,-,-,-,-,-,2020,07,23
32,33,350,Loei (1),Northeastern,17.4,101.7333333,-,-,-,-,-,-,-,-,-,-,-,-,-,-,-,-,-,-,-,-,-,-,-,-,-,2020,07,23
33,34,354,Udon Thani,Northeastern,17.38333333,102.8,-,-,-,-,-,-,-,-,-,-,-,-,-,-,-,-,-,-,-,-,-,-,-,-,-,2020,07,23
34,35,357,Nakhon Phanom,Northeastern,17.41083333,104.7825,-,-,-,-,-,-,-,-,-,-,-,-,-,-,-,0.14155404269695282,-,0.016204319894313812,-,-,-,-,-,-,0.15775835514068604,2020,07,23
35,36,358,Nakhon Phanom (1),Northeastern,17.44305556,104.7736111,-,-,-,-,-,-,-,-,-,-,-,-,-,-,-,0.14155404269695282,-,0.016204319894313812,-,-,-,-,-,-,0.15775835514068604,2020,07,23
36,37,356,Sakon Nakhon,Northeastern,17.15000278,104.1333361,-,-,-,-,-,-,-,-,-,-,-,-,-,-,-,-,-,-,-,-,-,-,-,-,-,2020,07,23
37,38,355,Sakon Nakhon (1),Northeastern,17.12502778,104.061,-,-,-,-,-,-,-,-,-,-,-,-,-,-,-,-,-,-,-,-,-,-,-,-,-,2020,07,23
38,39,360,Nong Bua Lumphu,Northeastern,17.2325,102.4294444,-,-,-,-,-,-,-,-,-,-,-,-,-,-,-,-,-,-,-,-,-,-,-,-,-,2020,07,23
39,40,383,Mukdahan,Northeastern,16.54955556,104.7308889,-,-,-,-,-,-,-,-,-,-,-,-,-,-,-,-,-,0.014785145409405231,-,-,-,-,-,-,0.014785145409405231,2020,07,23
40,41,381,Khon Kaen,Northeastern,16.46111111,102.7897222,-,-,-,-,-,-,-,-,-,-,-,-,-,-,-,-,-,-,-,-,-,-,-,-,-,2020,07,23
41,42,384,Tha Pra (1),Northeastern,16.333,102.8166667,-,-,-,-,-,-,-,-,-,-,-,-,-,-,-,-,-,-,-,-,-,-,-,-,-,2020,07,23
42,43,382,Kosum Phisai (2),Northeastern,16.24722222,103.0680556,-,-,-,-,-,-,-,-,-,-,-,-,-,-,-,-,-,-,-,-,-,-,-,-,-,2020,07,23
43,44,390,Kamalasai (2),Northeastern,16.3325,103.5883333,-,-,-,-,-,-,-,-,-,-,-,-,-,-,-,-,-,-,-,-,-,-,-,-,-,2020,07,23
44,45,405,Roi Et,Northeastern,16.05000028,103.68333359999998,-,-,-,-,-,-,-,-,-,-,-,-,-,-,-,-,-,-,-,-,-,-,-,-,-,2020,07,23
45,46,404,Roi Et (1),Northeastern,16.07322222,103.6084444,-,-,-,-,-,-,-,-,-,-,-,-,-,-,-,-,-,-,-,-,-,-,-,-,-,2020,07,23
46,47,403,Chaiyaphum,Northeastern,15.80000028,102.0333336,-,-,-,-,-,-,-,-,-,-,-,-,-,-,-,0.5818796753883362,-,-,-,-,-,-,-,-,0.5818796753883362,2020,07,23
47,48,407,Ubon Ratchathani,Northeastern,15.25000278,104.8666694,-,-,-,-,-,-,-,-,-,-,-,-,-,-,-,-,-,-,-,-,-,-,-,-,-,2020,07,23
48,49,408,Ubon Ratchathani (1),Northeastern,15.24072222,105.01966670000002,-,-,-,-,-,-,-,-,-,-,-,-,-,-,-,-,-,0.34479832649230957,-,-,-,-,-,-,0.34479832649230957,2020,07,23
49,50,409,Si Saket (1),Northeastern,15.00000028,104.0500003,-,-,-,-,-,-,-,-,-,-,-,-,-,-,-,-,-,-,-,-,-,-,-,-,-,2020,07,23
50,51,416,Tha Tum (2),Northeastern,15.31666694,103.68333359999998,-,-,-,-,-,-,-,-,-,-,-,-,-,-,-,-,-,-,-,-,-,-,-,-,-,2020,07,23
51,52,432,Surin,Northeastern,14.88333361,103.5000003,-,-,-,-,-,-,-,-,-,-,-,-,-,0.049826350063085556,0.07958971709012985,-,-,-,-,-,-,-,-,-,0.1294160634279251,2020,07,23
52,53,433,Surin (1),Northeastern,14.88333361,103.4500003,-,-,-,-,-,-,-,-,-,-,-,-,-,-,0.4408966898918152,-,-,-,-,-,-,-,-,-,0.4408966898918152,2020,07,23
53,54,431,Nakhon Ratchasima,Northeastern,14.96830556,102.0860278,-,-,-,-,-,-,-,-,-,-,-,-,-,-,-,-,-,-,-,-,-,0.016603631898760796,0.08649206906557083,0.14749141037464142,0.2505871057510376,2020,07,23
54,55,435,Pakchong (1),Northeastern,14.64388889,101.3319444,-,-,-,-,-,-,-,-,-,-,-,-,-,0.49668583273887634,-,-,-,-,-,-,-,-,-,0.03750866651535034,0.5341944694519043,2020,07,23
55,56,434,Chok Chai (2),Northeastern,14.71888889,102.1686111,-,-,-,-,-,-,-,-,-,-,-,-,-,-,-,-,-,-,-,-,0.027274860069155693,0.027938690036535263,-,-,0.05521354824304581,2020,07,23
56,57,437,Buri Ram,Northeastern,15.22575,103.2480833,-,-,-,-,-,-,-,-,-,-,-,-,-,-,-,-,-,-,-,-,-,-,-,-,-,2020,07,23
57,58,436,Nang Rong (2),Northeastern,14.58333361,102.8000003,-,-,-,-,-,-,-,-,-,-,-,-,-,0.23351754248142242,0.11929759383201599,0.022393308579921722,-,-,-,-,-,-,-,-,0.37520846724510193,2020,07,23
58,59,400,Nakhon Sawan,Central,15.67183333,100.1323611,-,-,-,-,-,-,-,-,-,-,-,-,-,-,-,0.2695523202419281,0.6789523363113403,-,-,-,-,-,-,-,0.9485046863555908,2020,07,23
59,60,401,Takfa (1),Central,15.34944444,100.5302778,-,-,-,-,-,-,-,-,-,-,-,-,-,-,0.04023699462413788,-,-,0.08844691514968872,-,-,0.025945112109184265,0.02002578042447567,0.03831121325492859,-,0.21296600997447968,2020,07,23
60,61,402,Chai Nat,Central,15.15000278,100.18333359999998,-,-,-,-,-,-,-,-,-,-,-,-,-,-,0.18962645530700684,0.7876542806625366,-,0.08745278418064117,-,-,-,-,-,-,1.0647335052490234,2020,07,23
61,62,410,U Thai Thani,Central,15.37416667,100.0388889,-,-,-,-,-,-,-,-,-,-,-,-,-,-,-,2.0516223907470703,0.23245899379253387,-,-,-,-,-,-,0.016542360186576843,2.300623893737793,2020,07,23
62,63,415,Ayuthaya (1),Central,14.53472222,100.725,-,-,-,-,-,-,-,-,-,-,-,-,-,-,-,-,-,-,-,-,-,-,-,-,-,2020,07,23
63,64,418,Bua Chum (2),Central,15.10000028,101.6166669,-,-,-,-,-,-,-,-,-,-,-,-,-,-,-,-,-,-,-,0.03172290697693825,-,-,-,0.06476830691099167,0.09649121761322021,2020,07,23
64,65,426,Lop Buri,Central,14.79972222,100.6283333,-,-,-,-,-,-,-,-,-,-,-,-,-,-,-,0.1856439858675003,-,-,-,-,-,-,-,-,0.1856439858675003,2020,07,23
65,66,425,Suphan Buri,Central,14.47444444,100.1388889,-,-,-,-,-,-,-,-,-,-,-,-,-,-,-,-,0.019981814548373222,-,-,-,-,-,-,-,0.019981814548373222,2020,07,23
66,67,427,Uthong (1),Central,14.30361111,99.86472222,-,-,-,-,-,-,-,-,-,-,-,-,-,-,-,-,-,0.041295893490314484,-,-,-,-,-,-,0.041295893490314484,2020,07,23
67,68,421,Thong Pha Phum,Central,14.74222222,98.63638889,-,-,-,-,-,-,-,-,-,-,-,-,-,-,0.010102487169206142,-,0.17792163789272308,-,-,-,-,-,-,-,0.1880241185426712,2020,07,23
68,69,450,Kanchanaburi,Central,14.0225,99.53583333,-,-,-,-,-,-,-,-,-,-,-,-,-,-,-,-,-,-,-,-,-,-,-,-,-,2020,07,23
69,70,464,Ratcha Buri (1),Central,13.48930556,99.79238889,-,-,-,-,-,-,-,-,-,-,-,-,-,-,-,-,-,0.04016445204615593,-,-,-,-,-,-,0.04016445204615593,2020,07,23
70,71,451,Kampheang Saen (1),Central,14.01166667,99.97,-,-,-,-,-,-,-,-,-,-,-,-,-,-,-,-,-,-,-,-,-,-,-,-,-,2020,07,23
71,72,419,Pathum Thani (1),Central,14.1,100.616,-,-,-,-,-,-,-,-,-,-,-,-,-,-,-,-,-,-,-,-,-,-,-,-,-,2020,07,23
72,73,420,Samut Prakan,Central,13.51666694,100.7616667,-,-,-,-,-,-,-,-,-,-,-,-,-,-,-,-,-,0.7002241611480713,-,-,-,-,-,-,0.7002241611480713,2020,07,23
73,74,429,Suvarnabhumi Airport,Central,13.68638889,100.7675,-,-,-,-,-,-,-,-,-,-,-,-,-,-,-,-,-,0.06581763178110123,-,-,-,-,-,-,0.06581763178110123,2020,07,23
74,75,456,Don Muang Airport,Central,13.91916667,100.605,-,-,-,-,-,-,-,-,-,-,-,-,-,-,-,-,-,-,-,-,-,-,-,-,-,2020,07,23
75,76,455,Sirikit Center,Central,13.72638889,100.56,-,-,-,-,-,-,-,-,-,-,-,-,-,-,-,0.5466175079345703,-,-,-,-,-,-,-,-,0.5466175079345703,2020,07,23
76,77,454,Bangkok Port,Central,13.70694444,100.5680556,-,-,-,-,-,-,-,-,-,-,-,-,-,-,-,0.5466175079345703,-,-,-,-,-,-,-,-,0.5466175079345703,2020,07,23
77,78,453,Bang Na (1),Central,13.66638889,100.6061111,-,-,-,-,-,-,-,-,-,-,-,-,-,-,-,-,-,0.17056141793727875,-,-,-,-,-,-,0.17056141793727875,2020,07,23
78,79,457,Bangkok Pilot,Central,13.37722222,100.5994444,-,-,-,-,-,-,-,-,-,-,-,-,-,-,-,-,-,-,-,-,-,-,-,-,-,2020,07,23
79,80,430,Prachin Buri,Eastern,14.05091667,101.3693056,-,-,-,-,-,-,-,-,-,-,-,-,-,-,-,-,-,0.020366011187434196,-,-,-,-,-,-,0.020366011187434196,2020,07,23
80,81,439,Kabin Buri (2),Eastern,13.98333361,101.7072222,-,-,-,-,-,-,-,-,-,-,-,-,-,-,0.02086753211915493,-,0.4959813952445984,0.02593877725303173,-,-,-,-,-,-,0.5427876710891724,2020,07,23
81,82,440,Sa Kaeo (2),Eastern,13.78888889,102.0347222,-,-,-,-,-,-,-,-,-,-,-,-,-,0.09632144123315811,0.6378979682922363,-,-,-,-,-,-,-,-,-,0.7342194318771362,2020,07,23
82,83,462,Aranyaprathet,Eastern,13.70000028,102.5833336,-,-,-,-,-,-,-,-,-,-,-,-,-,-,-,-,-,0.022355616092681885,0.09053152799606323,0.05902131646871567,-,-,-,-,0.17190846800804138,2020,07,23
83,84,458,Chachoengsao (1),Eastern,13.51555556,101.4583333,-,-,-,-,-,-,-,-,-,-,-,-,-,-,-,0.8982861638069153,2.5092339515686035,-,-,-,-,-,-,-,3.407520055770874,2020,07,23
84,85,459,Chon Buri,Eastern,13.36666694,100.9833336,-,-,-,-,-,-,-,-,-,-,-,-,-,-,-,-,-,1.3466719388961792,-,-,-,-,-,-,1.3466719388961792,2020,07,23
85,86,463,Laem Chabang,Eastern,13.07694444,100.8758333,-,-,-,-,-,-,-,-,-,-,-,-,-,-,-,-,0.08152176439762115,0.05654434487223625,-,-,-,-,-,-,0.1380661129951477,2020,07,23
86,87,460,Ko Sichang,Eastern,13.16166667,100.8019444,-,-,-,-,-,-,-,-,-,-,-,-,-,-,-,-,0.09340360760688782,0.13991691172122955,-,-,-,-,-,-,0.23332051932811737,2020,07,23
87,88,461,Pattaya,Eastern,12.92,100.8694444,-,-,-,-,-,-,-,-,-,-,-,-,-,-,-,-,-,0.07838571816682816,-,-,-,-,-,-,0.07838571816682816,2020,07,23
88,89,477,Sattahip,Eastern,12.68333361,100.9833336,-,-,-,-,-,-,-,-,-,-,-,-,-,-,-,-,-,0.24092258512973785,-,-,-,-,-,-,0.24092258512973785,2020,07,23
89,90,478,Rayong,Eastern,12.61702778,101.34075,-,-,-,-,-,-,-,-,-,-,-,-,-,-,-,0.09579265117645264,1.7121704816818237,0.04559546336531639,-,-,-,-,-,-,1.8535585403442383,2020,07,23
90,91,479,Huai Pong (1),Eastern,12.73333361,101.1333336,-,-,-,-,-,-,-,-,-,-,-,-,-,-,-,-,0.2106972336769104,0.0484483502805233,-,-,-,-,-,-,0.259145587682724,2020,07,23
91,92,480,Chanthaburi,Eastern,12.61666694,102.1133333,-,-,-,-,-,-,-,-,-,-,-,-,-,0.30683988332748413,1.2754687070846558,-,0.10552903264760971,-,-,-,-,-,-,-,1.6878376007080078,2020,07,23
92,93,481,Pluei (1),Eastern,12.50861111,102.1730556,-,-,-,-,-,-,-,-,-,-,-,-,-,-,0.5307814478874207,-,-,-,-,-,-,-,-,-,0.5307814478874207,2020,07,23
93,94,501,Khlong Yai,Eastern,11.76666694,102.8833336,-,-,-,-,-,-,-,-,-,-,-,-,-,-,-,0.033579591661691666,-,0.06241198256611824,-,-,-,-,-,-,0.0959915742278099,2020,07,23
94,95,465,Phetchaburi,Southern EastCoast,12.99930556,100.0605278,-,-,-,-,-,-,-,-,-,-,-,-,-,-,-,-,-,-,-,-,-,-,-,-,-,2020,07,23
95,96,474,Nong Plub (1),Southern EastCoast,12.58925,99.73461111,-,0.03423440828919411,-,-,-,0.03423440828919411,-,-,-,-,-,-,-,-,-,-,-,-,-,-,-,-,-,-,0.06846881657838821,2020,07,23
96,97,475,Hua Hin,Southern EastCoast,12.57797222,99.95372222,-,0.02703665941953659,-,-,-,0.02703665941953659,-,-,-,-,-,-,-,-,-,-,-,-,-,-,-,-,-,-,0.05407331883907318,2020,07,23
97,98,500,Prachuap Khiri Khan,Southern EastCoast,11.83497222,99.81047222,-,-,-,-,-,-,-,-,-,-,-,-,-,-,-,-,-,-,-,-,-,-,-,-,-,2020,07,23
98,99,517,Chumphon,Southern EastCoast,10.49875,99.18847222,-,-,-,-,-,-,-,-,-,-,-,-,-,-,-,-,-,-,-,-,-,-,-,-,-,2020,07,23
99,100,520,Sawee (1),Southern EastCoast,10.33063889,99.09186111,-,-,-,-,-,-,-,-,-,-,-,-,-,-,-,-,-,-,-,-,-,-,-,-,-,2020,07,23
100,101,551,Surat Thani,Southern EastCoast,9.1335,99.15213889,-,-,-,-,-,-,-,-,-,-,-,-,-,1.7771474123001099,-,-,-,-,-,-,-,-,-,-,1.7771474123001099,2020,07,23
101,102,555,Surat Thani (1),Southern EastCoast,9.144805556,99.63361111,-,-,-,-,-,-,-,-,-,-,-,-,-,-,-,-,-,-,-,-,-,-,-,-,-,2020,07,23
102,103,550,Ko Samui,Southern EastCoast,9.466666667,100.05,-,-,-,-,-,-,-,-,-,-,-,-,-,-,-,-,-,-,-,-,-,-,-,-,-,2020,07,23
103,104,556,Prasang (2),Southern EastCoast,8.572083333,99.25519444,-,-,-,-,-,-,-,-,-,-,-,-,-,-,5.554417133331299,14.536561965942383,13.976973533630371,0.5431261658668518,-,-,-,-,-,-,34.61107635498047,2020,07,23
104,105,557,Chawang (2),Southern EastCoast,8.424694444,99.50661111,-,-,-,-,-,-,-,-,-,-,-,-,-,0.7419074773788452,19.785907745361328,9.452797889709473,-,-,-,-,-,-,-,-,29.980613708496094,2020,07,23
105,106,552,Nakhon Si Thammarat,Southern EastCoast,8.537777777999999,99.94722222,-,-,-,-,-,-,-,-,-,-,-,-,-,-,-,-,-,-,-,-,-,-,-,-,-,2020,07,23
106,107,554,Nakhon Si Thammarat (1),Southern EastCoast,8.359305556,100.0,-,-,-,-,-,-,-,-,-,-,-,-,-,-,-,-,-,-,-,-,-,-,-,-,-,2020,07,23
107,108,560,Pattalung (1),Southern EastCoast,7.583333611,100.1666669,-,-,-,-,-,-,-,-,-,-,-,-,-,-,-,-,-,-,-,-,-,-,-,-,-,2020,07,23
108,109,568,Songkhla,Southern EastCoast,7.182111111,100.6076944,-,-,-,-,-,-,-,-,-,-,-,-,-,-,-,-,-,-,1.5644428730010986,-,-,-,-,-,1.5644428730010986,2020,07,23
109,110,569,Hat Yai,Southern EastCoast,6.916666944,100.43333359999998,-,-,-,-,-,-,-,-,-,-,-,-,-,-,-,-,-,3.0104076862335205,2.393801212310791,1.004204511642456,-,-,-,-,6.408413887023926,2020,07,23
110,111,571,Korhong (1),Southern EastCoast,7.0,100.5,-,-,-,-,-,-,-,-,-,-,-,-,-,-,-,-,0.18593770265579224,-,2.3345606327056885,0.3285714387893677,-,-,-,-,2.849069595336914,2020,07,23
111,112,574,Sa Dao (2),Southern EastCoast,6.798055556,100.3905556,-,-,-,-,-,-,-,-,-,-,-,-,-,-,-,-,0.165103018283844,4.208838939666748,1.513159155845642,1.3874410390853882,-,-,-,-,7.274542331695557,2020,07,23
112,113,580,Pattani,Southern EastCoast,6.7833336110000015,101.1500003,-,-,-,-,-,-,-,-,-,-,-,-,-,1.176016092300415,0.9765641689300537,-,-,-,-,-,-,-,-,-,2.1525802612304688,2020,07,23
113,114,581,Yala (1),Southern EastCoast,6.050000278,101.2833336,-,-,-,-,-,-,-,-,-,-,-,-,-,-,0.3340238630771637,1.6682590246200562,0.3195062279701233,-,-,-,-,-,-,-,2.321789026260376,2020,07,23
114,115,583,Narathiwat,Southern EastCoast,6.416666944,101.81666690000002,-,-,0.4015653431415558,-,-,-,0.4015653431415558,-,-,-,-,-,-,-,-,-,-,-,-,-,-,-,-,-,0.8031306862831116,2020,07,23
115,116,532,Ranong,Southern WestCoast,9.983333611,98.61666694,-,-,-,-,-,-,-,-,-,-,-,-,-,4.5400614738464355,-,-,-,-,-,-,-,-,-,-,4.5400614738464355,2020,07,23
116,117,561,Takua Pa,Southern WestCoast,8.684166667000001,98.25222222,-,-,-,-,-,-,-,-,-,-,-,-,-,0.38047459721565247,-,-,4.191092491149902,3.337996482849121,2.1794850826263428,1.1889182329177856,0.2496526539325714,-,-,-,11.527619361877441,2020,07,23
117,118,564,Phuket,Southern WestCoast,7.883333611,98.40000028,-,-,-,-,-,-,-,-,-,-,-,-,-,-,-,-,-,-,-,-,-,-,-,-,-,2020,07,23
118,119,565,Phuket Airport,Southern WestCoast,8.145,98.31444444,-,-,-,-,-,-,-,-,-,-,-,-,-,-,-,-,-,-,3.042295455932617,0.5412843227386475,0.5725444555282593,-,-,-,4.156124114990234,2020,07,23
119,120,563,Krabi,Southern WestCoast,8.103611111000001,98.97527778,-,-,-,-,-,-,-,-,-,-,-,-,-,-,-,-,5.767327785491943,5.922332286834717,0.5078061819076538,-,-,-,-,-,12.197465896606445,2020,07,23
120,121,566,Ko Lanta,Southern WestCoast,7.5333336110000015,99.05000028,-,-,-,-,-,-,-,-,-,-,-,-,-,-,-,-,-,-,-,-,-,-,-,-,-,2020,07,23
121,122,567,Trang,Southern WestCoast,7.516666944,99.61666694,-,-,-,-,-,-,-,-,-,-,-,-,-,-,-,-,-,-,-,-,-,-,-,-,-,2020,07,23
122,123,570,Satun,Southern WestCoast,6.650000277999999,100.0833336,-,-,-,-,-,-,-,-,-,-,-,-,-,-,-,-,-,-,1.453806757926941,1.1127161979675293,0.4154084622859955,-,-,-,2.981931447982788,2020,07,23
