,ID,WMO_CODE,NAME_EN,Region,Latitude,Longitude,00Z,01Z,02Z,03Z,04Z,05Z,06Z,07Z,08Z,09Z,10Z,11Z,12Z,13Z,14Z,15Z,16Z,17Z,18Z,19Z,20Z,21Z,22Z,23Z,sum,year,month,day
0,1,300,Mae Hong Son,Northern,19.29897222,97.97577778,-,-,-,-,-,-,-,-,-,-,-,-,-,0.11993259936571121,-,-,-,-,-,-,-,-,-,-,0.11993259936571121,2020,10,19
1,2,325,Mae Sariang,Northern,18.16666667,97.93333333,-,-,-,-,-,-,-,-,-,-,-,-,-,-,-,-,-,-,-,-,-,-,-,-,-,2020,10,19
2,3,303,Chiang Rai,Northern,19.96138889,99.88138889,0.10069555789232254,-,-,-,-,-,-,-,-,-,0.439004510641098,0.07244604080915451,-,-,-,-,-,-,-,-,-,-,0.13105984032154083,0.07174286991357803,0.9156444072723389,2020,10,19
3,4,304,Chiang Rai (1),Northern,19.87083333,99.78277778,0.09691356122493744,0.1017133891582489,-,-,-,0.1017133891582489,-,-,-,-,0.38111335039138794,0.06972392648458481,-,0.1428488940000534,-,-,-,-,-,-,-,-,-,-,0.9909400939941406,2020,10,19
4,5,310,Phayao,Northern,19.13333333,99.9,-,-,-,-,-,-,-,-,-,-,-,-,-,-,-,-,-,-,-,-,-,-,-,-,-,2020,10,19
5,6,327,Chiang Mai,Northern,18.79,98.97694444,-,-,-,-,-,-,-,-,-,-,-,-,-,-,-,-,-,-,-,-,-,-,-,-,-,2020,10,19
6,7,302,Doi Angkhlang,Northern,19.93138889,99.04833333,-,-,-,-,-,-,-,-,-,-,-,-,-,-,-,-,-,-,-,-,-,-,-,-,-,2020,10,19
7,8,331,Nan,Northern,18.77972222,100.7777778,-,-,-,-,-,-,-,-,-,-,-,-,-,-,-,-,0.07672476768493652,0.054823655635118484,-,-,-,-,-,-,0.1315484195947647,2020,10,19
8,9,333,Nan (1),Northern,18.86666667,100.75,-,-,-,-,-,-,-,-,-,-,-,0.0759492963552475,-,-,-,-,0.07715770602226257,0.06066187471151352,-,-,-,-,-,-,0.213768869638443,2020,10,19
9,10,315,Tha Wang Pha (2),Northern,19.11055556,100.8025,-,-,-,-,-,-,-,-,-,0.19646885991096497,0.04678703099489212,-,-,-,0.10698893666267395,-,-,-,-,-,-,-,-,-,0.35024482011795044,2020,10,19
10,11,307,Thung Chang (2),Northern,19.41194444,100.8835278,-,-,-,-,-,-,-,-,-,-,0.14873425662517548,-,-,-,-,-,-,-,-,-,-,-,-,-,0.14873425662517548,2020,10,19
11,12,329,Lamphun,Northern,18.56666667,99.03333333,-,-,-,-,-,-,-,-,-,-,-,-,-,-,-,-,-,-,-,-,-,-,-,-,-,2020,10,19
12,13,328,Lampang,Northern,18.33333333,99.51666667,-,-,-,-,-,-,-,-,-,-,0.03564665466547012,-,-,-,-,-,-,-,-,-,-,-,-,-,0.03564665466547012,2020,10,19
13,14,334,Lampang (1),Northern,18.31666667,99.28333333,-,-,-,-,-,-,-,-,-,-,-,-,-,-,-,-,-,-,-,-,-,-,-,-,-,2020,10,19
14,15,324,Thoen,Northern,17.63661111,99.24475,-,-,-,-,-,-,-,-,-,-,-,-,-,-,-,-,-,-,-,-,-,-,-,-,-,2020,10,19
15,16,330,Phrae,Northern,18.16666667,100.1666667,-,-,-,-,-,-,-,-,-,-,-,-,-,-,0.0881023183465004,-,-,-,-,-,-,-,-,-,0.0881023183465004,2020,10,19
16,17,351,Uttaradit,Northern,17.61666667,100.1000028,-,-,-,0.026258138939738274,0.06072444096207619,-,-,0.026258138939738274,0.06072444096207619,0.05515381321310997,-,0.05426599085330963,-,-,-,-,-,-,-,-,-,-,-,-,0.2833849787712097,2020,10,19
17,18,372,Sukhothai,Northern,17.10611111,99.8,-,-,-,-,-,-,-,-,-,-,-,-,-,-,-,-,-,-,-,-,-,-,-,-,-,2020,10,19
18,19,373,Si Samrong (1),Northern,17.77361111,99.24944444,-,-,-,-,-,-,-,-,-,-,-,-,-,-,-,-,-,-,-,-,-,-,-,-,-,2020,10,19
19,20,377,Bhumibol Dam,Northern,17.24391667,99.00252778,-,-,-,-,-,-,-,-,-,-,-,-,-,-,-,-,-,-,-,-,-,-,-,-,-,2020,10,19
20,21,376,Tak,Northern,16.87836111,99.14336111,-,-,-,-,-,-,-,-,-,-,-,-,-,-,-,-,-,-,-,-,-,-,-,-,-,2020,10,19
21,22,375,Mae Sot,Northern,16.65916667,98.55086111,-,-,-,-,-,-,-,-,-,-,-,-,-,-,-,-,-,-,-,-,-,-,-,-,-,2020,10,19
22,23,385,Umphang (2),Northern,16.02472222,98.86444444,-,-,-,-,-,-,-,-,-,-,-,-,-,-,-,-,-,-,-,-,-,-,-,-,-,2020,10,19
23,24,387,Doi Muser (1),Northern,16.75,98.93333611,-,-,-,-,-,-,-,-,-,-,-,-,-,-,-,-,-,-,-,-,-,-,-,-,-,2020,10,19
24,25,378,Phitsanulok,Northern,16.79622222,100.2759444,-,-,-,-,-,-,-,-,-,-,-,-,-,-,-,-,-,-,-,-,-,-,-,-,-,2020,10,19
25,26,374,Lom Sak (2),Northern,16.77363889,101.2494722,-,-,-,-,-,-,-,-,-,-,-,-,-,-,-,-,-,-,-,-,-,-,-,-,-,2020,10,19
26,27,379,Phetchabun,Northern,16.43333611,101.15,-,-,-,-,-,-,-,-,-,-,-,-,-,-,-,-,-,-,-,-,-,-,-,-,-,2020,10,19
27,28,413,Wichian Buri (2),Northern,15.65694444,101.1083333,-,-,-,-,-,-,-,-,-,-,-,-,-,-,-,-,-,-,-,-,-,-,-,-,-,2020,10,19
28,29,380,Kamphaeng Phet,Northern,16.48680556,99.52697222,-,-,-,-,-,-,-,-,-,-,-,-,-,-,-,-,-,-,-,-,-,-,-,-,-,2020,10,19
29,30,386,Phicit (1),Northern,16.33861111,100.3671111,-,-,-,-,-,-,-,-,-,-,-,-,-,-,-,-,-,-,-,-,-,-,-,-,-,2020,10,19
30,31,352,Nong Khai,Northeastern,17.86716667,102.7330278,-,-,-,0.11953026801347733,0.18221521377563477,-,-,0.11953026801347733,0.18221521377563477,0.18703711032867432,-,-,-,-,-,-,-,-,-,-,-,-,-,-,0.7905280590057373,2020,10,19
31,32,353,Loei,Northeastern,17.45,101.7333333,-,-,-,-,-,-,-,-,-,-,-,-,-,-,-,-,-,-,-,-,-,-,-,-,-,2020,10,19
32,33,350,Loei (1),Northeastern,17.4,101.7333333,-,-,-,-,-,-,-,-,-,-,-,0.26897674798965454,-,-,-,-,-,-,-,-,-,-,-,-,0.26897674798965454,2020,10,19
33,34,354,Udon Thani,Northeastern,17.38333333,102.8,-,-,-,-,-,-,-,-,-,-,0.04296712577342987,-,0.15579615533351898,0.16744691133499146,-,-,-,-,-,-,-,-,-,-,0.3662101924419403,2020,10,19
34,35,357,Nakhon Phanom,Northeastern,17.41083333,104.7825,3.8412601947784424,-,-,-,-,-,-,-,-,-,-,-,-,-,-,-,-,-,-,-,-,-,-,-,7.682520389556885,2020,10,19
35,36,358,Nakhon Phanom (1),Northeastern,17.44305556,104.7736111,3.8412601947784424,-,-,-,-,-,-,-,-,-,-,-,-,-,-,-,-,-,-,-,-,-,-,-,7.682520389556885,2020,10,19
36,37,356,Sakon Nakhon,Northeastern,17.15000278,104.1333361,-,-,-,-,-,-,-,-,-,-,-,-,-,-,-,-,-,-,-,-,-,-,-,-,-,2020,10,19
37,38,355,Sakon Nakhon (1),Northeastern,17.12502778,104.061,-,-,-,-,-,-,-,-,-,-,-,-,-,-,-,-,-,-,-,-,-,-,-,-,-,2020,10,19
38,39,360,Nong Bua Lumphu,Northeastern,17.2325,102.4294444,-,-,-,-,-,-,-,-,-,-,-,-,-,-,-,-,-,-,-,-,-,-,-,-,-,2020,10,19
39,40,383,Mukdahan,Northeastern,16.54955556,104.7308889,-,-,-,-,-,-,-,-,-,-,-,-,-,-,-,-,0.04192901402711868,-,-,-,-,-,-,-,0.04192901402711868,2020,10,19
40,41,381,Khon Kaen,Northeastern,16.46111111,102.7897222,-,-,-,-,-,-,-,-,-,-,0.03720599785447121,-,-,-,-,-,-,-,-,-,-,-,0.04947824031114578,-,0.08668424189090729,2020,10,19
41,42,384,Tha Pra (1),Northeastern,16.333,102.8166667,-,-,-,-,-,-,-,-,-,-,-,-,-,-,-,-,-,-,-,-,-,-,-,-,-,2020,10,19
42,43,382,Kosum Phisai (2),Northeastern,16.24722222,103.0680556,-,-,-,-,-,-,-,-,-,-,-,-,-,-,-,-,-,-,-,-,-,-,-,-,-,2020,10,19
43,44,390,Kamalasai (2),Northeastern,16.3325,103.5883333,-,-,-,-,-,-,-,-,-,-,0.03410465642809868,0.1554209291934967,-,-,-,-,-,-,-,-,-,-,-,-,0.18952558934688568,2020,10,19
44,45,405,Roi Et,Northeastern,16.05000028,103.68333359999998,-,-,-,-,-,-,-,-,-,-,-,-,-,-,-,-,-,-,-,-,-,-,-,-,-,2020,10,19
45,46,404,Roi Et (1),Northeastern,16.07322222,103.6084444,-,-,-,-,-,-,-,-,-,-,-,-,-,-,-,-,-,-,-,-,-,-,-,-,-,2020,10,19
46,47,403,Chaiyaphum,Northeastern,15.80000028,102.0333336,-,-,-,0.01664738729596138,0.11529310047626495,-,-,0.01664738729596138,0.11529310047626495,-,-,-,-,-,-,-,-,-,-,-,-,-,-,-,0.26388096809387207,2020,10,19
47,48,407,Ubon Ratchathani,Northeastern,15.25000278,104.8666694,-,-,-,-,-,-,-,-,-,-,-,-,-,1.1744235754013062,0.09325511753559113,-,-,-,-,-,-,-,-,-,1.2676787376403809,2020,10,19
48,49,408,Ubon Ratchathani (1),Northeastern,15.24072222,105.01966670000002,-,-,-,-,-,-,-,-,-,-,0.24734193086624146,-,-,0.2700585126876831,0.053502924740314484,0.14724954962730408,-,-,-,-,-,-,-,-,0.7181528806686401,2020,10,19
49,50,409,Si Saket (1),Northeastern,15.00000028,104.0500003,-,-,-,-,-,-,-,-,-,-,-,-,-,-,-,-,-,-,-,-,-,-,-,-,-,2020,10,19
50,51,416,Tha Tum (2),Northeastern,15.31666694,103.68333359999998,-,-,-,-,-,-,-,-,-,-,-,-,-,-,-,-,-,-,-,-,-,-,-,-,-,2020,10,19
51,52,432,Surin,Northeastern,14.88333361,103.5000003,-,-,-,-,-,-,-,-,-,-,-,-,-,-,-,-,-,-,-,-,-,-,-,-,-,2020,10,19
52,53,433,Surin (1),Northeastern,14.88333361,103.4500003,-,-,-,-,-,-,-,-,-,-,-,-,-,-,-,-,-,-,-,-,-,-,-,-,-,2020,10,19
53,54,431,Nakhon Ratchasima,Northeastern,14.96830556,102.0860278,-,-,-,-,-,-,-,-,-,-,-,-,-,-,-,-,-,-,-,-,-,-,-,-,-,2020,10,19
54,55,435,Pakchong (1),Northeastern,14.64388889,101.3319444,-,-,-,-,-,-,-,-,-,-,-,-,-,-,-,-,-,-,-,-,-,-,-,-,-,2020,10,19
55,56,434,Chok Chai (2),Northeastern,14.71888889,102.1686111,0.23237483203411102,0.14356514811515808,-,-,-,0.14356514811515808,-,-,-,-,-,-,-,-,-,-,-,-,-,-,-,-,-,-,0.7518799304962158,2020,10,19
56,57,437,Buri Ram,Northeastern,15.22575,103.2480833,-,-,-,-,-,-,-,-,-,-,-,-,0.11175434291362762,0.0971863716840744,-,-,-,-,-,-,-,-,-,-,0.20894071459770203,2020,10,19
57,58,436,Nang Rong (2),Northeastern,14.58333361,102.8000003,-,-,-,-,-,-,-,-,-,-,-,-,-,-,-,-,-,-,-,-,-,-,-,-,-,2020,10,19
58,59,400,Nakhon Sawan,Central,15.67183333,100.1323611,-,-,-,-,-,-,-,-,-,-,-,-,-,-,-,-,-,-,-,-,-,-,-,-,-,2020,10,19
59,60,401,Takfa (1),Central,15.34944444,100.5302778,-,-,-,-,-,-,-,-,-,-,-,-,-,-,-,-,-,-,-,-,-,-,-,-,-,2020,10,19
60,61,402,Chai Nat,Central,15.15000278,100.18333359999998,-,-,-,-,-,-,-,-,-,-,-,-,-,-,-,-,-,-,-,-,-,-,-,-,-,2020,10,19
61,62,410,U Thai Thani,Central,15.37416667,100.0388889,-,-,-,-,-,-,-,-,-,-,-,-,-,-,-,-,-,-,-,-,-,-,-,-,-,2020,10,19
62,63,415,Ayuthaya (1),Central,14.53472222,100.725,-,-,-,-,-,-,-,-,-,-,-,-,-,-,-,-,-,-,-,-,-,-,-,-,-,2020,10,19
63,64,418,Bua Chum (2),Central,15.10000028,101.6166669,-,-,-,-,-,-,-,-,-,-,-,-,-,-,-,-,-,-,-,-,-,-,-,-,-,2020,10,19
64,65,426,Lop Buri,Central,14.79972222,100.6283333,-,-,-,-,-,-,-,-,-,-,-,-,-,-,-,-,-,-,-,-,-,-,-,-,-,2020,10,19
65,66,425,Suphan Buri,Central,14.47444444,100.1388889,-,-,-,-,-,-,-,-,-,-,-,-,-,-,-,-,-,-,-,-,-,-,-,-,-,2020,10,19
66,67,427,Uthong (1),Central,14.30361111,99.86472222,-,-,-,-,-,-,-,-,-,-,-,-,-,-,-,-,-,-,-,-,-,-,-,-,-,2020,10,19
67,68,421,Thong Pha Phum,Central,14.74222222,98.63638889,-,-,-,-,-,-,-,-,-,-,-,-,-,-,-,-,-,-,-,-,-,-,-,-,-,2020,10,19
68,69,450,Kanchanaburi,Central,14.0225,99.53583333,-,-,0.05255132168531418,0.04993180185556412,0.0444730706512928,-,0.05255132168531418,0.04993180185556412,0.0444730706512928,0.034880202263593674,-,-,-,-,-,-,-,-,-,-,-,-,-,-,0.32879260182380676,2020,10,19
69,70,464,Ratcha Buri (1),Central,13.48930556,99.79238889,-,-,-,0.37963375449180603,0.1686115264892578,-,-,0.37963375449180603,0.1686115264892578,0.16054807603359222,-,-,-,-,-,-,-,-,-,-,-,-,-,-,1.2570387125015259,2020,10,19
70,71,451,Kampheang Saen (1),Central,14.01166667,99.97,-,-,-,-,-,-,-,-,-,-,-,-,-,-,-,-,-,-,-,-,-,-,-,-,-,2020,10,19
71,72,419,Pathum Thani (1),Central,14.1,100.616,-,-,-,-,-,-,-,-,-,-,-,-,-,-,-,-,-,-,-,-,-,-,-,-,-,2020,10,19
72,73,420,Samut Prakan,Central,13.51666694,100.7616667,-,-,-,-,-,-,-,-,-,-,-,-,-,-,-,-,-,-,-,-,-,-,-,-,-,2020,10,19
73,74,429,Suvarnabhumi Airport,Central,13.68638889,100.7675,-,-,-,-,-,-,-,-,-,-,-,-,-,-,-,-,-,-,-,-,-,-,-,-,-,2020,10,19
74,75,456,Don Muang Airport,Central,13.91916667,100.605,-,-,-,0.03713186830282211,0.12766194343566895,-,-,0.03713186830282211,0.12766194343566895,0.11717233061790466,-,-,-,-,-,-,-,-,-,-,-,-,-,-,0.446759968996048,2020,10,19
75,76,455,Sirikit Center,Central,13.72638889,100.56,-,-,-,0.058993227779865265,0.13724005222320557,-,-,0.058993227779865265,0.13724005222320557,0.13429856300354004,-,-,-,-,-,-,-,-,-,-,-,-,-,-,0.5267651081085205,2020,10,19
76,77,454,Bangkok Port,Central,13.70694444,100.5680556,-,-,-,0.058993227779865265,0.13724005222320557,-,-,0.058993227779865265,0.13724005222320557,0.13429856300354004,-,-,-,-,-,-,-,-,-,-,-,-,-,-,0.5267651081085205,2020,10,19
77,78,453,Bang Na (1),Central,13.66638889,100.6061111,-,-,-,0.018317092210054398,0.12541037797927856,-,-,0.018317092210054398,0.12541037797927856,0.10051657259464264,-,-,-,-,-,-,-,-,-,-,-,-,-,-,0.38797152042388916,2020,10,19
78,79,457,Bangkok Pilot,Central,13.37722222,100.5994444,-,-,-,-,-,-,-,-,-,-,-,-,-,-,-,-,-,-,-,-,-,-,-,-,-,2020,10,19
79,80,430,Prachin Buri,Eastern,14.05091667,101.3693056,0.08000259846448898,0.055512234568595886,-,-,-,0.055512234568595886,-,-,-,-,-,-,-,-,-,-,-,-,-,-,-,-,-,-,0.27102965116500854,2020,10,19
80,81,439,Kabin Buri (2),Eastern,13.98333361,101.7072222,0.1519068330526352,-,-,-,-,-,-,-,-,-,-,-,-,-,-,-,-,-,-,-,-,-,-,-,0.3038136661052704,2020,10,19
81,82,440,Sa Kaeo (2),Eastern,13.78888889,102.0347222,-,-,-,-,-,-,-,-,-,-,-,-,-,-,-,-,-,-,-,-,-,-,-,-,-,2020,10,19
82,83,462,Aranyaprathet,Eastern,13.70000028,102.5833336,-,-,-,-,-,-,-,-,-,-,-,-,-,-,-,-,-,-,-,-,-,-,-,-,-,2020,10,19
83,84,458,Chachoengsao (1),Eastern,13.51555556,101.4583333,-,-,-,-,-,-,-,-,-,-,-,-,-,-,-,-,-,-,-,-,-,-,-,-,-,2020,10,19
84,85,459,Chon Buri,Eastern,13.36666694,100.9833336,-,-,-,-,-,-,-,-,-,-,-,-,-,-,-,-,-,-,-,-,-,-,-,-,-,2020,10,19
85,86,463,Laem Chabang,Eastern,13.07694444,100.8758333,-,-,-,-,-,-,-,-,-,-,-,-,-,-,-,-,-,-,-,-,-,-,-,-,-,2020,10,19
86,87,460,Ko Sichang,Eastern,13.16166667,100.8019444,-,-,-,-,-,-,-,-,-,-,-,-,-,-,-,-,-,-,-,-,-,-,-,-,-,2020,10,19
87,88,461,Pattaya,Eastern,12.92,100.8694444,-,-,-,-,-,-,-,-,-,-,-,-,-,-,-,-,-,-,-,-,-,-,-,-,-,2020,10,19
88,89,477,Sattahip,Eastern,12.68333361,100.9833336,-,-,-,-,-,-,-,-,-,-,-,-,-,-,-,-,-,-,-,-,-,-,0.10236725211143494,0.32154980301856995,0.4239170551300049,2020,10,19
89,90,478,Rayong,Eastern,12.61702778,101.34075,0.2362731248140335,0.2647472620010376,-,-,-,0.2647472620010376,-,-,-,-,-,-,-,-,-,-,-,-,-,-,-,-,-,-,1.0020407438278198,2020,10,19
90,91,479,Huai Pong (1),Eastern,12.73333361,101.1333336,-,-,-,-,-,-,-,-,-,-,-,-,-,-,-,-,-,-,-,-,-,-,-,-,-,2020,10,19
91,92,480,Chanthaburi,Eastern,12.61666694,102.1133333,0.11497842520475388,0.15304423868656158,-,-,-,0.15304423868656158,-,-,-,-,-,-,-,-,-,-,-,0.045013707131147385,-,-,-,-,-,-,0.5810590386390686,2020,10,19
92,93,481,Pluei (1),Eastern,12.50861111,102.1730556,0.17229273915290833,0.17788659036159515,-,-,-,0.17788659036159515,-,-,-,-,-,-,-,-,-,0.011666703037917614,0.06081550568342209,-,-,-,-,-,-,-,0.7728408575057983,2020,10,19
93,94,501,Khlong Yai,Eastern,11.76666694,102.8833336,-,-,-,-,-,-,-,-,-,-,-,-,-,-,-,-,-,-,-,-,-,-,-,-,-,2020,10,19
94,95,465,Phetchaburi,Southern EastCoast,12.99930556,100.0605278,-,-,-,-,-,-,-,-,-,-,-,-,-,-,-,-,-,-,-,-,-,-,-,-,-,2020,10,19
95,96,474,Nong Plub (1),Southern EastCoast,12.58925,99.73461111,-,-,-,-,-,-,-,-,-,-,-,-,-,-,-,1.4574846029281616,0.27726247906684875,0.17961986362934113,-,-,-,-,-,-,1.9143669605255127,2020,10,19
96,97,475,Hua Hin,Southern EastCoast,12.57797222,99.95372222,-,-,-,-,-,-,-,-,-,-,-,-,-,-,-,1.0380160808563232,0.21021538972854614,-,-,-,-,-,-,-,1.2482314109802246,2020,10,19
97,98,500,Prachuap Khiri Khan,Southern EastCoast,11.83497222,99.81047222,-,-,-,-,-,-,-,-,-,-,-,-,-,-,0.5299502611160278,-,-,-,-,-,-,-,-,-,0.5299502611160278,2020,10,19
98,99,517,Chumphon,Southern EastCoast,10.49875,99.18847222,-,-,1.433220386505127,0.28058794140815735,0.5451516509056091,-,1.433220386505127,0.28058794140815735,0.5451516509056091,0.5917990803718567,-,-,-,-,-,-,-,-,-,-,-,-,-,-,5.109719276428223,2020,10,19
99,100,520,Sawee (1),Southern EastCoast,10.33063889,99.09186111,-,-,1.6032297611236572,0.2952928841114044,1.201208233833313,-,1.6032297611236572,0.2952928841114044,1.201208233833313,0.5398185849189758,-,-,-,-,-,-,-,-,-,-,-,-,-,-,6.7392802238464355,2020,10,19
100,101,551,Surat Thani,Southern EastCoast,9.1335,99.15213889,-,-,-,-,-,-,-,-,-,-,-,-,-,-,-,-,-,-,-,-,-,-,-,-,-,2020,10,19
101,102,555,Surat Thani (1),Southern EastCoast,9.144805556,99.63361111,-,-,-,-,-,-,-,-,-,-,-,-,-,-,-,-,-,-,-,-,-,-,-,-,-,2020,10,19
102,103,550,Ko Samui,Southern EastCoast,9.466666667,100.05,-,-,-,-,-,-,-,-,-,-,-,-,-,-,-,-,-,-,-,-,-,-,-,3.035003185272217,3.035003185272217,2020,10,19
103,104,556,Prasang (2),Southern EastCoast,8.572083333,99.25519444,-,-,-,-,-,-,-,-,-,-,-,-,-,-,-,-,-,-,-,-,-,-,-,-,-,2020,10,19
104,105,557,Chawang (2),Southern EastCoast,8.424694444,99.50661111,-,-,-,-,-,-,-,-,-,-,-,-,-,-,-,-,-,-,-,-,-,-,-,-,-,2020,10,19
105,106,552,Nakhon Si Thammarat,Southern EastCoast,8.537777777999999,99.94722222,-,-,-,-,-,-,-,-,-,-,-,-,-,-,-,-,-,-,-,-,-,-,-,-,-,2020,10,19
106,107,554,Nakhon Si Thammarat (1),Southern EastCoast,8.359305556,100.0,-,-,-,-,-,-,-,-,-,-,-,-,-,-,-,-,-,-,-,-,-,-,-,-,-,2020,10,19
107,108,560,Pattalung (1),Southern EastCoast,7.583333611,100.1666669,-,-,-,-,-,-,-,-,-,-,-,-,-,-,-,-,-,-,-,-,-,-,-,-,-,2020,10,19
108,109,568,Songkhla,Southern EastCoast,7.182111111,100.6076944,-,-,-,-,-,-,-,-,-,-,-,-,-,-,-,-,-,-,-,-,-,-,-,-,-,2020,10,19
109,110,569,Hat Yai,Southern EastCoast,6.916666944,100.43333359999998,-,-,-,-,-,-,-,-,-,-,-,-,-,-,-,-,-,-,-,-,-,-,-,-,-,2020,10,19
110,111,571,Korhong (1),Southern EastCoast,7.0,100.5,-,-,-,-,-,-,-,-,-,-,-,-,-,-,-,-,-,-,-,-,-,-,-,-,-,2020,10,19
111,112,574,Sa Dao (2),Southern EastCoast,6.798055556,100.3905556,-,-,-,-,-,-,-,-,-,-,-,-,-,-,-,-,-,-,-,-,-,-,-,-,-,2020,10,19
112,113,580,Pattani,Southern EastCoast,6.7833336110000015,101.1500003,-,-,-,-,-,-,-,-,-,-,-,-,-,-,-,-,-,-,-,-,-,-,-,-,-,2020,10,19
113,114,581,Yala (1),Southern EastCoast,6.050000278,101.2833336,-,-,-,-,-,-,-,-,-,-,-,-,-,-,-,-,-,-,-,-,-,-,-,-,-,2020,10,19
114,115,583,Narathiwat,Southern EastCoast,6.416666944,101.81666690000002,-,-,-,-,-,-,-,-,-,-,-,-,-,-,-,-,-,-,-,-,-,-,-,-,-,2020,10,19
115,116,532,Ranong,Southern WestCoast,9.983333611,98.61666694,-,-,-,0.13738958537578583,0.3781857490539551,-,-,0.13738958537578583,0.3781857490539551,0.2672978341579437,-,-,-,-,-,-,-,-,-,-,-,-,-,-,1.2984485626220703,2020,10,19
116,117,561,Takua Pa,Southern WestCoast,8.684166667000001,98.25222222,-,-,-,-,-,-,-,-,-,-,-,-,-,-,-,-,-,-,-,-,-,-,-,-,-,2020,10,19
117,118,564,Phuket,Southern WestCoast,7.883333611,98.40000028,-,-,-,-,-,-,-,-,-,-,-,-,-,-,-,-,-,-,-,-,-,-,-,-,-,2020,10,19
118,119,565,Phuket Airport,Southern WestCoast,8.145,98.31444444,-,-,-,-,-,-,-,-,-,-,-,-,-,-,-,-,-,-,-,-,-,-,-,-,-,2020,10,19
119,120,563,Krabi,Southern WestCoast,8.103611111000001,98.97527778,-,-,-,-,-,-,-,-,-,-,-,-,-,-,-,-,-,-,-,-,-,-,-,-,-,2020,10,19
120,121,566,Ko Lanta,Southern WestCoast,7.5333336110000015,99.05000028,-,-,-,-,-,-,-,-,-,-,-,-,-,-,-,-,-,-,-,-,-,-,-,-,-,2020,10,19
121,122,567,Trang,Southern WestCoast,7.516666944,99.61666694,-,-,-,-,-,-,-,-,-,-,-,-,-,-,-,-,-,-,-,-,-,-,-,-,-,2020,10,19
122,123,570,Satun,Southern WestCoast,6.650000277999999,100.0833336,-,-,-,-,-,-,-,-,-,-,-,-,-,-,-,-,-,-,-,-,-,-,-,-,-,2020,10,19
