,ID,WMO_CODE,NAME_EN,Region,Latitude,Longitude,00Z,01Z,02Z,03Z,04Z,05Z,06Z,07Z,08Z,09Z,10Z,11Z,12Z,13Z,14Z,15Z,16Z,17Z,18Z,19Z,20Z,21Z,22Z,23Z,sum,year,month,day
0,1,300,Mae Hong Son,Northern,19.29897222,97.97577778,-,-,-,-,-,-,-,-,-,-,-,-,-,-,-,-,-,-,-,-,-,-,-,-,-,2020,06,30
1,2,325,Mae Sariang,Northern,18.16666667,97.93333333,-,-,-,-,-,-,-,-,-,-,-,-,-,-,-,-,-,-,-,-,-,-,-,-,-,2020,06,30
2,3,303,Chiang Rai,Northern,19.96138889,99.88138889,-,-,-,-,-,-,-,-,-,-,-,-,-,-,-,-,-,-,-,2.883244276046753,4.663750171661377,1.4427851438522339,-,-,8.989779472351074,2020,06,30
3,4,304,Chiang Rai (1),Northern,19.87083333,99.78277778,-,-,-,-,-,-,-,-,-,-,-,-,-,-,-,-,-,-,-,-,-,-,-,-,-,2020,06,30
4,5,310,Phayao,Northern,19.13333333,99.9,-,-,-,-,-,-,-,-,-,-,-,-,0.08300184458494186,-,-,-,-,-,-,-,-,-,-,2.9782450199127197,3.061246871948242,2020,06,30
5,6,327,Chiang Mai,Northern,18.79,98.97694444,-,-,-,-,-,-,-,-,-,-,-,-,-,-,-,-,-,-,-,-,-,-,-,-,-,2020,06,30
6,7,302,Doi Angkhlang,Northern,19.93138889,99.04833333,-,-,-,-,-,-,-,-,-,-,-,-,-,-,-,-,-,-,-,-,-,-,-,2.341153144836426,2.341153144836426,2020,06,30
7,8,331,Nan,Northern,18.77972222,100.7777778,-,-,-,-,-,-,-,-,-,-,-,-,2.043734073638916,-,-,-,-,-,-,-,-,-,-,-,2.043734073638916,2020,06,30
8,9,333,Nan (1),Northern,18.86666667,100.75,-,-,-,-,-,-,-,-,-,-,-,-,-,-,-,-,-,-,-,-,-,-,-,-,-,2020,06,30
9,10,315,Tha Wang Pha (2),Northern,19.11055556,100.8025,-,-,-,-,-,-,-,-,-,-,-,-,-,-,-,-,-,-,-,-,-,-,-,-,-,2020,06,30
10,11,307,Thung Chang (2),Northern,19.41194444,100.8835278,-,-,-,-,-,-,-,-,-,-,-,-,-,-,-,-,-,-,-,-,-,-,-,-,-,2020,06,30
11,12,329,Lamphun,Northern,18.56666667,99.03333333,-,-,-,-,-,-,-,-,-,-,-,-,-,-,-,-,-,-,-,-,-,-,-,-,-,2020,06,30
12,13,328,Lampang,Northern,18.33333333,99.51666667,-,-,-,-,-,-,-,-,-,-,-,-,-,-,-,-,-,-,-,-,-,-,-,-,-,2020,06,30
13,14,334,Lampang (1),Northern,18.31666667,99.28333333,-,-,-,-,-,-,-,-,-,-,-,-,-,-,-,-,-,-,-,-,-,-,-,-,-,2020,06,30
14,15,324,Thoen,Northern,17.63661111,99.24475,-,-,-,-,-,-,-,-,-,-,-,-,-,-,-,-,-,-,-,-,-,-,-,-,-,2020,06,30
15,16,330,Phrae,Northern,18.16666667,100.1666667,-,-,-,-,-,-,-,-,-,-,-,-,-,-,-,-,-,-,-,-,-,-,-,-,-,2020,06,30
16,17,351,Uttaradit,Northern,17.61666667,100.1000028,-,-,-,-,-,-,-,-,-,-,-,-,-,-,-,-,-,-,-,-,-,-,-,-,-,2020,06,30
17,18,372,Sukhothai,Northern,17.10611111,99.8,-,-,-,-,-,-,-,-,-,-,-,-,-,-,-,-,-,-,-,-,-,-,-,-,-,2020,06,30
18,19,373,Si Samrong (1),Northern,17.77361111,99.24944444,-,-,-,-,-,-,-,-,-,-,-,0.04520924761891365,-,-,-,-,-,-,-,-,-,-,-,-,0.04520924761891365,2020,06,30
19,20,377,Bhumibol Dam,Northern,17.24391667,99.00252778,-,-,-,-,-,-,-,-,-,-,-,-,-,-,-,-,-,-,-,-,-,-,-,-,-,2020,06,30
20,21,376,Tak,Northern,16.87836111,99.14336111,-,-,-,-,-,-,-,-,-,-,-,-,-,-,-,-,-,-,-,-,-,-,-,-,-,2020,06,30
21,22,375,Mae Sot,Northern,16.65916667,98.55086111,-,-,-,-,-,-,-,-,-,-,-,-,0.23968052864074707,-,-,-,-,3.657003402709961,-,-,-,-,-,-,3.896683931350708,2020,06,30
22,23,385,Umphang (2),Northern,16.02472222,98.86444444,-,-,-,-,-,-,-,-,-,-,-,-,-,-,0.5000545382499695,-,-,-,-,-,-,-,-,-,0.5000545382499695,2020,06,30
23,24,387,Doi Muser (1),Northern,16.75,98.93333611,-,-,-,-,-,-,-,-,-,-,-,-,-,-,-,-,-,2.9187493324279785,-,-,-,-,-,-,2.9187493324279785,2020,06,30
24,25,378,Phitsanulok,Northern,16.79622222,100.2759444,-,-,-,-,-,-,-,-,-,-,-,-,-,-,-,-,-,-,0.1889408379793167,0.13777481019496918,0.08763646334409714,0.05143233761191368,0.039420612156391144,0.04817095026373863,0.5533760190010071,2020,06,30
25,26,374,Lom Sak (2),Northern,16.77363889,101.2494722,-,-,-,-,-,-,-,-,-,-,-,1.6828898191452026,-,-,-,0.07313120365142822,0.9602693915367126,-,-,0.2942390441894531,0.8015165328979492,0.08863970637321472,0.04037967696785927,0.07417408376932144,4.015239715576172,2020,06,30
26,27,379,Phetchabun,Northern,16.43333611,101.15,-,-,-,-,-,-,-,-,-,-,-,-,-,-,-,-,-,-,0.9192809462547302,0.32640159130096436,-,0.5487412810325623,0.14576810598373413,0.0844155102968216,2.0246074199676514,2020,06,30
27,28,413,Wichian Buri (2),Northern,15.65694444,101.1083333,-,-,-,-,-,-,-,-,-,-,-,-,-,-,-,-,-,-,-,-,-,0.860739529132843,0.6535273194313049,3.125464677810669,4.639731407165527,2020,06,30
28,29,380,Kamphaeng Phet,Northern,16.48680556,99.52697222,-,-,-,-,-,-,-,-,-,-,-,-,-,-,-,0.2406758964061737,-,-,-,-,-,-,-,0.03116554208099842,0.271841436624527,2020,06,30
29,30,386,Phicit (1),Northern,16.33861111,100.3671111,-,-,-,-,-,-,-,-,-,-,-,-,-,-,-,-,-,-,-,-,-,-,0.04067935794591904,0.04974967986345291,0.09042903780937195,2020,06,30
30,31,352,Nong Khai,Northeastern,17.86716667,102.7330278,-,-,-,-,-,-,-,-,-,-,-,-,-,-,-,-,-,-,-,-,-,-,-,-,-,2020,06,30
31,32,353,Loei,Northeastern,17.45,101.7333333,-,-,-,-,-,-,-,-,-,-,-,-,-,2.4981391429901123,2.7970550060272217,3.788604497909546,3.3403313159942627,0.739224374294281,-,-,-,-,-,-,13.16335391998291,2020,06,30
32,33,350,Loei (1),Northeastern,17.4,101.7333333,-,-,-,-,-,-,-,-,-,-,-,-,-,1.7688969373703003,3.2743921279907227,4.588420391082764,3.8505747318267822,1.0700207948684692,0.2457485944032669,-,-,-,-,-,14.798053741455078,2020,06,30
33,34,354,Udon Thani,Northeastern,17.38333333,102.8,-,-,-,-,-,-,-,-,-,-,0.7571770548820496,0.021266810595989227,-,0.049172013998031616,0.4557497799396515,1.3930109739303589,0.39539650082588196,0.5522580146789551,-,-,-,-,-,-,3.6240310668945312,2020,06,30
34,35,357,Nakhon Phanom,Northeastern,17.41083333,104.7825,-,-,-,-,-,-,-,-,-,-,0.14320595562458038,0.028887150809168816,-,-,0.43713971972465515,-,-,-,-,-,-,-,-,-,0.6092328429222107,2020,06,30
35,36,358,Nakhon Phanom (1),Northeastern,17.44305556,104.7736111,-,-,-,-,-,-,-,-,-,-,0.14320595562458038,0.028887150809168816,-,-,0.43713971972465515,-,-,-,-,-,-,-,-,-,0.6092328429222107,2020,06,30
36,37,356,Sakon Nakhon,Northeastern,17.15000278,104.1333361,-,-,-,-,-,-,-,-,-,-,-,-,-,2.969719886779785,1.637239933013916,2.785332441329956,2.254566192626953,1.2786983251571655,-,-,-,-,-,-,10.925556182861328,2020,06,30
37,38,355,Sakon Nakhon (1),Northeastern,17.12502778,104.061,-,-,-,-,-,-,-,-,-,-,-,-,-,3.341723918914795,1.178059458732605,2.739285469055176,1.8697479963302612,1.0885326862335205,-,0.12837865948677063,-,-,-,-,10.345727920532227,2020,06,30
38,39,360,Nong Bua Lumphu,Northeastern,17.2325,102.4294444,-,-,-,-,-,-,-,-,-,-,-,0.09356971085071564,0.26458215713500977,1.453397274017334,2.83858060836792,3.3992908000946045,1.0732942819595337,0.3315161168575287,0.11645577102899551,-,-,-,-,-,9.570687294006348,2020,06,30
39,40,383,Mukdahan,Northeastern,16.54955556,104.7308889,-,-,-,-,-,-,-,-,-,-,-,-,-,-,-,-,-,0.8048450946807861,0.06810358911752701,0.1192648634314537,0.12135016173124313,0.0650845542550087,-,-,1.1786482334136963,2020,06,30
40,41,381,Khon Kaen,Northeastern,16.46111111,102.7897222,-,-,-,-,-,-,-,-,-,-,0.4311821162700653,0.044359512627124786,0.05972496047616005,-,0.1261274665594101,3.2534241676330566,4.427884101867676,4.547221660614014,3.496260643005371,0.8872514367103577,0.4914914667606354,0.2864517271518707,0.2783796191215515,0.7586712837219238,19.088428497314453,2020,06,30
41,42,384,Tha Pra (1),Northeastern,16.333,102.8166667,-,-,-,-,-,-,-,-,-,-,-,-,0.34845831990242004,-,0.08459527045488358,2.6531007289886475,4.9281325340271,5.779360294342041,3.7239792346954346,1.7643262147903442,0.8804715871810913,0.16249774396419525,0.2619340419769287,0.6042317748069763,21.191089630126953,2020,06,30
42,43,382,Kosum Phisai (2),Northeastern,16.24722222,103.0680556,-,-,-,-,0.0602845624089241,0.028667667880654335,-,-,-,-,-,-,-,-,3.366131067276001,4.550638198852539,5.196901321411133,6.628121376037598,5.827934741973877,3.229954957962036,0.49018555879592896,0.2522273063659668,0.22251032292842865,0.1183832436800003,29.971940994262695,2020,06,30
43,44,390,Kamalasai (2),Northeastern,16.3325,103.5883333,-,-,-,-,-,-,-,-,-,-,-,-,-,-,-,-,-,4.912428855895996,3.301328420639038,0.4248834550380707,0.34858089685440063,0.6819025278091431,0.0830729603767395,0.07675463706254959,9.82895278930664,2020,06,30
44,45,405,Roi Et,Northeastern,16.05000028,103.68333359999998,-,-,-,-,-,-,-,-,-,-,-,-,-,0.1845073103904724,0.9524081945419312,3.1770777702331543,3.9874794483184814,-,-,-,1.9567557573318481,-,-,0.09339682012796402,10.351625442504883,2020,06,30
45,46,404,Roi Et (1),Northeastern,16.07322222,103.6084444,-,-,-,-,-,-,-,-,-,-,-,-,-,0.1845073103904724,0.9524081945419312,3.1770777702331543,3.9874794483184814,-,-,-,1.9567557573318481,-,-,0.09339682012796402,10.351625442504883,2020,06,30
46,47,403,Chaiyaphum,Northeastern,15.80000028,102.0333336,-,-,-,-,-,-,-,-,-,-,-,-,-,-,-,-,-,4.855446815490723,4.59351921081543,3.9501917362213135,4.6046271324157715,3.5237720012664795,4.218114376068115,5.658867359161377,31.404537200927734,2020,06,30
47,48,407,Ubon Ratchathani,Northeastern,15.25000278,104.8666694,-,-,-,-,-,-,-,-,-,-,-,-,-,-,-,-,-,-,-,-,-,-,-,-,-,2020,06,30
48,49,408,Ubon Ratchathani (1),Northeastern,15.24072222,105.01966670000002,-,-,-,-,-,-,-,-,-,-,-,-,-,-,-,-,-,-,-,-,-,-,-,-,-,2020,06,30
49,50,409,Si Saket (1),Northeastern,15.00000028,104.0500003,-,-,-,-,-,-,-,-,-,-,-,-,-,-,-,-,-,-,-,-,-,-,-,-,-,2020,06,30
50,51,416,Tha Tum (2),Northeastern,15.31666694,103.68333359999998,-,-,-,-,-,-,-,-,-,-,-,-,0.023867089301347733,-,-,-,-,-,-,-,-,-,-,-,0.023867089301347733,2020,06,30
51,52,432,Surin,Northeastern,14.88333361,103.5000003,-,-,-,-,-,-,-,-,-,-,-,-,-,-,-,-,-,-,-,-,-,-,-,-,-,2020,06,30
52,53,433,Surin (1),Northeastern,14.88333361,103.4500003,-,-,-,-,-,-,-,-,-,-,-,-,-,-,-,-,-,-,-,-,-,-,-,-,-,2020,06,30
53,54,431,Nakhon Ratchasima,Northeastern,14.96830556,102.0860278,-,-,-,-,-,-,-,-,-,-,-,-,-,-,-,-,-,-,-,-,-,-,-,1.7656822204589844,1.7656822204589844,2020,06,30
54,55,435,Pakchong (1),Northeastern,14.64388889,101.3319444,-,-,-,-,-,-,-,-,-,-,-,-,-,-,-,-,-,-,-,-,-,-,-,-,-,2020,06,30
55,56,434,Chok Chai (2),Northeastern,14.71888889,102.1686111,-,-,-,-,-,-,-,-,-,-,-,-,-,-,-,-,-,-,-,-,-,-,-,-,-,2020,06,30
56,57,437,Buri Ram,Northeastern,15.22575,103.2480833,-,-,-,-,-,-,-,-,-,-,-,-,-,-,-,-,-,-,-,-,-,1.7537859678268433,-,-,1.7537859678268433,2020,06,30
57,58,436,Nang Rong (2),Northeastern,14.58333361,102.8000003,-,-,-,-,-,-,-,-,-,-,0.05714607611298561,1.3258095979690552,-,-,-,-,-,-,-,-,-,-,-,-,1.3829556703567505,2020,06,30
58,59,400,Nakhon Sawan,Central,15.67183333,100.1323611,-,-,-,-,-,-,-,-,-,-,-,-,-,-,-,-,-,-,-,-,-,-,-,-,-,2020,06,30
59,60,401,Takfa (1),Central,15.34944444,100.5302778,-,-,-,-,-,-,-,-,-,-,-,-,-,-,-,-,-,-,-,-,-,-,-,-,-,2020,06,30
60,61,402,Chai Nat,Central,15.15000278,100.18333359999998,-,-,-,-,-,-,-,-,-,-,-,-,-,-,-,-,-,-,-,-,-,-,-,-,-,2020,06,30
61,62,410,U Thai Thani,Central,15.37416667,100.0388889,-,-,-,-,-,-,-,-,-,-,-,-,-,-,-,-,-,-,-,-,-,-,-,-,-,2020,06,30
62,63,415,Ayuthaya (1),Central,14.53472222,100.725,-,-,-,-,-,-,-,-,-,-,-,-,-,-,-,-,-,-,-,-,-,-,-,-,-,2020,06,30
63,64,418,Bua Chum (2),Central,15.10000028,101.6166669,-,-,-,-,-,-,-,-,-,-,-,-,-,-,-,-,-,-,-,-,-,-,1.2256537675857544,2.125823497772217,3.3514771461486816,2020,06,30
64,65,426,Lop Buri,Central,14.79972222,100.6283333,-,-,-,-,-,-,-,-,-,-,-,-,-,-,-,-,-,-,-,-,-,-,-,-,-,2020,06,30
65,66,425,Suphan Buri,Central,14.47444444,100.1388889,-,-,-,-,-,-,-,-,-,-,-,-,-,-,-,-,-,-,-,-,-,-,-,-,-,2020,06,30
66,67,427,Uthong (1),Central,14.30361111,99.86472222,-,-,-,-,-,-,-,-,-,-,-,-,-,-,-,-,-,-,-,-,-,-,-,-,-,2020,06,30
67,68,421,Thong Pha Phum,Central,14.74222222,98.63638889,-,-,-,-,-,-,-,-,-,-,-,-,-,-,-,-,-,-,-,-,-,-,-,-,-,2020,06,30
68,69,450,Kanchanaburi,Central,14.0225,99.53583333,-,-,-,-,-,-,-,-,-,-,-,-,-,-,-,-,-,-,-,-,-,-,-,-,-,2020,06,30
69,70,464,Ratcha Buri (1),Central,13.48930556,99.79238889,-,-,-,-,-,-,-,-,-,-,-,-,-,-,-,-,-,-,-,-,-,-,-,-,-,2020,06,30
70,71,451,Kampheang Saen (1),Central,14.01166667,99.97,-,-,-,-,-,-,-,-,-,-,-,-,-,-,-,-,-,-,-,-,-,-,-,-,-,2020,06,30
71,72,419,Pathum Thani (1),Central,14.1,100.616,-,-,-,-,-,-,-,-,-,-,-,-,-,-,-,-,-,-,-,-,-,-,-,-,-,2020,06,30
72,73,420,Samut Prakan,Central,13.51666694,100.7616667,-,-,-,-,-,-,-,-,-,-,-,-,-,-,-,-,-,-,-,-,0.036263324320316315,0.03919891268014908,0.10470005124807358,-,0.18016228079795837,2020,06,30
73,74,429,Suvarnabhumi Airport,Central,13.68638889,100.7675,-,-,-,-,-,-,-,-,-,-,-,-,-,-,-,-,-,-,-,0.02583342045545578,0.051174767315387726,0.06289460510015488,-,-,0.13990280032157898,2020,06,30
74,75,456,Don Muang Airport,Central,13.91916667,100.605,-,-,-,-,-,-,-,-,-,-,-,-,-,-,-,-,-,-,-,-,-,-,-,-,-,2020,06,30
75,76,455,Sirikit Center,Central,13.72638889,100.56,-,-,-,-,-,-,-,-,-,-,-,-,-,-,-,-,-,-,-,0.3234962522983551,0.1517695039510727,0.06290672719478607,-,-,0.5381724834442139,2020,06,30
76,77,454,Bangkok Port,Central,13.70694444,100.5680556,-,-,-,-,-,-,-,-,-,-,-,-,-,-,-,-,-,-,-,0.3234962522983551,0.1517695039510727,0.06290672719478607,-,-,0.5381724834442139,2020,06,30
77,78,453,Bang Na (1),Central,13.66638889,100.6061111,-,-,-,-,-,-,-,-,-,-,-,-,-,-,-,-,-,-,-,0.025834163650870323,0.04583520069718361,0.037987757474184036,-,-,0.10965712368488312,2020,06,30
78,79,457,Bangkok Pilot,Central,13.37722222,100.5994444,-,-,-,-,-,-,-,-,-,-,-,-,-,-,-,-,-,-,-,-,-,-,0.30294114351272583,0.2845519185066223,0.5874930620193481,2020,06,30
79,80,430,Prachin Buri,Eastern,14.05091667,101.3693056,-,-,-,-,-,-,-,-,-,-,0.11117533594369888,0.036886654794216156,-,-,-,0.04497599974274635,-,-,-,-,-,-,-,-,0.1930379867553711,2020,06,30
80,81,439,Kabin Buri (2),Eastern,13.98333361,101.7072222,-,-,-,-,-,-,-,-,-,-,1.323598027229309,0.690700352191925,-,-,-,-,-,-,-,-,-,-,-,-,2.014298439025879,2020,06,30
81,82,440,Sa Kaeo (2),Eastern,13.78888889,102.0347222,-,-,-,-,-,-,-,-,-,-,-,-,-,1.4299978017807007,-,-,-,-,-,-,0.3046935200691223,0.25019875168800354,0.3641922175884247,0.3444001078605652,2.6934823989868164,2020,06,30
82,83,462,Aranyaprathet,Eastern,13.70000028,102.5833336,-,-,-,-,-,-,-,-,-,-,-,-,-,1.5052446126937866,0.17372171580791473,1.9790518283843994,2.2926292419433594,0.9925448298454285,0.24475890398025513,0.33096447587013245,0.4166630804538727,-,-,-,7.9355788230896,2020,06,30
83,84,458,Chachoengsao (1),Eastern,13.51555556,101.4583333,-,-,-,-,-,-,-,-,-,-,-,-,-,-,-,-,-,-,-,-,-,-,-,-,-,2020,06,30
84,85,459,Chon Buri,Eastern,13.36666694,100.9833336,-,-,-,-,-,-,-,-,-,-,-,-,-,-,-,-,-,-,-,-,-,-,-,-,-,2020,06,30
85,86,463,Laem Chabang,Eastern,13.07694444,100.8758333,-,-,-,-,-,-,-,-,-,-,-,-,-,-,-,-,-,-,-,-,-,-,-,-,-,2020,06,30
86,87,460,Ko Sichang,Eastern,13.16166667,100.8019444,-,-,-,-,-,-,-,-,-,-,-,-,-,-,-,-,-,-,-,-,-,-,-,-,-,2020,06,30
87,88,461,Pattaya,Eastern,12.92,100.8694444,-,-,-,-,-,-,-,-,-,-,-,-,-,-,-,-,-,-,-,-,-,-,-,-,-,2020,06,30
88,89,477,Sattahip,Eastern,12.68333361,100.9833336,-,-,-,-,-,-,-,-,-,-,-,-,-,-,-,-,-,-,-,-,-,-,-,-,-,2020,06,30
89,90,478,Rayong,Eastern,12.61702778,101.34075,-,-,-,-,-,-,-,-,-,-,-,-,-,-,-,-,-,-,-,-,-,-,-,-,-,2020,06,30
90,91,479,Huai Pong (1),Eastern,12.73333361,101.1333336,-,-,-,-,-,-,-,-,-,-,-,-,-,-,-,-,-,-,-,-,-,-,-,-,-,2020,06,30
91,92,480,Chanthaburi,Eastern,12.61666694,102.1133333,-,-,-,-,-,-,0.8002758026123047,0.1550305038690567,-,-,2.5348544120788574,0.10633521527051926,-,-,-,-,-,-,-,-,-,-,-,-,3.5964958667755127,2020,06,30
92,93,481,Pluei (1),Eastern,12.50861111,102.1730556,-,-,-,-,-,-,2.1740095615386963,0.323283851146698,-,-,3.2857608795166016,0.12002695351839066,0.11965104192495346,-,-,-,-,-,-,-,-,-,-,-,6.022732257843018,2020,06,30
93,94,501,Khlong Yai,Eastern,11.76666694,102.8833336,-,-,-,-,-,-,-,-,-,-,-,-,-,-,-,-,-,-,-,-,-,-,-,-,-,2020,06,30
94,95,465,Phetchaburi,Southern EastCoast,12.99930556,100.0605278,-,-,-,-,-,-,-,-,-,-,-,-,-,-,-,-,-,-,-,-,-,-,-,-,-,2020,06,30
95,96,474,Nong Plub (1),Southern EastCoast,12.58925,99.73461111,-,-,-,-,-,-,-,-,-,-,-,-,-,-,-,-,-,-,-,-,-,-,-,-,-,2020,06,30
96,97,475,Hua Hin,Southern EastCoast,12.57797222,99.95372222,-,-,-,-,-,-,-,-,-,-,-,-,-,-,-,-,-,-,-,-,-,-,-,-,-,2020,06,30
97,98,500,Prachuap Khiri Khan,Southern EastCoast,11.83497222,99.81047222,-,-,-,-,-,-,-,-,-,-,-,-,-,-,0.5842892527580261,-,-,-,-,-,-,-,-,-,0.5842892527580261,2020,06,30
98,99,517,Chumphon,Southern EastCoast,10.49875,99.18847222,-,-,-,-,-,-,-,-,-,-,-,-,-,-,0.4328545928001404,-,-,-,-,0.29636046290397644,0.22680498659610748,-,-,-,0.9560199975967407,2020,06,30
99,100,520,Sawee (1),Southern EastCoast,10.33063889,99.09186111,-,-,-,-,-,-,-,-,-,-,-,-,-,-,-,-,-,-,-,0.4092560410499573,0.18576151132583618,-,-,-,0.5950175523757935,2020,06,30
100,101,551,Surat Thani,Southern EastCoast,9.1335,99.15213889,-,-,-,-,-,-,-,-,-,-,-,-,-,0.9369595646858215,-,-,-,-,-,-,-,-,-,-,0.9369595646858215,2020,06,30
101,102,555,Surat Thani (1),Southern EastCoast,9.144805556,99.63361111,-,-,-,-,-,-,-,-,-,-,-,-,-,-,-,1.824219822883606,0.6577173471450806,-,-,-,-,-,-,-,2.4819371700286865,2020,06,30
102,103,550,Ko Samui,Southern EastCoast,9.466666667,100.05,-,-,-,-,-,0.5480672717094421,-,-,-,-,-,-,-,-,-,-,-,-,-,-,-,-,-,-,0.5480672717094421,2020,06,30
103,104,556,Prasang (2),Southern EastCoast,8.572083333,99.25519444,-,-,-,-,-,-,-,-,-,-,-,-,-,-,-,0.5631839632987976,2.5965416431427,1.0733067989349365,0.7762568593025208,1.0842822790145874,0.9268630146980286,-,-,-,7.020434856414795,2020,06,30
104,105,557,Chawang (2),Southern EastCoast,8.424694444,99.50661111,-,-,-,-,-,-,-,-,-,-,-,-,-,-,-,-,-,-,0.6173949837684631,3.175916910171509,4.276289939880371,-,-,-,8.069602012634277,2020,06,30
105,106,552,Nakhon Si Thammarat,Southern EastCoast,8.537777777999999,99.94722222,-,-,-,-,-,-,-,-,-,-,-,-,-,-,0.8644618988037109,-,-,-,-,-,-,0.14784839749336243,-,-,1.012310266494751,2020,06,30
106,107,554,Nakhon Si Thammarat (1),Southern EastCoast,8.359305556,100.0,-,-,-,-,-,-,-,-,-,-,-,-,-,-,0.6284297108650208,-,-,-,-,-,-,0.5314967036247253,3.642855167388916,1.5641486644744873,6.36693000793457,2020,06,30
107,108,560,Pattalung (1),Southern EastCoast,7.583333611,100.1666669,-,-,-,-,-,-,-,-,-,-,-,-,-,-,-,-,-,-,-,-,-,-,-,-,-,2020,06,30
108,109,568,Songkhla,Southern EastCoast,7.182111111,100.6076944,-,-,-,-,-,-,-,-,-,-,-,-,-,-,-,-,-,-,-,-,-,-,-,-,-,2020,06,30
109,110,569,Hat Yai,Southern EastCoast,6.916666944,100.43333359999998,-,-,-,-,-,-,-,-,-,-,-,-,-,-,-,0.7099636793136597,1.8573503494262695,0.30577775835990906,-,-,-,-,-,-,2.87309193611145,2020,06,30
110,111,571,Korhong (1),Southern EastCoast,7.0,100.5,-,-,-,-,-,-,-,-,-,-,-,-,-,-,-,-,-,-,-,-,-,-,-,-,-,2020,06,30
111,112,574,Sa Dao (2),Southern EastCoast,6.798055556,100.3905556,-,-,-,-,-,-,-,-,-,-,-,-,-,-,-,-,-,-,-,-,-,-,-,-,-,2020,06,30
112,113,580,Pattani,Southern EastCoast,6.7833336110000015,101.1500003,-,-,-,-,-,-,-,-,-,-,-,-,-,-,-,-,-,-,-,-,-,-,-,-,-,2020,06,30
113,114,581,Yala (1),Southern EastCoast,6.050000278,101.2833336,-,-,-,-,-,-,-,-,-,-,-,-,-,-,0.5434869527816772,2.554130792617798,4.631277561187744,6.451541423797607,7.881868839263916,3.7596771717071533,0.8659508228302002,-,-,-,26.68793487548828,2020,06,30
114,115,583,Narathiwat,Southern EastCoast,6.416666944,101.81666690000002,-,-,-,-,-,-,-,-,-,-,-,-,-,-,-,-,-,-,-,-,-,-,0.6926717758178711,2.017672300338745,2.710344076156616,2020,06,30
115,116,532,Ranong,Southern WestCoast,9.983333611,98.61666694,-,-,-,-,0.8146704435348511,0.4636472463607788,-,-,-,-,-,1.3794366121292114,0.13375736773014069,-,1.3370347023010254,-,-,-,-,-,-,-,-,-,4.128546714782715,2020,06,30
116,117,561,Takua Pa,Southern WestCoast,8.684166667000001,98.25222222,-,-,-,-,-,-,-,-,-,-,-,-,-,-,-,-,-,-,-,-,-,-,-,-,-,2020,06,30
117,118,564,Phuket,Southern WestCoast,7.883333611,98.40000028,-,-,-,-,-,-,-,-,-,-,-,-,-,-,-,-,-,1.0301412343978882,0.9818267226219177,0.5571011900901794,0.5824355483055115,-,-,-,3.1515047550201416,2020,06,30
118,119,565,Phuket Airport,Southern WestCoast,8.145,98.31444444,-,-,-,-,-,-,-,-,-,-,-,-,-,-,-,-,1.6807689666748047,2.5064566135406494,1.030407428741455,-,-,-,-,-,5.21763277053833,2020,06,30
119,120,563,Krabi,Southern WestCoast,8.103611111000001,98.97527778,-,-,-,-,-,-,-,-,-,-,-,-,-,-,-,-,-,-,0.9910995364189148,0.5538848638534546,1.1535223722457886,-,-,-,2.6985068321228027,2020,06,30
120,121,566,Ko Lanta,Southern WestCoast,7.5333336110000015,99.05000028,-,-,-,-,-,-,-,-,-,-,-,-,-,-,-,-,-,-,-,-,-,-,-,-,-,2020,06,30
121,122,567,Trang,Southern WestCoast,7.516666944,99.61666694,-,-,-,-,-,-,-,-,-,-,-,-,-,-,-,-,-,-,-,-,-,-,-,-,-,2020,06,30
122,123,570,Satun,Southern WestCoast,6.650000277999999,100.0833336,-,-,-,-,-,-,-,-,-,-,-,-,-,-,-,-,-,-,-,0.049393221735954285,0.1386062055826187,-,-,-,0.187999427318573,2020,06,30
