,ID,WMO_CODE,NAME_EN,Region,Latitude,Longitude,00Z,01Z,02Z,03Z,04Z,05Z,06Z,07Z,08Z,09Z,10Z,11Z,12Z,13Z,14Z,15Z,16Z,17Z,18Z,19Z,20Z,21Z,22Z,23Z,sum,year,month,day
0,1,300,Mae Hong Son,Northern,19.29897222,97.97577778,0.07582838088274002,0.06190809607505798,0.05347432196140289,-,-,0.06190809607505798,0.05347432196140289,-,-,-,-,0.7960594296455383,-,-,0.3024066984653473,0.08069316297769547,-,-,-,-,-,-,-,0.11306294053792953,1.674643874168396,2020,09,20
1,2,325,Mae Sariang,Northern,18.16666667,97.93333333,-,-,-,-,-,-,-,-,-,-,-,0.3905944228172302,0.2393934726715088,-,-,-,-,-,0.3231993019580841,0.35495325922966003,0.16194985806941986,-,0.16610626876354218,0.1077236756682396,1.7439203262329102,2020,09,20
2,3,303,Chiang Rai,Northern,19.96138889,99.88138889,-,-,-,-,-,-,-,-,-,-,-,2.6252050399780273,1.5785690546035767,1.0327860116958618,3.0472147464752197,4.44674015045166,2.971925735473633,1.6993247270584106,-,-,-,-,-,0.03890974447131157,17.440675735473633,2020,09,20
3,4,304,Chiang Rai (1),Northern,19.87083333,99.78277778,-,-,-,-,-,-,-,-,-,-,-,0.5904473662376404,1.5186200141906738,0.6632581949234009,3.3400611877441406,3.558382272720337,3.161285161972046,1.9571267366409302,0.43814390897750854,-,-,-,-,-,15.227324485778809,2020,09,20
4,5,310,Phayao,Northern,19.13333333,99.9,-,0.14228703081607819,0.05753307417035103,-,-,0.14228703081607819,0.05753307417035103,-,-,-,-,-,-,-,-,-,-,-,-,-,-,-,-,-,0.39964020252227783,2020,09,20
5,6,327,Chiang Mai,Northern,18.79,98.97694444,0.1548643559217453,0.12311488389968872,0.0984872430562973,-,-,0.12311488389968872,0.0984872430562973,-,-,0.36251717805862427,0.060255032032728195,-,-,-,0.20676015317440033,0.08291563391685486,0.10640416294336319,0.1696455180644989,-,-,-,-,-,-,1.741430640220642,2020,09,20
6,7,302,Doi Angkhlang,Northern,19.93138889,99.04833333,-,-,-,-,-,-,-,-,-,-,-,-,1.114707350730896,-,0.6341355443000793,2.1934778690338135,4.7330732345581055,2.52685284614563,0.48151838779449463,1.336667776107788,-,-,-,-,13.02043342590332,2020,09,20
7,8,331,Nan,Northern,18.77972222,100.7777778,-,-,0.2662196159362793,0.16580888628959656,1.6266601085662842,-,0.2662196159362793,0.16580888628959656,1.6266601085662842,-,-,-,0.06153703108429909,-,0.1847168505191803,0.07034606486558914,0.8632615804672241,-,2.2716305255889893,0.1878286451101303,0.46549689769744873,0.9084564447402954,1.1103311777114868,-,10.240982055664062,2020,09,20
8,9,333,Nan (1),Northern,18.86666667,100.75,-,-,0.16674955189228058,0.20322997868061066,0.8409644365310669,-,0.16674955189228058,0.20322997868061066,0.8409644365310669,-,0.09947559982538223,-,0.05292922258377075,-,0.039948977530002594,0.14386726915836334,2.402348518371582,3.1367406845092773,2.3346641063690186,0.3237755298614502,-,0.12036973237991333,0.7448749542236328,-,11.820882797241211,2020,09,20
9,10,315,Tha Wang Pha (2),Northern,19.11055556,100.8025,-,-,-,0.22655682265758514,0.08670596778392792,-,-,0.22655682265758514,0.08670596778392792,0.0934922993183136,0.034518901258707047,0.026166804134845734,0.040454212576150894,-,-,-,-,-,3.298459529876709,0.235194131731987,-,-,-,0.05036162957549095,4.405173301696777,2020,09,20
10,11,307,Thung Chang (2),Northern,19.41194444,100.8835278,0.06885446608066559,-,-,-,-,-,-,-,-,-,-,-,0.0355306975543499,-,-,-,1.7264015674591064,2.1796247959136963,0.9016695022583008,0.09615817666053772,-,0.09545262902975082,0.0805833637714386,-,5.253129482269287,2020,09,20
11,12,329,Lamphun,Northern,18.56666667,99.03333333,0.15490344166755676,0.11947517096996307,-,0.10010441392660141,0.08373311907052994,0.11947517096996307,-,0.10010441392660141,0.08373311907052994,0.3307737708091736,0.03692686930298805,-,-,-,-,-,-,-,-,-,-,-,-,-,1.2841328382492065,2020,09,20
12,13,328,Lampang,Northern,18.33333333,99.51666667,-,-,-,-,-,-,-,-,-,-,-,-,-,-,0.24607129395008087,0.11745656281709671,0.10056032985448837,0.35885801911354065,-,-,-,-,-,-,0.8229461908340454,2020,09,20
13,14,334,Lampang (1),Northern,18.31666667,99.28333333,0.19400596618652344,2.636789560317993,-,0.07782583683729172,0.1396457999944687,2.636789560317993,-,0.07782583683729172,0.1396457999944687,0.04193677753210068,-,-,-,-,-,-,0.07497524470090866,0.13823962211608887,-,-,-,-,-,-,6.351686000823975,2020,09,20
14,15,324,Thoen,Northern,17.63661111,99.24475,-,-,-,-,-,-,-,-,-,-,-,0.1147252768278122,0.06976353377103806,-,0.026183370500802994,0.2678852081298828,0.14750288426876068,0.2329753041267395,-,-,-,-,-,0.9139403104782104,1.7729759216308594,2020,09,20
15,16,330,Phrae,Northern,18.16666667,100.1666667,-,-,-,-,-,-,-,-,-,-,-,-,-,-,0.536457359790802,0.46278372406959534,2.5200235843658447,3.8947536945343018,1.245935320854187,3.7803502082824707,2.8717305660247803,6.798510551452637,10.26877498626709,3.570453405380249,35.94977569580078,2020,09,20
16,17,351,Uttaradit,Northern,17.61666667,100.1000028,-,-,-,-,-,-,-,-,-,-,-,-,-,0.1230660155415535,0.21571817994117737,0.6752552390098572,0.39725857973098755,1.991530179977417,1.7108571529388428,3.6737396717071533,1.6121894121170044,2.5439858436584473,3.620370626449585,2.141148805618286,18.705120086669922,2020,09,20
17,18,372,Sukhothai,Northern,17.10611111,99.8,-,-,-,-,-,-,-,-,-,-,-,-,0.09251369535923004,-,0.06349595636129379,0.5874655842781067,0.3996308147907257,-,-,-,-,-,0.3279513418674469,0.16996653378009796,1.641023874282837,2020,09,20
18,19,373,Si Samrong (1),Northern,17.77361111,99.24944444,-,-,-,-,-,-,-,-,-,-,-,0.07144144177436829,0.07002050429582596,-,0.08522308617830276,0.32573387026786804,0.20856498181819916,0.5022268891334534,0.09099481254816055,1.2049567699432373,1.7373822927474976,-,-,0.7436874508857727,5.040232181549072,2020,09,20
19,20,377,Bhumibol Dam,Northern,17.24391667,99.00252778,-,0.05134493485093117,-,-,-,0.05134493485093117,-,-,-,-,-,-,-,-,0.29239070415496826,0.20751510560512543,0.11189161986112595,0.12513594329357147,1.539305329322815,0.15405631065368652,0.21726447343826294,-,-,0.07967639714479446,2.829925775527954,2020,09,20
20,21,376,Tak,Northern,16.87836111,99.14336111,0.07356391102075577,-,-,-,-,-,-,-,-,0.0934588685631752,0.0529874712228775,-,-,-,-,0.25338706374168396,0.21264517307281494,-,0.5002978444099426,-,-,-,-,-,1.2599042654037476,2020,09,20
21,22,375,Mae Sot,Northern,16.65916667,98.55086111,-,-,0.36546510457992554,0.7393132448196411,0.2742701470851898,-,0.36546510457992554,0.7393132448196411,0.2742701470851898,0.8871750831604004,0.638805627822876,1.2090578079223633,1.0095913410186768,1.0004775524139404,0.896496593952179,0.20987828075885773,0.37317955493927,0.46993762254714966,0.7759145498275757,0.2508060932159424,0.37646421790122986,0.274258553981781,0.23492023348808289,-,11.365059852600098,2020,09,20
22,23,385,Umphang (2),Northern,16.02472222,98.86444444,-,0.07074877619743347,-,1.0029886960983276,0.15789145231246948,0.07074877619743347,-,1.0029886960983276,0.15789145231246948,0.13194558024406433,0.4272214472293854,0.7544403076171875,0.3584918975830078,-,-,-,-,0.8724679350852966,0.3934972882270813,0.433319628238678,0.17120219767093658,-,-,-,6.0058441162109375,2020,09,20
23,24,387,Doi Muser (1),Northern,16.75,98.93333611,-,-,0.11504317820072174,0.27223342657089233,0.08453512191772461,-,0.11504317820072174,0.27223342657089233,0.08453512191772461,0.09386872500181198,-,0.2915964126586914,0.23633407056331635,0.5195498466491699,0.9332951903343201,0.36121585965156555,0.3383709490299225,0.23192179203033447,0.664812445640564,0.15988314151763916,0.2162398248910904,-,-,0.04311774671077728,5.033829212188721,2020,09,20
24,25,378,Phitsanulok,Northern,16.79622222,100.2759444,-,-,-,-,-,-,-,-,-,-,-,-,-,-,0.10599581897258759,0.16566041111946106,0.19459109008312225,0.2036307007074356,-,-,-,-,0.3247908651828766,-,0.9946688413619995,2020,09,20
25,26,374,Lom Sak (2),Northern,16.77363889,101.2494722,-,-,-,-,-,-,-,-,-,-,-,-,-,-,0.1043771356344223,1.7022743225097656,0.46920308470726013,0.500135064125061,0.15457835793495178,0.5022954344749451,-,-,0.08141902089118958,-,3.514282464981079,2020,09,20
26,27,379,Phetchabun,Northern,16.43333611,101.15,-,-,-,-,-,-,-,-,-,-,-,-,-,-,0.18162302672863007,0.09200956672430038,0.18137957155704498,-,-,-,-,-,-,-,0.45501214265823364,2020,09,20
27,28,413,Wichian Buri (2),Northern,15.65694444,101.1083333,-,-,-,-,-,-,-,-,-,-,-,-,-,0.3983297348022461,1.676147699356079,3.8131682872772217,3.1782925128936768,0.9770432114601135,-,-,0.13395971059799194,-,-,-,10.17694091796875,2020,09,20
28,29,380,Kamphaeng Phet,Northern,16.48680556,99.52697222,-,-,-,0.12099383026361465,0.08840837329626083,-,-,0.12099383026361465,0.08840837329626083,0.09112764149904251,0.15490201115608215,0.08825595676898956,0.13161681592464447,-,-,-,-,-,-,-,-,-,-,-,0.8847068548202515,2020,09,20
29,30,386,Phicit (1),Northern,16.33861111,100.3671111,-,-,-,-,-,-,-,-,-,-,-,-,-,-,0.05796371400356293,0.3435083031654358,0.16978397965431213,0.1264421045780182,-,-,-,-,-,-,0.6976981163024902,2020,09,20
30,31,352,Nong Khai,Northeastern,17.86716667,102.7330278,-,-,-,0.1232689768075943,0.12239769101142883,-,-,0.1232689768075943,0.12239769101142883,0.1157119870185852,0.18629318475723267,0.36364835500717163,0.7407411932945251,-,-,-,-,-,-,-,-,-,-,0.014850175939500332,1.9125782251358032,2020,09,20
31,32,353,Loei,Northeastern,17.45,101.7333333,-,-,-,0.1306302547454834,0.10713987052440643,-,-,0.1306302547454834,0.10713987052440643,0.06863407045602798,0.0837775319814682,0.28184324502944946,0.16965535283088684,-,0.012282151728868484,0.1953294575214386,-,-,3.594816207885742,0.3423852026462555,-,-,-,0.06283681094646454,5.287100315093994,2020,09,20
32,33,350,Loei (1),Northeastern,17.4,101.7333333,-,-,-,0.13726724684238434,0.09646029025316238,-,-,0.13726724684238434,0.09646029025316238,0.08349119126796722,0.09149155765771866,0.28548020124435425,0.18594233691692352,-,0.10534648597240448,0.3938508927822113,-,1.834810733795166,2.3693981170654297,0.27231448888778687,0.2032707780599594,0.19165697693824768,0.09812972694635391,-,6.582638740539551,2020,09,20
33,34,354,Udon Thani,Northeastern,17.38333333,102.8,-,-,0.6129655838012695,0.1927994042634964,0.13456089794635773,-,0.6129655838012695,0.1927994042634964,0.13456089794635773,0.13197891414165497,0.15274818241596222,0.36809882521629333,0.5603932738304138,-,0.08264604955911636,0.19202932715415955,-,0.15000756084918976,-,-,-,-,-,-,3.5185537338256836,2020,09,20
34,35,357,Nakhon Phanom,Northeastern,17.41083333,104.7825,0.5921102166175842,0.3769282102584839,-,0.21907074749469757,0.3653978705406189,0.3769282102584839,-,0.21907074749469757,0.3653978705406189,0.5322561264038086,0.21039575338363647,0.1576623022556305,0.24875575304031372,0.3128744959831238,0.6620099544525146,0.19209407269954681,0.14974582195281982,-,-,-,-,-,-,-,5.572808742523193,2020,09,20
35,36,358,Nakhon Phanom (1),Northeastern,17.44305556,104.7736111,0.5921102166175842,0.3769282102584839,-,0.21907074749469757,0.3653978705406189,0.3769282102584839,-,0.21907074749469757,0.3653978705406189,0.5322561264038086,0.21039575338363647,0.1576623022556305,0.24875575304031372,0.3128744959831238,0.6620099544525146,0.19209407269954681,0.14974582195281982,-,-,-,-,-,-,-,5.572808742523193,2020,09,20
36,37,356,Sakon Nakhon,Northeastern,17.15000278,104.1333361,0.21548019349575043,0.2265709936618805,1.1166481971740723,0.2025877684354782,0.20270198583602905,0.2265709936618805,1.1166481971740723,0.2025877684354782,0.20270198583602905,0.18862983584403992,1.1389437913894653,0.29011937975883484,0.281832218170166,0.2199379950761795,0.2379608154296875,0.23678471148014069,0.11754539608955383,-,-,-,0.6282050609588623,0.18652552366256714,0.150466650724411,-,7.604929447174072,2020,09,20
37,38,355,Sakon Nakhon (1),Northeastern,17.12502778,104.061,-,0.20396479964256287,1.3948198556900024,0.2397744208574295,0.1934777945280075,0.20396479964256287,1.3948198556900024,0.2397744208574295,0.1934777945280075,0.2576192319393158,0.9158371090888977,0.33546045422554016,0.2685370147228241,0.1612701565027237,0.41192376613616943,0.250409871339798,0.07017136365175247,-,-,-,0.347809761762619,0.19805839657783508,0.21779419481754303,0.2522081732749939,7.751173496246338,2020,09,20
38,39,360,Nong Bua Lumphu,Northeastern,17.2325,102.4294444,-,-,0.06216106563806534,-,0.09495696425437927,-,0.06216106563806534,-,0.09495696425437927,0.09629847854375839,0.16255298256874084,0.15869878232479095,0.3756093978881836,-,-,-,-,0.1646336168050766,-,-,0.06266669183969498,0.08588889241218567,0.1204904168844223,-,1.541075348854065,2020,09,20
39,40,383,Mukdahan,Northeastern,16.54955556,104.7308889,-,-,0.5176608562469482,0.3747491240501404,0.24623821675777435,-,0.5176608562469482,0.3747491240501404,0.24623821675777435,0.31907230615615845,1.0602432489395142,0.8364183902740479,1.3730788230895996,-,0.09596488624811172,0.33450597524642944,0.1790158748626709,-,-,-,-,-,-,-,6.475595951080322,2020,09,20
40,41,381,Khon Kaen,Northeastern,16.46111111,102.7897222,0.23466727137565613,0.1492837518453598,0.41302040219306946,0.27987396717071533,0.16874592006206512,0.1492837518453598,0.41302040219306946,0.27987396717071533,0.16874592006206512,0.1799033284187317,0.12739701569080353,0.13387951254844666,0.15773004293441772,-,-,-,-,0.16687679290771484,0.34464746713638306,0.24262940883636475,0.48302754759788513,0.1619543731212616,0.1752893328666687,-,4.664517402648926,2020,09,20
41,42,384,Tha Pra (1),Northeastern,16.333,102.8166667,0.1966726928949356,0.15485882759094238,1.0965970754623413,0.2790657877922058,0.23641358315944672,0.15485882759094238,1.0965970754623413,0.2790657877922058,0.23641358315944672,0.182980477809906,0.1274321973323822,0.17123381793498993,0.3178589642047882,-,-,-,-,0.05045771971344948,0.10523721575737,0.3000171184539795,0.1719028353691101,0.20739705860614777,0.19271689653396606,-,5.754449844360352,2020,09,20
42,43,382,Kosum Phisai (2),Northeastern,16.24722222,103.0680556,0.21916358172893524,0.21834050118923187,1.6320658922195435,0.3118903934955597,0.2838954031467438,0.21834050118923187,1.6320658922195435,0.3118903934955597,0.2838954031467438,0.20117706060409546,0.22425414621829987,0.24297071993350983,0.1656528115272522,-,-,-,0.2070765495300293,-,-,-,-,-,-,-,6.371843338012695,2020,09,20
43,44,390,Kamalasai (2),Northeastern,16.3325,103.5883333,0.2188669890165329,0.270491361618042,0.49547919631004333,0.24972377717494965,0.291003942489624,0.270491361618042,0.49547919631004333,0.24972377717494965,0.291003942489624,0.2186410129070282,0.5114202499389648,0.3138977289199829,0.21895663440227509,-,-,-,-,-,-,-,-,-,-,-,4.3140459060668945,2020,09,20
44,45,405,Roi Et,Northeastern,16.05000028,103.68333359999998,0.22206169366836548,0.2997135818004608,0.20784825086593628,0.31009870767593384,0.21072570979595184,0.2997135818004608,0.20784825086593628,0.31009870767593384,0.21072570979595184,0.36906012892723083,0.253845751285553,0.2707853317260742,0.321929007768631,-,-,-,-,-,-,-,-,-,-,-,3.7165160179138184,2020,09,20
45,46,404,Roi Et (1),Northeastern,16.07322222,103.6084444,0.22206169366836548,0.2997135818004608,0.20784825086593628,0.31009870767593384,0.21072570979595184,0.2997135818004608,0.20784825086593628,0.31009870767593384,0.21072570979595184,0.36906012892723083,0.253845751285553,0.2707853317260742,0.321929007768631,-,-,-,-,-,-,-,-,-,-,-,3.7165160179138184,2020,09,20
46,47,403,Chaiyaphum,Northeastern,15.80000028,102.0333336,0.30735063552856445,0.1912747472524643,0.11489663273096085,0.08136068284511566,0.10435550659894943,0.1912747472524643,0.11489663273096085,0.08136068284511566,0.10435550659894943,0.1250113844871521,0.0935121551156044,0.10089026391506195,0.13623107969760895,4.246593952178955,4.974011421203613,6.302628517150879,1.0854002237319946,1.696022391319275,2.5373353958129883,0.32759448885917664,-,0.17182961106300354,-,0.0522712878882885,23.447805404663086,2020,09,20
47,48,407,Ubon Ratchathani,Northeastern,15.25000278,104.8666694,-,0.19868779182434082,-,-,-,0.19868779182434082,-,-,-,0.34657976031303406,0.25032204389572144,0.32804399728775024,0.21824605762958527,-,-,-,-,0.09849287569522858,-,0.7990001440048218,0.2185046225786209,-,0.23445796966552734,-,2.8910231590270996,2020,09,20
48,49,408,Ubon Ratchathani (1),Northeastern,15.24072222,105.01966670000002,-,-,-,-,-,-,-,-,-,0.539961576461792,-,-,-,-,-,-,-,0.11567848920822144,0.13100546598434448,0.9357704520225525,0.4900478422641754,-,-,-,2.212463855743408,2020,09,20
49,50,409,Si Saket (1),Northeastern,15.00000028,104.0500003,-,0.30034536123275757,0.14586657285690308,0.4714694917201996,-,0.30034536123275757,0.14586657285690308,0.4714694917201996,-,-,-,1.0915195941925049,0.4724447727203369,-,-,-,-,-,-,-,-,-,-,-,3.399327278137207,2020,09,20
50,51,416,Tha Tum (2),Northeastern,15.31666694,103.68333359999998,1.2213690280914307,0.36455684900283813,-,0.7745916247367859,1.0367361307144165,0.36455684900283813,-,0.7745916247367859,1.0367361307144165,0.36656180024147034,0.2254566103219986,0.18639549612998962,0.42134925723075867,-,-,-,0.5345044732093811,-,-,-,-,-,-,-,8.52877426147461,2020,09,20
51,52,432,Surin,Northeastern,14.88333361,103.5000003,-,-,-,-,-,-,-,-,-,-,-,-,0.5173370838165283,-,-,-,-,-,-,-,-,-,-,-,0.5173370838165283,2020,09,20
52,53,433,Surin (1),Northeastern,14.88333361,103.4500003,-,-,-,-,-,-,-,-,-,-,-,-,0.3683840036392212,-,-,-,-,-,-,-,-,-,-,-,0.3683840036392212,2020,09,20
53,54,431,Nakhon Ratchasima,Northeastern,14.96830556,102.0860278,2.7463018894195557,0.6021373271942139,1.2042096853256226,0.24244020879268646,0.32786211371421814,0.6021373271942139,1.2042096853256226,0.24244020879268646,0.32786211371421814,0.3083929121494293,0.29768386483192444,-,-,0.5194291472434998,0.714728832244873,0.47960641980171204,0.3788464367389679,1.0349041223526,-,0.3059411644935608,-,-,-,-,14.285435676574707,2020,09,20
54,55,435,Pakchong (1),Northeastern,14.64388889,101.3319444,1.0017129182815552,0.5279107093811035,0.14216740429401398,-,-,0.5279107093811035,0.14216740429401398,-,-,-,-,-,-,0.18889522552490234,0.15712158381938934,1.8015620708465576,1.5120800733566284,1.1654059886932373,2.3012547492980957,1.664781093597412,0.2639128863811493,1.0094648599624634,0.5147718191146851,0.029256576672196388,13.9520902633667,2020,09,20
55,56,434,Chok Chai (2),Northeastern,14.71888889,102.1686111,2.1041500568389893,1.9391878843307495,0.4095596671104431,0.18795670568943024,1.4864513874053955,1.9391878843307495,0.4095596671104431,0.18795670568943024,1.4864513874053955,1.246567726135254,0.7756263613700867,1.6535207033157349,-,0.1762285679578781,0.3955368995666504,1.199791669845581,0.5083959102630615,0.5152340531349182,0.5289813876152039,0.2650153636932373,-,-,0.15922392904758453,-,19.678733825683594,2020,09,20
56,57,437,Buri Ram,Northeastern,15.22575,103.2480833,0.7003992199897766,0.3160251975059509,-,0.9852161407470703,1.6319282054901123,0.3160251975059509,-,0.9852161407470703,1.6319282054901123,1.0818777084350586,0.3008373975753784,0.20084191858768463,0.15900593996047974,-,-,-,-,-,-,-,-,-,-,-,9.009700775146484,2020,09,20
57,58,436,Nang Rong (2),Northeastern,14.58333361,102.8000003,0.9138842821121216,2.1359786987304688,-,-,0.36947038769721985,2.1359786987304688,-,-,0.36947038769721985,1.087715983390808,1.821182131767273,0.6410642862319946,0.3549571633338928,-,0.4354075789451599,0.6176729798316956,1.095355749130249,0.2541176974773407,-,-,-,0.6407699584960938,0.3972289264202118,-,14.1841402053833,2020,09,20
58,59,400,Nakhon Sawan,Central,15.67183333,100.1323611,-,-,-,0.02860216051340103,0.08287196606397629,-,-,0.02860216051340103,0.08287196606397629,0.08877871185541153,0.04399697482585907,-,-,-,-,-,-,0.19350241124629974,-,-,-,-,-,-,0.5492263436317444,2020,09,20
59,60,401,Takfa (1),Central,15.34944444,100.5302778,-,-,-,-,-,-,-,-,-,-,-,-,-,-,-,0.6740707159042358,2.5949645042419434,2.753147840499878,0.5952597260475159,-,-,-,-,-,6.617443084716797,2020,09,20
60,61,402,Chai Nat,Central,15.15000278,100.18333359999998,-,-,-,-,-,-,-,-,-,-,-,-,-,-,0.3675203323364258,-,-,3.822080135345459,-,-,-,-,-,-,4.189600467681885,2020,09,20
61,62,410,U Thai Thani,Central,15.37416667,100.0388889,-,-,-,-,-,-,-,-,-,-,-,-,-,-,0.5360821485519409,2.3391916751861572,-,-,-,-,-,-,-,-,2.8752737045288086,2020,09,20
62,63,415,Ayuthaya (1),Central,14.53472222,100.725,-,-,-,-,-,-,-,-,-,-,-,-,-,-,-,-,1.0275145769119263,1.0165259838104248,1.2075339555740356,0.3322909474372864,0.1906297355890274,0.14754600822925568,0.1590779423713684,-,4.081119060516357,2020,09,20
63,64,418,Bua Chum (2),Central,15.10000028,101.6166669,0.13550785183906555,0.17306523025035858,0.17497408390045166,-,-,0.17306523025035858,0.17497408390045166,-,-,-,-,-,-,3.4451181888580322,1.9557609558105469,0.8205859065055847,2.225055694580078,1.7657175064086914,4.154158592224121,3.4900412559509277,0.5426235198974609,0.23823122680187225,0.256977915763855,0.19517211616039276,20.056535720825195,2020,09,20
64,65,426,Lop Buri,Central,14.79972222,100.6283333,-,-,-,-,-,-,-,-,-,-,-,-,-,0.07703925669193268,0.1460985392332077,1.8706896305084229,0.7325930595397949,1.1290035247802734,0.951946496963501,0.28214213252067566,0.1407936066389084,0.15486972033977509,0.1417745053768158,-,5.626950740814209,2020,09,20
65,66,425,Suphan Buri,Central,14.47444444,100.1388889,-,-,-,-,-,-,-,-,-,-,-,-,-,-,-,-,-,1.2015799283981323,0.2978334128856659,4.412929534912109,1.4683302640914917,0.2901172637939453,0.11597960442304611,-,7.786770343780518,2020,09,20
66,67,427,Uthong (1),Central,14.30361111,99.86472222,-,-,-,-,-,-,-,-,-,-,-,0.019359054043889046,0.09523051977157593,-,-,-,-,0.8576878905296326,0.6008710265159607,1.6367850303649902,1.4640541076660156,0.23826247453689575,-,-,4.91225004196167,2020,09,20
67,68,421,Thong Pha Phum,Central,14.74222222,98.63638889,0.11093157529830933,0.1916157305240631,2.567952871322632,3.4900901317596436,0.21461091935634613,0.1916157305240631,2.567952871322632,3.4900901317596436,0.21461091935634613,0.5999841690063477,1.0853776931762695,1.560105562210083,0.37355852127075195,-,-,0.1312590092420578,0.6243923306465149,-,0.14877599477767944,0.22099027037620544,1.2647727727890015,-,0.4082947373390198,-,19.567913055419922,2020,09,20
68,69,450,Kanchanaburi,Central,14.0225,99.53583333,-,-,-,0.17645475268363953,0.20093116164207458,-,-,0.17645475268363953,0.20093116164207458,-,-,0.1468423455953598,0.13275398313999176,-,-,-,-,-,-,1.857864260673523,1.0012166500091553,0.9687771797180176,0.15787579119205475,-,5.020102024078369,2020,09,20
69,70,464,Ratcha Buri (1),Central,13.48930556,99.79238889,-,-,-,-,-,-,-,-,-,1.5444999933242798,1.0020822286605835,-,-,-,0.9403099417686462,0.7634450197219849,0.49923503398895264,0.6076892018318176,2.289020538330078,-,-,-,-,-,7.646282196044922,2020,09,20
70,71,451,Kampheang Saen (1),Central,14.01166667,99.97,-,-,-,-,-,-,-,-,-,-,-,0.19180388748645782,-,-,0.03789256885647774,-,-,-,-,-,-,0.929667055606842,0.2385561615228653,-,1.3979196548461914,2020,09,20
71,72,419,Pathum Thani (1),Central,14.1,100.616,-,-,-,-,-,-,-,-,-,-,-,-,0.7281941771507263,-,-,-,-,-,1.3657289743423462,0.3287050426006317,0.1642538160085678,0.7837819457054138,0.4487905502319336,-,3.8194544315338135,2020,09,20
72,73,420,Samut Prakan,Central,13.51666694,100.7616667,-,-,4.2717604637146,1.5627245903015137,5.192063331604004,-,4.2717604637146,1.5627245903015137,5.192063331604004,7.829726696014404,6.12153434753418,0.6798529028892517,2.9039053916931152,0.44146451354026794,2.7164697647094727,1.9594720602035522,2.0383527278900146,2.7252583503723145,3.3246326446533203,0.32398125529289246,0.29857751727104187,1.2267881631851196,1.1148196458816528,-,55.757930755615234,2020,09,20
73,74,429,Suvarnabhumi Airport,Central,13.68638889,100.7675,-,-,6.2852559089660645,1.5174981355667114,3.7044224739074707,-,6.2852559089660645,1.5174981355667114,3.7044224739074707,5.4437079429626465,3.676187038421631,1.4129300117492676,2.730178117752075,1.0369337797164917,2.559875249862671,1.9329941272735596,1.8686860799789429,3.093165874481201,1.9969847202301025,0.26494285464286804,0.23523500561714172,2.020581007003784,1.2499184608459473,-,52.53667449951172,2020,09,20
74,75,456,Don Muang Airport,Central,13.91916667,100.605,-,-,0.6470200419425964,-,-,-,0.6470200419425964,-,-,-,-,0.6426519155502319,-,-,0.7688406109809875,1.0714352130889893,-,-,-,0.29611700773239136,0.26765206456184387,1.3743233680725098,0.6650732159614563,-,6.380133152008057,2020,09,20
75,76,455,Sirikit Center,Central,13.72638889,100.56,-,-,1.7347233295440674,0.06407278031110764,0.5145543217658997,-,1.7347233295440674,0.06407278031110764,0.5145543217658997,1.1916853189468384,-,0.6691579222679138,2.962677478790283,0.5550703406333923,1.621484637260437,1.2451024055480957,1.3522621393203735,-,-,-,0.20635047554969788,0.5424753427505493,1.5903089046478271,0.07921326905488968,16.642492294311523,2020,09,20
76,77,454,Bangkok Port,Central,13.70694444,100.5680556,-,-,1.7347233295440674,0.06407278031110764,0.5145543217658997,-,1.7347233295440674,0.06407278031110764,0.5145543217658997,1.1916853189468384,-,0.6691579222679138,2.962677478790283,0.5550703406333923,1.621484637260437,1.2451024055480957,1.3522621393203735,-,-,-,0.20635047554969788,0.5424753427505493,1.5903089046478271,0.07921326905488968,16.642492294311523,2020,09,20
77,78,453,Bang Na (1),Central,13.66638889,100.6061111,-,-,3.3185219764709473,0.8029556274414062,2.6077487468719482,-,3.3185219764709473,0.8029556274414062,2.6077487468719482,4.837528705596924,3.8667638301849365,1.1269601583480835,2.399790048599243,0.47384315729141235,2.573688268661499,1.750105619430542,1.9507819414138794,3.2835185527801514,2.2516345977783203,0.14616814255714417,0.24854899942874908,0.5302091836929321,2.357438087463379,-,41.25543212890625,2020,09,20
78,79,457,Bangkok Pilot,Central,13.37722222,100.5994444,-,-,1.7717845439910889,0.7843579053878784,4.3409647941589355,-,1.7717845439910889,0.7843579053878784,4.3409647941589355,7.684497833251953,8.613893508911133,-,-,1.248293161392212,2.1390624046325684,2.1801791191101074,2.271836757659912,2.6279561519622803,-,0.30682191252708435,0.3769409656524658,0.30154842138290405,1.3038477897644043,-,42.849098205566406,2020,09,20
79,80,430,Prachin Buri,Eastern,14.05091667,101.3693056,0.914154589176178,1.5668258666992188,-,0.5791860222816467,2.0032525062561035,1.5668258666992188,-,0.5791860222816467,2.0032525062561035,2.3812389373779297,3.2802817821502686,-,2.2503998279571533,2.105024814605713,1.260559320449829,0.9945654273033142,2.0211896896362305,-,0.43968847393989563,0.3836662471294403,-,-,-,-,25.243450164794922,2020,09,20
80,81,439,Kabin Buri (2),Eastern,13.98333361,101.7072222,-,3.029134511947632,-,0.05383220687508583,1.2114768028259277,3.029134511947632,-,0.05383220687508583,1.2114768028259277,2.79768443107605,3.4202537536621094,3.421631097793579,3.7468478679656982,2.0227434635162354,0.9028966426849365,0.8985716104507446,1.4161858558654785,0.4853288233280182,0.2772037088871002,0.37346217036247253,-,-,-,-,28.35169792175293,2020,09,20
81,82,440,Sa Kaeo (2),Eastern,13.78888889,102.0347222,-,-,0.8265784978866577,-,-,-,0.8265784978866577,-,-,-,-,3.5800788402557373,3.4434726238250732,0.6651685237884521,0.45041149854660034,1.401287317276001,1.0576525926589966,1.0736085176467896,-,0.658877432346344,-,-,-,-,13.98371410369873,2020,09,20
82,83,462,Aranyaprathet,Eastern,13.70000028,102.5833336,2.801708698272705,2.398092269897461,2.8291358947753906,2.638542652130127,1.1895865201950073,2.398092269897461,2.8291358947753906,2.638542652130127,1.1895865201950073,0.36050745844841003,0.7148635387420654,2.523139715194702,3.74979829788208,1.2504054307937622,1.2224249839782715,2.0230321884155273,1.9219051599502563,1.310499906539917,-,-,-,-,-,-,38.790706634521484,2020,09,20
83,84,458,Chachoengsao (1),Eastern,13.51555556,101.4583333,-,-,0.5269802808761597,3.663294553756714,5.533641338348389,-,0.5269802808761597,3.663294553756714,5.533641338348389,6.88694429397583,6.984590530395508,0.6687152981758118,1.9929759502410889,-,0.78652024269104,1.0940300226211548,1.1598228216171265,1.8587197065353394,-,-,0.22273090481758118,-,-,-,41.10287857055664,2020,09,20
84,85,459,Chon Buri,Eastern,13.36666694,100.9833336,-,-,3.487657070159912,1.2887698411941528,4.8076653480529785,-,3.487657070159912,1.2887698411941528,4.8076653480529785,7.881815433502197,9.953463554382324,1.8992135524749756,3.339080810546875,2.478569984436035,1.0371919870376587,2.147096872329712,2.161177158355713,2.3587868213653564,2.0086026191711426,0.47101548314094543,-,-,0.47879350185394287,-,55.382999420166016,2020,09,20
85,86,463,Laem Chabang,Eastern,13.07694444,100.8758333,-,-,-,0.6612558960914612,1.7229504585266113,-,-,0.6612558960914612,1.7229504585266113,4.62838077545166,5.895212650299072,2.5510153770446777,3.8865814208984375,1.68692946434021,1.3256105184555054,1.4366673231124878,1.8393148183822632,1.4893282651901245,-,-,0.4387364387512207,-,-,-,29.946189880371094,2020,09,20
86,87,460,Ko Sichang,Eastern,13.16166667,100.8019444,-,-,0.7823110222816467,0.7131497263908386,2.5363941192626953,-,0.7823110222816467,0.7131497263908386,2.5363941192626953,5.75988245010376,8.333524703979492,1.3244463205337524,3.5030298233032227,2.100459575653076,1.170678973197937,1.6048552989959717,2.451685905456543,2.271150588989258,-,0.8510597348213196,0.9832776784896851,-,-,-,38.417755126953125,2020,09,20
87,88,461,Pattaya,Eastern,12.92,100.8694444,-,-,-,0.750977635383606,2.6039233207702637,-,-,0.750977635383606,2.6039233207702637,4.518209457397461,4.631771564483643,4.844604969024658,3.7128982543945312,1.1233381032943726,1.7178679704666138,1.5826318264007568,1.760522484779358,1.4860162734985352,-,-,-,-,-,-,32.08766555786133,2020,09,20
88,89,477,Sattahip,Eastern,12.68333361,100.9833336,4.36856746673584,-,1.2884979248046875,2.7921645641326904,6.056885242462158,-,1.2884979248046875,2.7921645641326904,6.056885242462158,9.002776145935059,9.034220695495605,0.7499200701713562,3.009683609008789,0.6010851263999939,2.674246072769165,1.7071105241775513,1.6337424516677856,1.4420218467712402,-,-,-,-,-,-,58.867042541503906,2020,09,20
89,90,478,Rayong,Eastern,12.61702778,101.34075,4.855370998382568,7.924936771392822,10.712679862976074,8.297119140625,10.865740776062012,7.924936771392822,10.712679862976074,8.297119140625,10.865740776062012,12.192726135253906,11.288313865661621,2.5068490505218506,1.1703094244003296,2.3529016971588135,2.825576066970825,1.5619112253189087,2.195183515548706,1.5770272016525269,-,-,-,-,-,-,122.98249053955078,2020,09,20
90,91,479,Huai Pong (1),Eastern,12.73333361,101.1333336,5.9254655838012695,5.894492149353027,3.3682737350463867,2.3683881759643555,6.247694969177246,5.894492149353027,3.3682737350463867,2.3683881759643555,6.247694969177246,9.056136131286621,7.883747577667236,1.4537862539291382,1.5849124193191528,0.6841267943382263,2.25711989402771,1.6231008768081665,1.6293559074401855,1.3155568838119507,-,-,-,-,-,-,75.09646606445312,2020,09,20
91,92,480,Chanthaburi,Eastern,12.61666694,102.1133333,9.120388984680176,9.865224838256836,0.9485806226730347,3.627980947494507,4.377563953399658,9.865224838256836,0.9485806226730347,3.627980947494507,4.377563953399658,5.540374755859375,5.832510471343994,9.249739646911621,1.9020061492919922,-,-,-,2.5704286098480225,1.5453238487243652,-,-,-,-,-,-,82.51985931396484,2020,09,20
92,93,481,Pluei (1),Eastern,12.50861111,102.1730556,9.838696479797363,9.941407203674316,0.9157174229621887,4.261285781860352,6.069800853729248,9.941407203674316,0.9157174229621887,4.261285781860352,6.069800853729248,8.532190322875977,7.379428386688232,8.64194107055664,4.391211986541748,-,-,-,-,1.7402452230453491,-,-,-,-,-,-,92.73883056640625,2020,09,20
93,94,501,Khlong Yai,Eastern,11.76666694,102.8833336,0.9428567886352539,0.7120766639709473,10.299247741699219,1.8673243522644043,2.041762590408325,0.7120766639709473,10.299247741699219,1.8673243522644043,2.041762590408325,1.1810884475708008,1.9014296531677246,2.758622646331787,4.440895080566406,-,-,-,-,-,-,-,-,-,-,-,42.008575439453125,2020,09,20
94,95,465,Phetchaburi,Southern EastCoast,12.99930556,100.0605278,0.3990379571914673,3.1976330280303955,1.6677863597869873,1.0327913761138916,4.743481636047363,3.1976330280303955,1.6677863597869873,1.0327913761138916,4.743481636047363,6.108100891113281,8.008759498596191,-,-,2.051788806915283,0.984412670135498,1.713860034942627,0.9847966432571411,0.9936122894287109,-,-,-,-,0.23255081474781036,-,43.15933609008789,2020,09,20
95,96,474,Nong Plub (1),Southern EastCoast,12.58925,99.73461111,0.564397394657135,0.1307382583618164,-,-,-,0.1307382583618164,-,-,-,4.420596122741699,4.535982131958008,0.22489438951015472,2.947103500366211,-,0.09299478679895401,0.8876478672027588,0.919026792049408,1.379602313041687,0.5683736205101013,0.39350685477256775,0.24773474037647247,0.18664807081222534,-,-,18.194381713867188,2020,09,20
96,97,475,Hua Hin,Southern EastCoast,12.57797222,99.95372222,1.9546681642532349,0.15304052829742432,-,0.8168156743049622,3.3922338485717773,0.15304052829742432,-,0.8168156743049622,3.3922338485717773,4.607648849487305,4.020936012268066,1.996916651725769,2.4121627807617188,-,0.22531363368034363,1.6307796239852905,1.6697819232940674,1.1751114130020142,0.7084658741950989,-,-,-,-,0.10897637158632278,31.18960952758789,2020,09,20
97,98,500,Prachuap Khiri Khan,Southern EastCoast,11.83497222,99.81047222,-,-,-,0.1359545737504959,2.440310001373291,-,-,0.1359545737504959,2.440310001373291,6.630570411682129,10.076043128967285,-,3.8400096893310547,-,1.2677968740463257,1.8158231973648071,2.452728271484375,3.515573263168335,-,0.6952250003814697,0.3112500309944153,0.4876502454280853,-,-,36.245201110839844,2020,09,20
98,99,517,Chumphon,Southern EastCoast,10.49875,99.18847222,-,-,-,-,-,-,-,-,-,1.326766848564148,0.7791736721992493,-,-,-,-,-,0.8960108160972595,0.8033257126808167,-,-,-,-,-,-,3.805277109146118,2020,09,20
99,100,520,Sawee (1),Southern EastCoast,10.33063889,99.09186111,-,-,-,-,-,-,-,-,-,-,0.8489800691604614,-,-,-,-,-,-,0.8751828670501709,-,-,-,-,-,-,1.7241629362106323,2020,09,20
100,101,551,Surat Thani,Southern EastCoast,9.1335,99.15213889,-,-,-,-,-,-,-,-,-,-,-,-,-,-,-,-,-,-,-,-,-,-,-,-,-,2020,09,20
101,102,555,Surat Thani (1),Southern EastCoast,9.144805556,99.63361111,-,-,-,-,-,-,-,-,-,-,-,-,-,-,-,-,-,-,-,-,-,-,-,-,-,2020,09,20
102,103,550,Ko Samui,Southern EastCoast,9.466666667,100.05,-,-,-,-,-,-,-,-,-,-,-,-,-,-,-,-,-,-,-,-,-,-,-,-,-,2020,09,20
103,104,556,Prasang (2),Southern EastCoast,8.572083333,99.25519444,-,-,-,-,-,-,-,-,-,-,-,-,-,-,-,-,-,-,-,-,-,-,-,-,-,2020,09,20
104,105,557,Chawang (2),Southern EastCoast,8.424694444,99.50661111,1.0285024642944336,-,-,-,-,-,-,-,-,-,-,-,-,-,-,-,-,-,-,-,-,-,-,-,2.057004928588867,2020,09,20
105,106,552,Nakhon Si Thammarat,Southern EastCoast,8.537777777999999,99.94722222,-,-,-,-,-,-,-,-,-,-,-,-,-,-,-,-,-,-,-,-,-,-,0.5822936296463013,-,0.5822936296463013,2020,09,20
106,107,554,Nakhon Si Thammarat (1),Southern EastCoast,8.359305556,100.0,-,-,-,-,-,-,-,-,-,-,-,-,-,-,-,-,-,-,-,-,-,-,-,-,-,2020,09,20
107,108,560,Pattalung (1),Southern EastCoast,7.583333611,100.1666669,-,-,-,-,-,-,-,-,-,-,-,-,-,-,-,-,-,-,-,-,-,-,-,-,-,2020,09,20
108,109,568,Songkhla,Southern EastCoast,7.182111111,100.6076944,-,0.14389026165008545,-,-,-,0.14389026165008545,-,-,-,-,-,-,-,-,-,-,-,-,-,-,-,-,-,-,0.2877805233001709,2020,09,20
109,110,569,Hat Yai,Southern EastCoast,6.916666944,100.43333359999998,-,-,-,-,-,-,-,-,-,-,-,-,-,-,-,-,-,-,-,-,-,-,-,-,-,2020,09,20
110,111,571,Korhong (1),Southern EastCoast,7.0,100.5,-,-,-,-,-,-,-,-,-,-,-,-,-,-,-,-,-,-,-,-,-,-,-,-,-,2020,09,20
111,112,574,Sa Dao (2),Southern EastCoast,6.798055556,100.3905556,0.3041516840457916,-,-,-,-,-,-,-,-,-,-,-,-,-,-,-,-,-,-,-,-,-,-,-,0.6083033680915833,2020,09,20
112,113,580,Pattani,Southern EastCoast,6.7833336110000015,101.1500003,-,-,-,-,-,-,-,-,-,-,-,-,-,-,-,-,-,-,-,-,-,-,-,-,-,2020,09,20
113,114,581,Yala (1),Southern EastCoast,6.050000278,101.2833336,0.03945136070251465,0.02397298440337181,-,-,-,0.02397298440337181,-,-,-,-,-,0.062017910182476044,-,-,-,-,-,-,0.7306693196296692,-,-,-,-,-,0.9195359349250793,2020,09,20
114,115,583,Narathiwat,Southern EastCoast,6.416666944,101.81666690000002,-,-,-,-,-,-,-,-,-,-,-,-,-,-,-,-,-,-,-,-,-,-,-,-,-,2020,09,20
115,116,532,Ranong,Southern WestCoast,9.983333611,98.61666694,-,-,-,-,-,-,-,-,-,-,-,-,-,-,-,-,-,0.28090184926986694,-,-,-,-,-,-,0.28090184926986694,2020,09,20
116,117,561,Takua Pa,Southern WestCoast,8.684166667000001,98.25222222,-,-,-,-,-,-,-,-,-,-,-,-,-,-,-,-,-,-,-,-,-,-,-,-,-,2020,09,20
117,118,564,Phuket,Southern WestCoast,7.883333611,98.40000028,-,-,-,-,-,-,-,-,-,-,-,-,-,-,-,-,-,-,-,-,-,-,-,-,-,2020,09,20
118,119,565,Phuket Airport,Southern WestCoast,8.145,98.31444444,-,-,-,-,-,-,-,-,-,-,-,-,-,-,-,-,-,-,-,-,-,-,-,-,-,2020,09,20
119,120,563,Krabi,Southern WestCoast,8.103611111000001,98.97527778,-,-,-,-,-,-,-,-,-,-,-,-,-,-,-,-,-,-,-,-,-,-,-,-,-,2020,09,20
120,121,566,Ko Lanta,Southern WestCoast,7.5333336110000015,99.05000028,-,-,-,-,-,-,-,-,-,-,-,-,-,-,-,-,-,-,-,-,-,-,-,-,-,2020,09,20
121,122,567,Trang,Southern WestCoast,7.516666944,99.61666694,-,-,-,-,-,-,-,-,-,-,-,-,-,-,-,-,-,-,-,-,-,-,-,-,-,2020,09,20
122,123,570,Satun,Southern WestCoast,6.650000277999999,100.0833336,-,-,-,-,-,-,-,-,-,-,-,-,-,-,-,-,-,-,-,-,-,-,-,-,-,2020,09,20
