,ID,WMO_CODE,NAME_EN,Region,Latitude,Longitude,00Z,01Z,02Z,03Z,04Z,05Z,06Z,07Z,08Z,09Z,10Z,11Z,12Z,13Z,14Z,15Z,16Z,17Z,18Z,19Z,20Z,21Z,22Z,23Z,sum,year,month,day
0,1,300,Mae Hong Son,Northern,19.29897222,97.97577778,2.2486000061035156,0.09768993407487869,-,0.17354021966457367,-,0.09768993407487869,-,0.17354021966457367,-,0.05046967789530754,-,-,-,0.28133323788642883,1.23698890209198,-,-,-,0.4161064028739929,-,-,-,-,2.4759745597839355,9.500532150268555,2020,08,21
1,2,325,Mae Sariang,Northern,18.16666667,97.93333333,1.6885695457458496,2.7351267337799072,1.3028383255004883,1.2587673664093018,0.633665144443512,2.7351267337799072,1.3028383255004883,1.2587673664093018,0.633665144443512,0.4921760857105255,-,1.1582053899765015,-,-,-,-,-,-,0.20917995274066925,1.0670629739761353,1.703374981880188,1.8655383586883545,0.6541016101837158,-,22.3875732421875,2020,08,21
2,3,303,Chiang Rai,Northern,19.96138889,99.88138889,-,-,-,-,-,-,-,-,-,-,1.2044556140899658,-,-,-,9.626669883728027,-,-,-,-,-,-,-,-,-,10.831125259399414,2020,08,21
3,4,304,Chiang Rai (1),Northern,19.87083333,99.78277778,-,-,-,-,-,-,-,-,-,-,-,2.534707546234131,-,3.023876428604126,7.063117504119873,-,-,-,-,-,-,-,-,-,12.621702194213867,2020,08,21
4,5,310,Phayao,Northern,19.13333333,99.9,2.6692657470703125,3.3837454319000244,8.017806053161621,9.06924819946289,7.105057239532471,3.3837454319000244,8.017806053161621,9.06924819946289,7.105057239532471,3.9231343269348145,0.16663193702697754,1.9533487558364868,2.841254472732544,3.1236374378204346,-,1.2115881443023682,-,-,-,-,-,-,-,-,73.70984649658203,2020,08,21
5,6,327,Chiang Mai,Northern,18.79,98.97694444,0.4784913659095764,0.27486297488212585,0.23495273292064667,-,1.8241904973983765,0.27486297488212585,0.23495273292064667,-,1.8241904973983765,2.608139753341675,-,-,-,-,-,-,-,3.4848685264587402,2.340388298034668,1.5290194749832153,1.1333365440368652,2.711240768432617,0.5600710511207581,0.5904413461685181,20.582500457763672,2020,08,21
6,7,302,Doi Angkhlang,Northern,19.93138889,99.04833333,-,-,-,-,-,-,-,-,-,-,0.12488507479429245,0.6036513447761536,-,1.2266392707824707,3.3370554447174072,0.10287709534168243,1.1554734706878662,0.6399097442626953,1.0429787635803223,1.523759365081787,0.09247498959302902,-,-,-,9.849705696105957,2020,08,21
7,8,331,Nan,Northern,18.77972222,100.7777778,6.110939025878906,7.27951192855835,4.5074992179870605,6.597840309143066,3.941288709640503,7.27951192855835,4.5074992179870605,6.597840309143066,3.941288709640503,0.7255156636238098,0.0904732421040535,-,-,-,-,-,-,-,-,-,-,-,-,-,57.69014358520508,2020,08,21
8,9,333,Nan (1),Northern,18.86666667,100.75,6.8239359855651855,7.3576836585998535,2.3397376537323,3.8117613792419434,3.30017352104187,7.3576836585998535,2.3397376537323,3.8117613792419434,3.30017352104187,2.997285842895508,0.09082780033349991,1.1091041564941406,-,-,-,-,-,-,-,-,-,-,-,-,51.463802337646484,2020,08,21
9,10,315,Tha Wang Pha (2),Northern,19.11055556,100.8025,6.130527973175049,7.665852069854736,0.08710966259241104,2.189317226409912,4.487632751464844,7.665852069854736,0.08710966259241104,2.189317226409912,4.487632751464844,7.0951948165893555,-,-,-,-,-,-,-,-,-,-,-,-,-,-,48.21607208251953,2020,08,21
10,11,307,Thung Chang (2),Northern,19.41194444,100.8835278,4.859843730926514,-,0.09569143503904343,1.6171015501022339,2.341134548187256,-,0.09569143503904343,1.6171015501022339,2.341134548187256,4.166713714599609,-,-,-,-,-,-,-,-,-,-,-,-,-,-,21.9942569732666,2020,08,21
11,12,329,Lamphun,Northern,18.56666667,99.03333333,0.3157459497451782,1.174103021621704,0.8883150815963745,1.5827041864395142,2.3987646102905273,1.174103021621704,0.8883150815963745,1.5827041864395142,2.3987646102905273,3.0665483474731445,-,-,-,-,-,0.0384468138217926,1.5715769529342651,3.788515329360962,1.2470269203186035,0.33647221326828003,0.23010212182998657,0.725225567817688,0.808229386806488,-,24.531410217285156,2020,08,21
12,13,328,Lampang,Northern,18.33333333,99.51666667,0.4793590009212494,1.9136815071105957,0.4566667079925537,2.9215660095214844,4.6602277755737305,1.9136815071105957,0.4566667079925537,2.9215660095214844,4.6602277755737305,6.401860237121582,0.31508129835128784,2.298490285873413,1.7918773889541626,2.5392961502075195,3.520110845565796,2.04923415184021,1.846008539199829,0.9548467993736267,0.3226020932197571,-,-,-,-,2.573868751525879,45.47627639770508,2020,08,21
13,14,334,Lampang (1),Northern,18.31666667,99.28333333,0.8293296694755554,0.7479375600814819,0.3708103895187378,1.887508749961853,3.074296474456787,0.7479375600814819,0.3708103895187378,1.887508749961853,3.074296474456787,4.296774864196777,-,-,-,-,1.826202392578125,1.1049132347106934,2.7175958156585693,3.804476737976074,0.4002907872200012,1.4925642013549805,1.2838226556777954,0.7798178791999817,-,-,31.526227951049805,2020,08,21
14,15,324,Thoen,Northern,17.63661111,99.24475,2.873521327972412,2.668079137802124,2.6273508071899414,4.967333793640137,6.233564376831055,2.668079137802124,2.6273508071899414,4.967333793640137,6.233564376831055,7.191158294677734,0.937213659286499,2.18638014793396,0.6792281270027161,0.0991722047328949,1.037062644958496,0.8042050004005432,0.23197288811206818,0.2483571171760559,0.483480840921402,0.22003579139709473,0.20599626004695892,0.23594313859939575,3.1365630626678467,0.06247999519109726,56.49894714355469,2020,08,21
15,16,330,Phrae,Northern,18.16666667,100.1666667,5.05631160736084,7.0125250816345215,7.64443302154541,8.25195026397705,7.8794684410095215,7.0125250816345215,7.64443302154541,8.25195026397705,7.8794684410095215,6.3093581199646,4.343043804168701,4.997859001159668,3.7757222652435303,0.6698440909385681,0.24046994745731354,0.39313074946403503,-,-,0.84670490026474,0.31245630979537964,-,-,-,0.14577306807041168,93.72374725341797,2020,08,21
16,17,351,Uttaradit,Northern,17.61666667,100.1000028,5.369134426116943,4.5950164794921875,4.111043453216553,5.700136661529541,6.666736125946045,4.5950164794921875,4.111043453216553,5.700136661529541,6.666736125946045,6.232828617095947,1.9615764617919922,0.3662776052951813,0.08171884715557098,-,-,-,-,-,0.4107145667076111,-,-,-,-,6.488682270050049,68.4259262084961,2020,08,21
17,18,372,Sukhothai,Northern,17.10611111,99.8,3.9515857696533203,4.420783042907715,6.71149206161499,6.02638053894043,5.383212566375732,4.420783042907715,6.71149206161499,6.02638053894043,5.383212566375732,4.553298473358154,0.9218356013298035,1.492756962776184,0.9695166945457458,-,-,0.15738534927368164,-,-,-,-,-,-,-,-,61.08169937133789,2020,08,21
18,19,373,Si Samrong (1),Northern,17.77361111,99.24944444,1.5757888555526733,1.8754057884216309,2.8794140815734863,4.887063503265381,5.848404884338379,1.8754057884216309,2.8794140815734863,4.887063503265381,5.848404884338379,6.87149715423584,1.1446118354797363,1.8740558624267578,1.7222820520401,0.2720263600349426,1.4203788042068481,1.0688433647155762,0.2124694585800171,0.269388347864151,0.4961795508861542,0.1595403552055359,0.2218005508184433,0.8957720994949341,4.1848039627075195,0.39245226979255676,55.3382568359375,2020,08,21
19,20,377,Bhumibol Dam,Northern,17.24391667,99.00252778,2.876265287399292,4.309038162231445,4.132594585418701,4.092569828033447,4.796793460845947,4.309038162231445,4.132594585418701,4.092569828033447,4.796793460845947,5.389336109161377,-,1.3457610607147217,2.383124351501465,-,-,-,0.1831623911857605,0.15696509182453156,0.11889489740133286,0.22457750141620636,0.4160219430923462,0.4555995464324951,0.31986597180366516,0.252712219953537,51.66054153442383,2020,08,21
20,21,376,Tak,Northern,16.87836111,99.14336111,2.7530603408813477,3.374744415283203,5.047550201416016,5.0797905921936035,5.626297473907471,3.374744415283203,5.047550201416016,5.0797905921936035,5.626297473907471,5.018431663513184,0.20599089562892914,1.231747031211853,0.46851980686187744,-,-,-,-,0.46302205324172974,-,-,-,-,-,-,51.15060043334961,2020,08,21
21,22,375,Mae Sot,Northern,16.65916667,98.55086111,0.19664523005485535,0.6962908506393433,1.7285233736038208,1.818569540977478,2.585918664932251,0.6962908506393433,1.7285233736038208,1.818569540977478,2.585918664932251,3.012192726135254,0.6895363926887512,0.7351211905479431,0.25564780831336975,-,-,-,-,-,-,-,-,-,-,-,18.74439239501953,2020,08,21
22,23,385,Umphang (2),Northern,16.02472222,98.86444444,-,-,1.7076172828674316,1.3232098817825317,0.772782564163208,-,1.7076172828674316,1.3232098817825317,0.772782564163208,1.5474838018417358,0.1739358752965927,0.8082793354988098,0.3898979425430298,-,-,-,-,-,-,-,-,-,-,1.7314428091049194,12.258257865905762,2020,08,21
23,24,387,Doi Muser (1),Northern,16.75,98.93333611,1.9302434921264648,2.3927409648895264,4.316030502319336,3.531806707382202,4.978909015655518,2.3927409648895264,4.316030502319336,3.531806707382202,4.978909015655518,3.9030416011810303,0.5559493899345398,0.990886390209198,0.5251187682151794,-,-,-,-,-,-,-,-,-,-,-,40.27445602416992,2020,08,21
24,25,378,Phitsanulok,Northern,16.79622222,100.2759444,-,-,-,1.2655925750732422,2.3839282989501953,-,-,1.2655925750732422,2.3839282989501953,2.3090436458587646,-,1.0549334287643433,-,-,-,-,-,-,-,-,-,-,-,-,10.663019180297852,2020,08,21
25,26,374,Lom Sak (2),Northern,16.77363889,101.2494722,-,-,-,-,-,-,-,-,-,-,-,-,-,-,-,-,-,-,-,-,-,-,-,-,-,2020,08,21
26,27,379,Phetchabun,Northern,16.43333611,101.15,-,-,-,-,-,-,-,-,-,-,-,-,-,-,-,-,-,-,-,-,-,-,-,-,-,2020,08,21
27,28,413,Wichian Buri (2),Northern,15.65694444,101.1083333,-,-,-,-,-,-,-,-,-,-,-,-,-,-,-,-,-,-,-,-,-,-,-,-,-,2020,08,21
28,29,380,Kamphaeng Phet,Northern,16.48680556,99.52697222,-,-,1.523970603942871,1.1716604232788086,1.6711103916168213,-,1.523970603942871,1.1716604232788086,1.6711103916168213,1.0860729217529297,0.5394169688224792,-,-,-,-,-,-,-,-,0.32127848267555237,-,-,-,-,10.68025016784668,2020,08,21
29,30,386,Phicit (1),Northern,16.33861111,100.3671111,-,-,0.3753681480884552,1.1811577081680298,-,-,0.3753681480884552,1.1811577081680298,-,-,-,-,-,-,-,-,-,-,-,-,-,-,-,0.04800965636968613,3.1610612869262695,2020,08,21
30,31,352,Nong Khai,Northeastern,17.86716667,102.7330278,0.29822301864624023,0.14264318346977234,-,-,-,0.14264318346977234,-,-,-,-,0.5810465812683105,0.12510058283805847,-,-,-,-,-,-,-,0.18102982640266418,0.44833827018737793,1.1306325197219849,-,-,3.3478801250457764,2020,08,21
31,32,353,Loei,Northeastern,17.45,101.7333333,2.899179458618164,2.660748243331909,-,-,-,2.660748243331909,-,-,-,-,-,-,-,0.2870841324329376,1.1852399110794067,-,-,-,-,-,-,-,-,-,12.592179298400879,2020,08,21
32,33,350,Loei (1),Northeastern,17.4,101.7333333,-,-,-,-,-,-,-,-,-,-,-,-,-,0.13019110262393951,1.5328866243362427,-,-,-,-,-,-,-,-,-,1.663077712059021,2020,08,21
33,34,354,Udon Thani,Northeastern,17.38333333,102.8,0.17406342923641205,0.20007778704166412,-,-,-,0.20007778704166412,-,-,-,-,0.26704856753349304,-,-,-,-,-,-,-,-,-,-,-,-,-,1.0153310298919678,2020,08,21
34,35,357,Nakhon Phanom,Northeastern,17.41083333,104.7825,0.28920719027519226,-,-,-,-,-,-,-,-,-,-,-,-,-,-,-,-,0.2840957045555115,-,0.2899630665779114,1.2838778495788574,2.722763776779175,2.0851473808288574,-,7.244261741638184,2020,08,21
35,36,358,Nakhon Phanom (1),Northeastern,17.44305556,104.7736111,0.28920719027519226,-,-,-,-,-,-,-,-,-,-,-,-,-,-,-,-,0.2840957045555115,-,0.2899630665779114,1.2838778495788574,2.722763776779175,2.0851473808288574,-,7.244261741638184,2020,08,21
36,37,356,Sakon Nakhon,Northeastern,17.15000278,104.1333361,-,2.130692720413208,-,-,-,2.130692720413208,-,-,-,-,-,-,-,-,0.19695916771888733,-,-,-,-,-,-,-,-,-,4.458344459533691,2020,08,21
37,38,355,Sakon Nakhon (1),Northeastern,17.12502778,104.061,-,2.4852421283721924,-,-,-,2.4852421283721924,-,-,-,-,-,-,-,-,-,-,-,-,-,-,-,-,-,-,4.970484256744385,2020,08,21
38,39,360,Nong Bua Lumphu,Northeastern,17.2325,102.4294444,0.07520082592964172,0.07676041126251221,-,-,-,0.07676041126251221,-,-,-,-,1.3266419172286987,2.538010835647583,-,-,-,0.06410827487707138,-,-,-,-,-,-,-,-,4.2326836585998535,2020,08,21
39,40,383,Mukdahan,Northeastern,16.54955556,104.7308889,-,-,-,-,-,-,-,-,-,-,-,-,-,0.1623106747865677,0.09032057225704193,0.14976127445697784,0.4379422664642334,-,0.5590962767601013,2.165675163269043,4.2020063400268555,3.6589319705963135,1.5994298458099365,-,13.025474548339844,2020,08,21
40,41,381,Khon Kaen,Northeastern,16.46111111,102.7897222,-,-,-,-,-,-,-,-,-,-,-,-,-,-,-,-,-,-,0.16416484117507935,0.3539447486400604,0.7016769647598267,-,-,-,1.219786524772644,2020,08,21
41,42,384,Tha Pra (1),Northeastern,16.333,102.8166667,-,-,-,-,-,-,-,-,-,-,-,-,-,-,-,-,-,-,0.7093249559402466,3.0182158946990967,1.910298466682434,-,-,-,5.637839317321777,2020,08,21
42,43,382,Kosum Phisai (2),Northeastern,16.24722222,103.0680556,-,-,-,-,-,-,-,-,-,-,-,0.048038288950920105,-,-,-,-,-,-,3.150779962539673,3.7258894443511963,3.383427381515503,-,-,-,10.308135032653809,2020,08,21
43,44,390,Kamalasai (2),Northeastern,16.3325,103.5883333,-,-,-,-,-,-,-,-,-,-,-,-,-,-,-,-,-,-,-,-,-,0.8621913194656372,1.7505038976669312,0.14046192169189453,2.753157138824463,2020,08,21
44,45,405,Roi Et,Northeastern,16.05000028,103.68333359999998,-,-,-,-,-,-,-,-,-,-,-,-,-,-,-,-,-,-,-,-,-,-,3.1322033405303955,-,3.1322033405303955,2020,08,21
45,46,404,Roi Et (1),Northeastern,16.07322222,103.6084444,-,-,-,-,-,-,-,-,-,-,-,-,-,-,-,-,-,-,-,-,-,-,3.1322033405303955,-,3.1322033405303955,2020,08,21
46,47,403,Chaiyaphum,Northeastern,15.80000028,102.0333336,-,-,-,-,-,-,-,-,-,-,-,-,-,-,-,-,-,-,-,-,-,0.4817591607570648,0.9978063106536865,-,1.4795655012130737,2020,08,21
47,48,407,Ubon Ratchathani,Northeastern,15.25000278,104.8666694,-,-,-,-,-,-,-,-,-,-,-,-,-,1.3604270219802856,-,0.10210494697093964,0.9994805455207825,2.5075271129608154,-,0.8337523341178894,1.1738868951797485,0.7728926539421082,0.3196391761302948,-,8.069709777832031,2020,08,21
48,49,408,Ubon Ratchathani (1),Northeastern,15.24072222,105.01966670000002,-,-,-,-,-,-,-,-,-,-,-,-,-,-,-,0.41890373826026917,1.1231366395950317,-,-,0.7494876980781555,1.3629862070083618,0.8116642236709595,0.5517513751983643,-,5.017930030822754,2020,08,21
49,50,409,Si Saket (1),Northeastern,15.00000028,104.0500003,-,-,-,-,-,-,-,-,-,-,0.5403005480766296,-,-,0.30639949440956116,0.8094038367271423,-,0.5671894550323486,0.40104934573173523,-,-,-,-,-,-,2.624342679977417,2020,08,21
50,51,416,Tha Tum (2),Northeastern,15.31666694,103.68333359999998,-,-,-,-,-,-,-,-,-,-,0.029830625280737877,0.08516401052474976,-,-,-,3.620197296142578,5.492020606994629,3.409183979034424,0.577873706817627,0.9497379064559937,0.6446205973625183,0.2880210280418396,-,-,15.096649169921875,2020,08,21
51,52,432,Surin,Northeastern,14.88333361,103.5000003,-,-,-,-,-,-,-,-,-,-,0.979037880897522,0.7953820824623108,0.8274293541908264,0.14646513760089874,-,0.07115430384874344,0.21548324823379517,-,-,-,-,-,-,-,3.03495192527771,2020,08,21
52,53,433,Surin (1),Northeastern,14.88333361,103.4500003,-,-,-,-,-,-,-,-,-,-,1.2942696809768677,1.304694414138794,2.439610004425049,0.4955008029937744,-,0.0929962620139122,0.24556124210357666,-,-,-,-,-,-,-,5.872632026672363,2020,08,21
53,54,431,Nakhon Ratchasima,Northeastern,14.96830556,102.0860278,-,-,-,-,-,-,-,-,-,-,-,-,-,-,-,-,-,2.5927493572235107,-,-,0.372579962015152,0.28975993394851685,0.15622320771217346,-,3.4113125801086426,2020,08,21
54,55,435,Pakchong (1),Northeastern,14.64388889,101.3319444,-,-,-,-,-,-,-,-,-,-,0.35230517387390137,-,-,-,-,-,-,-,0.19739511609077454,-,-,-,-,-,0.5497002601623535,2020,08,21
55,56,434,Chok Chai (2),Northeastern,14.71888889,102.1686111,-,-,-,-,-,-,-,-,-,-,-,0.23112259805202484,-,0.207905113697052,-,0.12768585979938507,1.8602898120880127,2.6187703609466553,-,-,0.12900203466415405,0.17563936114311218,0.08673440665006638,-,5.4371490478515625,2020,08,21
56,57,437,Buri Ram,Northeastern,15.22575,103.2480833,-,-,-,-,-,-,-,-,-,-,-,0.025379326194524765,0.06960736215114594,2.961475372314453,-,1.2276941537857056,2.9226279258728027,6.090728282928467,0.8181920647621155,1.0217293500900269,0.5966162085533142,0.35620394349098206,0.4624219238758087,-,16.552675247192383,2020,08,21
57,58,436,Nang Rong (2),Northeastern,14.58333361,102.8000003,-,-,-,-,-,-,-,-,-,-,2.954237937927246,1.5124751329421997,2.1993753910064697,0.7517521381378174,0.40469664335250854,0.8369515538215637,0.4060916304588318,0.231312096118927,-,-,-,-,-,-,9.296891212463379,2020,08,21
58,59,400,Nakhon Sawan,Central,15.67183333,100.1323611,-,-,-,-,-,-,-,-,-,-,-,-,-,-,-,-,-,-,-,-,-,-,-,-,-,2020,08,21
59,60,401,Takfa (1),Central,15.34944444,100.5302778,-,-,-,-,-,-,-,-,-,-,-,-,-,-,-,-,-,-,-,-,-,-,-,-,-,2020,08,21
60,61,402,Chai Nat,Central,15.15000278,100.18333359999998,-,-,-,-,-,-,-,-,-,-,-,-,-,-,-,-,0.14000198245048523,0.11929664760828018,0.32879069447517395,-,-,-,-,-,0.5880893468856812,2020,08,21
61,62,410,U Thai Thani,Central,15.37416667,100.0388889,-,-,-,-,-,-,-,-,-,-,-,-,-,-,-,-,-,-,0.12692123651504517,-,-,-,-,-,0.12692123651504517,2020,08,21
62,63,415,Ayuthaya (1),Central,14.53472222,100.725,-,-,-,-,-,-,-,-,-,-,-,0.9914119243621826,-,-,-,-,-,-,0.3695044219493866,0.761006772518158,-,-,-,0.5540920495986938,2.6760153770446777,2020,08,21
63,64,418,Bua Chum (2),Central,15.10000028,101.6166669,-,-,-,-,-,-,-,-,-,-,-,-,-,-,-,-,-,-,-,-,-,-,0.19722135365009308,-,0.19722135365009308,2020,08,21
64,65,426,Lop Buri,Central,14.79972222,100.6283333,-,-,-,-,-,-,-,-,-,-,-,-,-,-,-,-,-,-,0.8231579065322876,1.101161241531372,-,-,-,0.5902829766273499,2.5146021842956543,2020,08,21
65,66,425,Suphan Buri,Central,14.47444444,100.1388889,-,-,-,-,-,-,-,-,-,-,-,-,-,-,-,4.5561041831970215,0.37007585167884827,-,0.871459424495697,0.7174686789512634,0.9709851145744324,0.9159783124923706,0.25566503405570984,-,8.657735824584961,2020,08,21
66,67,427,Uthong (1),Central,14.30361111,99.86472222,-,-,-,-,-,-,-,-,-,-,-,-,-,-,-,2.8330442905426025,2.676680088043213,0.5989057421684265,0.59134441614151,0.4065316915512085,0.5292327404022217,0.2703959345817566,0.1584402322769165,-,8.0645751953125,2020,08,21
67,68,421,Thong Pha Phum,Central,14.74222222,98.63638889,-,-,-,-,-,-,-,-,-,-,-,0.5072008371353149,-,0.7621445655822754,1.2148648500442505,-,-,-,-,-,-,0.38815629482269287,0.20669753849506378,-,3.079063892364502,2020,08,21
68,69,450,Kanchanaburi,Central,14.0225,99.53583333,-,-,-,-,-,-,-,-,-,-,0.19545966386795044,-,-,1.5100128650665283,1.4942456483840942,0.8768800497055054,3.9103171825408936,0.8445343375205994,0.17559705674648285,0.8867500424385071,0.6208869814872742,0.20868508517742157,0.14428003132343292,-,10.86764907836914,2020,08,21
69,70,464,Ratcha Buri (1),Central,13.48930556,99.79238889,-,-,-,-,-,-,-,-,-,-,1.0830340385437012,1.8749011754989624,-,1.457197666168213,2.3057711124420166,0.2719825804233551,1.5623875856399536,2.1558468341827393,0.737248957157135,2.3419291973114014,3.247502088546753,1.455069661140442,0.3011684715747833,-,18.79404067993164,2020,08,21
70,71,451,Kampheang Saen (1),Central,14.01166667,99.97,-,-,-,-,-,-,-,-,-,-,-,-,-,0.2860022187232971,-,5.380500316619873,3.9844110012054443,1.2419371604919434,1.2148860692977905,1.5516066551208496,0.7367441654205322,0.3315320611000061,0.15384939312934875,-,14.8814697265625,2020,08,21
71,72,419,Pathum Thani (1),Central,14.1,100.616,-,-,-,-,-,-,-,-,-,-,0.05039189010858536,3.410073757171631,0.3630012273788452,-,-,-,-,-,5.532945156097412,4.494577884674072,1.501405119895935,0.3697652220726013,0.13986362516880035,-,15.862024307250977,2020,08,21
72,73,420,Samut Prakan,Central,13.51666694,100.7616667,-,1.4063283205032349,0.42714861035346985,-,1.0412040948867798,1.4063283205032349,0.42714861035346985,-,1.0412040948867798,-,-,-,1.950802206993103,0.12879934906959534,-,-,1.2132964134216309,2.1897389888763428,1.5230005979537964,2.938321590423584,-,1.6950935125350952,0.6112027764320374,-,17.999618530273438,2020,08,21
73,74,429,Suvarnabhumi Airport,Central,13.68638889,100.7675,1.3448625802993774,0.5601491928100586,0.3033779263496399,-,-,0.5601491928100586,0.3033779263496399,-,-,-,-,-,3.119000196456909,-,-,-,-,3.028608560562134,4.25245475769043,3.1685431003570557,3.8199424743652344,1.7393264770507812,0.38804519176483154,-,23.93269920349121,2020,08,21
74,75,456,Don Muang Airport,Central,13.91916667,100.605,-,-,-,-,-,-,-,-,-,-,-,5.107623100280762,1.4172277450561523,-,-,-,-,6.174071311950684,4.271966934204102,4.634530067443848,2.944507360458374,0.842656135559082,0.4430033266544342,-,25.83558464050293,2020,08,21
75,76,455,Sirikit Center,Central,13.72638889,100.56,-,-,-,-,-,-,-,-,-,-,-,-,3.183154582977295,-,-,1.3414021730422974,1.3983771800994873,-,1.173490285873413,3.527259111404419,3.484384536743164,2.006351947784424,0.8815040588378906,-,16.99592399597168,2020,08,21
76,77,454,Bangkok Port,Central,13.70694444,100.5680556,-,-,-,-,-,-,-,-,-,-,-,-,3.183154582977295,-,-,1.3414021730422974,1.3983771800994873,-,1.173490285873413,3.527259111404419,3.484384536743164,2.006351947784424,0.8815040588378906,-,16.99592399597168,2020,08,21
77,78,453,Bang Na (1),Central,13.66638889,100.6061111,-,-,-,-,-,-,-,-,-,-,-,-,1.5834790468215942,-,-,-,-,3.3478121757507324,5.370403289794922,2.8732986450195312,3.5329172611236572,2.0392065048217773,0.7311199903488159,-,19.478235244750977,2020,08,21
78,79,457,Bangkok Pilot,Central,13.37722222,100.5994444,2.010911226272583,3.4709110260009766,-,-,-,3.4709110260009766,-,-,-,-,-,-,-,0.3171211779117584,3.751972198486328,-,-,1.115630865097046,-,-,0.7709018588066101,-,-,-,16.919269561767578,2020,08,21
79,80,430,Prachin Buri,Eastern,14.05091667,101.3693056,-,-,-,1.1505695581436157,0.26490700244903564,-,-,1.1505695581436157,0.26490700244903564,0.11501981317996979,-,-,-,-,-,0.14755624532699585,2.0755233764648438,3.248739004135132,4.821520805358887,3.2729756832122803,1.2750543355941772,-,-,-,17.787343978881836,2020,08,21
80,81,439,Kabin Buri (2),Eastern,13.98333361,101.7072222,-,-,-,1.7267922163009644,0.2794226109981537,-,-,1.7267922163009644,0.2794226109981537,0.1538410782814026,-,-,-,3.4527394771575928,1.6784645318984985,0.21228240430355072,1.2818511724472046,0.24562068283557892,0.12522828578948975,-,-,-,-,-,11.162456512451172,2020,08,21
81,82,440,Sa Kaeo (2),Eastern,13.78888889,102.0347222,-,-,-,-,-,-,-,-,-,-,0.15927894413471222,2.102243423461914,-,-,1.793592095375061,0.18419480323791504,1.002295732498169,0.3151768445968628,-,-,-,-,-,-,5.556781768798828,2020,08,21
82,83,462,Aranyaprathet,Eastern,13.70000028,102.5833336,-,-,-,-,-,-,-,-,-,-,2.205115795135498,0.8245239853858948,4.095001697540283,0.7347875237464905,2.073873519897461,0.22097310423851013,1.330108880996704,0.865845263004303,-,-,-,-,-,-,12.350229263305664,2020,08,21
83,84,458,Chachoengsao (1),Eastern,13.51555556,101.4583333,-,-,-,-,-,-,-,-,-,-,-,-,-,-,-,0.18270444869995117,1.0213640928268433,0.15344248712062836,-,-,-,-,-,-,1.357511043548584,2020,08,21
84,85,459,Chon Buri,Eastern,13.36666694,100.9833336,-,-,0.4127679765224457,-,-,-,0.4127679765224457,-,-,0.32087230682373047,-,-,-,0.5051913857460022,-,1.5622056722640991,1.7337753772735596,0.8595523238182068,0.03954441845417023,-,-,-,-,-,5.846677780151367,2020,08,21
85,86,463,Laem Chabang,Eastern,13.07694444,100.8758333,-,-,-,-,-,-,-,-,-,-,-,-,-,-,-,1.2006607055664062,4.45717716217041,3.229626178741455,-,0.31496480107307434,0.4054819643497467,-,-,-,9.607912063598633,2020,08,21
86,87,460,Ko Sichang,Eastern,13.16166667,100.8019444,-,-,-,-,-,-,-,-,-,-,-,-,-,-,-,1.5132540464401245,4.341969966888428,3.2760090827941895,0.055873166769742966,0.22768940031528473,-,-,-,-,9.414795875549316,2020,08,21
87,88,461,Pattaya,Eastern,12.92,100.8694444,-,-,-,-,-,-,-,-,-,-,-,1.1390708684921265,-,-,-,0.3375844359397888,3.0765724182128906,2.974294424057007,-,0.3655710518360138,-,-,-,-,7.893093109130859,2020,08,21
88,89,477,Sattahip,Eastern,12.68333361,100.9833336,-,-,-,1.3637032508850098,0.34014415740966797,-,-,1.3637032508850098,0.34014415740966797,-,-,-,-,-,-,-,-,-,-,-,-,0.2785414755344391,-,-,3.6862363815307617,2020,08,21
89,90,478,Rayong,Eastern,12.61702778,101.34075,-,-,-,-,-,-,-,-,-,-,-,-,-,-,-,-,-,-,-,0.7447380423545837,-,-,-,-,0.7447380423545837,2020,08,21
90,91,479,Huai Pong (1),Eastern,12.73333361,101.1333336,-,-,-,-,-,-,-,-,-,-,-,-,-,-,-,-,-,1.9549040794372559,-,-,0.131791889667511,-,-,-,2.086695909500122,2020,08,21
91,92,480,Chanthaburi,Eastern,12.61666694,102.1133333,-,-,-,0.7762081027030945,-,-,-,0.7762081027030945,-,0.19926981627941132,-,-,-,-,-,-,-,-,-,-,-,-,-,-,1.7516860961914062,2020,08,21
92,93,481,Pluei (1),Eastern,12.50861111,102.1730556,-,-,-,1.6305242776870728,0.2623293697834015,-,-,1.6305242776870728,0.2623293697834015,0.22667941451072693,-,-,-,-,-,-,-,-,-,-,-,-,-,-,4.012386798858643,2020,08,21
93,94,501,Khlong Yai,Eastern,11.76666694,102.8833336,-,-,-,-,-,-,-,-,-,-,-,-,-,-,-,0.017136042937636375,1.032655954360962,-,-,-,4.479158401489258,1.5173516273498535,0.5160470008850098,-,7.562349319458008,2020,08,21
94,95,465,Phetchaburi,Southern EastCoast,12.99930556,100.0605278,5.701608657836914,0.9097253084182739,-,-,-,0.9097253084182739,-,-,-,-,-,-,-,-,2.8448963165283203,2.831912040710449,4.120045185089111,3.6768529415130615,0.717924177646637,0.794215738773346,0.6550657153129578,-,-,-,28.86358070373535,2020,08,21
95,96,474,Nong Plub (1),Southern EastCoast,12.58925,99.73461111,-,-,-,-,-,-,-,-,-,-,-,-,-,-,-,-,-,2.23826003074646,-,-,-,-,-,-,2.23826003074646,2020,08,21
96,97,475,Hua Hin,Southern EastCoast,12.57797222,99.95372222,-,-,-,-,-,-,-,-,-,-,-,-,-,-,-,-,-,-,-,-,-,-,-,-,-,2020,08,21
97,98,500,Prachuap Khiri Khan,Southern EastCoast,11.83497222,99.81047222,-,-,-,-,-,-,-,-,-,-,-,-,-,1.8529356718063354,1.8440078496932983,0.3705975115299225,-,-,-,-,-,-,-,-,4.067541122436523,2020,08,21
98,99,517,Chumphon,Southern EastCoast,10.49875,99.18847222,-,-,-,-,-,-,-,-,-,-,1.536514401435852,0.22053827345371246,-,-,-,-,-,-,-,-,-,-,-,-,1.7570526599884033,2020,08,21
99,100,520,Sawee (1),Southern EastCoast,10.33063889,99.09186111,-,-,-,-,-,-,-,-,-,-,-,0.589348316192627,0.46306172013282776,-,-,-,-,-,-,-,-,-,-,-,1.0524100065231323,2020,08,21
100,101,551,Surat Thani,Southern EastCoast,9.1335,99.15213889,-,-,-,-,-,-,-,-,-,-,-,-,-,-,-,-,-,-,-,-,0.04198499396443367,0.029858799651265144,0.053763773292303085,-,0.12560756504535675,2020,08,21
101,102,555,Surat Thani (1),Southern EastCoast,9.144805556,99.63361111,-,-,-,-,-,-,-,-,-,-,-,-,-,-,-,-,-,-,1.4617621898651123,0.1676715910434723,0.07806511968374252,-,-,-,1.7074989080429077,2020,08,21
102,103,550,Ko Samui,Southern EastCoast,9.466666667,100.05,-,-,-,-,-,-,-,-,-,-,-,-,-,-,-,-,-,-,-,-,-,-,-,-,-,2020,08,21
103,104,556,Prasang (2),Southern EastCoast,8.572083333,99.25519444,-,-,-,-,-,-,-,-,-,-,-,-,-,-,-,-,-,-,-,-,-,-,-,-,-,2020,08,21
104,105,557,Chawang (2),Southern EastCoast,8.424694444,99.50661111,-,-,-,-,-,-,-,-,-,-,-,-,-,-,-,-,-,-,-,-,-,-,-,0.13099375367164612,0.13099375367164612,2020,08,21
105,106,552,Nakhon Si Thammarat,Southern EastCoast,8.537777777999999,99.94722222,-,-,-,-,-,-,-,-,-,-,-,-,-,-,-,-,-,-,-,-,-,-,-,-,-,2020,08,21
106,107,554,Nakhon Si Thammarat (1),Southern EastCoast,8.359305556,100.0,-,-,-,-,-,-,-,-,-,-,-,-,-,-,-,-,-,-,-,-,-,-,-,-,-,2020,08,21
107,108,560,Pattalung (1),Southern EastCoast,7.583333611,100.1666669,-,-,-,-,-,-,-,-,-,-,-,-,-,-,-,-,-,-,0.20531916618347168,0.039171554148197174,0.04899265617132187,0.03278597816824913,-,-,0.32626935839653015,2020,08,21
108,109,568,Songkhla,Southern EastCoast,7.182111111,100.6076944,0.028028473258018494,-,-,-,-,-,-,-,-,-,-,-,-,-,-,-,-,-,-,-,-,-,-,-,0.05605694651603699,2020,08,21
109,110,569,Hat Yai,Southern EastCoast,6.916666944,100.43333359999998,-,-,-,-,-,-,-,-,-,-,-,-,-,3.9846038818359375,4.794684410095215,0.2985908091068268,-,-,-,-,-,-,-,-,9.077878952026367,2020,08,21
110,111,571,Korhong (1),Southern EastCoast,7.0,100.5,-,-,-,-,-,-,-,-,-,-,-,-,-,1.3325636386871338,0.32301050424575806,-,-,-,-,-,-,-,-,-,1.655574083328247,2020,08,21
111,112,574,Sa Dao (2),Southern EastCoast,6.798055556,100.3905556,-,-,-,-,-,-,-,-,-,-,-,-,2.428673028945923,2.5062901973724365,5.03636360168457,6.166879177093506,1.1940245628356934,0.040245942771434784,-,-,-,-,-,-,17.37247657775879,2020,08,21
112,113,580,Pattani,Southern EastCoast,6.7833336110000015,101.1500003,-,-,-,-,-,-,-,-,-,-,0.14166605472564697,0.46425965428352356,0.09847885370254517,-,-,2.4812169075012207,0.19285088777542114,0.05493398755788803,-,-,-,3.374282121658325,5.040670394897461,-,11.848359107971191,2020,08,21
113,114,581,Yala (1),Southern EastCoast,6.050000278,101.2833336,-,-,-,-,-,-,-,-,-,-,-,1.8626573085784912,4.002680778503418,3.1998038291931152,4.68196439743042,0.8345820903778076,2.7321252822875977,4.333438396453857,3.8320255279541016,4.061715126037598,3.3901174068450928,0.7932062149047852,0.519157886505127,-,34.243473052978516,2020,08,21
114,115,583,Narathiwat,Southern EastCoast,6.416666944,101.81666690000002,-,-,-,-,-,-,-,-,-,-,-,-,-,-,-,-,-,-,2.4358162879943848,0.06313454359769821,2.2900640964508057,6.0857110023498535,-,-,10.874725341796875,2020,08,21
115,116,532,Ranong,Southern WestCoast,9.983333611,98.61666694,-,-,-,-,-,-,-,-,-,-,-,-,-,-,-,-,-,-,-,-,-,-,-,-,-,2020,08,21
116,117,561,Takua Pa,Southern WestCoast,8.684166667000001,98.25222222,-,-,-,-,-,-,-,-,-,-,-,-,-,-,-,-,-,-,-,-,-,-,-,-,-,2020,08,21
117,118,564,Phuket,Southern WestCoast,7.883333611,98.40000028,-,-,-,-,-,-,-,-,-,-,-,-,-,-,-,-,-,-,-,-,-,-,-,-,-,2020,08,21
118,119,565,Phuket Airport,Southern WestCoast,8.145,98.31444444,-,-,-,-,-,-,-,-,-,-,-,-,-,-,-,-,-,-,-,-,-,-,-,-,-,2020,08,21
119,120,563,Krabi,Southern WestCoast,8.103611111000001,98.97527778,-,-,-,-,-,-,-,-,-,-,-,-,-,-,-,-,-,-,-,-,-,0.03527182340621948,0.04212108999490738,-,0.07739291340112686,2020,08,21
120,121,566,Ko Lanta,Southern WestCoast,7.5333336110000015,99.05000028,-,-,-,-,-,-,-,-,-,-,-,-,-,-,-,-,-,-,-,-,-,-,-,-,-,2020,08,21
121,122,567,Trang,Southern WestCoast,7.516666944,99.61666694,-,-,-,-,-,-,-,-,-,-,0.27564021944999695,0.24708372354507446,0.12452182173728943,-,-,-,-,-,-,0.06823111325502396,0.031800009310245514,0.047485191375017166,-,-,0.7947620749473572,2020,08,21
122,123,570,Satun,Southern WestCoast,6.650000277999999,100.0833336,-,-,-,-,-,-,-,-,-,-,-,-,-,1.9684523344039917,4.273598670959473,-,-,-,-,-,-,-,-,-,6.242051124572754,2020,08,21
