,ID,WMO_CODE,NAME_EN,Region,Latitude,Longitude,00Z,01Z,02Z,03Z,04Z,05Z,06Z,07Z,08Z,09Z,10Z,11Z,12Z,13Z,14Z,15Z,16Z,17Z,18Z,19Z,20Z,21Z,22Z,23Z,sum,year,month,day
0,1,300,Mae Hong Son,Northern,19.29897222,97.97577778,-,-,-,-,-,-,-,-,-,-,-,-,0.07213549315929413,0.3729691207408905,2.6596052646636963,2.737621784210205,0.13247346878051758,-,-,-,-,-,-,0.11879333108663559,6.09359884262085,2021,09,16
1,2,325,Mae Sariang,Northern,18.16666667,97.93333333,-,-,-,-,-,-,-,-,-,-,-,-,-,-,-,-,-,-,-,-,-,0.8914350271224976,0.5070258378982544,-,1.477542757987976,2021,09,16
2,3,303,Chiang Rai,Northern,19.96138889,99.88138889,-,-,-,-,-,-,-,-,-,-,-,-,-,-,-,-,1.2355809211730957,0.8717027306556702,0.8740519285202026,3.6423871517181396,6.485182762145996,5.416989326477051,4.802234649658203,0.1808357685804367,23.50896453857422,2021,09,16
3,4,304,Chiang Rai (1),Northern,19.87083333,99.78277778,-,-,-,-,-,-,-,-,-,-,-,-,-,-,-,-,0.5516611933708191,1.6551549434661865,2.4292545318603516,1.7941244840621948,3.9360313415527344,4.799500942230225,5.368190765380859,0.16152310371398926,20.69544219970703,2021,09,16
4,5,310,Phayao,Northern,19.13333333,99.9,-,-,-,-,-,-,-,-,-,-,-,-,-,-,-,-,0.1186935156583786,-,-,0.06653673201799393,2.1713144779205322,-,-,-,2.3565447330474854,2021,09,16
5,6,327,Chiang Mai,Northern,18.79,98.97694444,-,-,-,-,-,-,-,-,-,-,-,-,0.3190983235836029,-,-,-,-,-,-,-,-,-,-,-,0.3868248164653778,2021,09,16
6,7,302,Doi Angkhlang,Northern,19.93138889,99.04833333,-,-,-,-,-,-,-,-,-,0.3752606213092804,-,-,-,-,-,-,-,-,1.9976286888122559,0.7698217034339905,0.13571025431156158,0.11961627751588821,0.5129780173301697,-,3.911015510559082,2021,09,16
7,8,331,Nan,Northern,18.77972222,100.7777778,-,-,-,-,-,-,-,-,-,-,-,-,-,-,-,-,-,-,-,-,-,-,-,-,-,2021,09,16
8,9,333,Nan (1),Northern,18.86666667,100.75,-,-,-,-,-,-,-,-,-,-,-,-,-,-,-,-,-,-,-,-,-,-,-,-,-,2021,09,16
9,10,315,Tha Wang Pha (2),Northern,19.11055556,100.8025,-,-,-,-,-,-,-,-,-,-,-,-,-,-,-,-,-,-,-,-,-,-,-,-,-,2021,09,16
10,11,307,Thung Chang (2),Northern,19.41194444,100.8835278,-,-,-,-,-,-,-,-,-,-,-,-,-,-,-,-,-,-,-,-,-,-,-,-,-,2021,09,16
11,12,329,Lamphun,Northern,18.56666667,99.03333333,-,-,-,-,-,-,-,-,-,-,-,-,-,-,-,-,-,-,-,-,-,-,1.4599236249923706,-,1.4599236249923706,2021,09,16
12,13,328,Lampang,Northern,18.33333333,99.51666667,-,-,-,-,-,-,-,-,-,-,-,-,-,-,-,-,-,-,0.24758964776992798,1.5007401704788208,1.389449954032898,1.8574659824371338,1.7575151920318604,-,6.803680419921875,2021,09,16
13,14,334,Lampang (1),Northern,18.31666667,99.28333333,-,-,-,-,-,-,-,-,-,-,-,-,-,-,-,-,-,-,-,0.19825296103954315,1.4227656126022339,2.4908390045166016,3.289628028869629,-,7.401485443115234,2021,09,16
14,15,324,Thoen,Northern,17.63661111,99.24475,1.0727609395980835,4.917979717254639,0.18641166388988495,-,-,4.917979717254639,0.18641166388988495,-,-,-,-,-,-,-,-,-,-,-,0.2292332947254181,0.962384045124054,1.6929410696029663,0.9269609451293945,0.12233372032642365,-,17.360918045043945,2021,09,16
15,16,330,Phrae,Northern,18.16666667,100.1666667,-,-,-,-,-,-,-,-,-,-,-,-,-,0.18935050070285797,-,-,0.3130168914794922,-,1.0766942501068115,0.7667413353919983,0.23282763361930847,0.21925762295722961,0.07964322715997696,-,2.9239351749420166,2021,09,16
16,17,351,Uttaradit,Northern,17.61666667,100.1000028,-,-,-,-,-,-,-,-,-,-,-,-,1.9616504907608032,-,-,-,1.1890578269958496,3.2723634243011475,2.772991895675659,0.6931023001670837,0.762170672416687,0.33671867847442627,0.14823821187019348,-,11.136293411254883,2021,09,16
17,18,372,Sukhothai,Northern,17.10611111,99.8,0.6017857789993286,0.11202676594257355,1.2987697124481201,0.327763170003891,-,0.11202676594257355,1.2987697124481201,0.327763170003891,-,-,-,-,-,-,-,-,0.6434696316719055,4.9301886558532715,0.3511568009853363,0.17878358066082,1.6525431871414185,0.47346943616867065,-,0.19173285365104675,13.703821182250977,2021,09,16
18,19,373,Si Samrong (1),Northern,17.77361111,99.24944444,-,1.1245037317276,0.1969909965991974,-,-,1.1245037317276,0.1969909965991974,-,-,-,-,-,-,-,-,-,-,-,1.019736886024475,1.220380187034607,2.1234402656555176,1.6085009574890137,0.2826995551586151,-,8.897747039794922,2021,09,16
19,20,377,Bhumibol Dam,Northern,17.24391667,99.00252778,2.967242479324341,4.510651588439941,5.293091773986816,0.2573683559894562,0.23092441260814667,4.510651588439941,5.293091773986816,0.2573683559894562,0.23092441260814667,0.12072692811489105,-,-,-,-,-,-,0.21997784078121185,0.42189472913742065,-,0.13569976389408112,2.2373414039611816,2.3978352546691895,0.601099967956543,0.18321818113327026,35.803592681884766,2021,09,16
20,21,376,Tak,Northern,16.87836111,99.14336111,3.911769390106201,5.10562801361084,4.374917507171631,0.12363724410533905,0.3250673711299896,5.10562801361084,4.374917507171631,0.12363724410533905,0.3250673711299896,0.06878966838121414,-,-,-,-,-,-,-,1.6872978210449219,0.03714239224791527,0.02699974551796913,-,-,-,-,33.41403579711914,2021,09,16
21,22,375,Mae Sot,Northern,16.65916667,98.55086111,-,-,3.0481863021850586,0.17705662548542023,0.8348920345306396,-,3.0481863021850586,0.17705662548542023,0.8348920345306396,-,-,-,-,-,-,-,5.231468200683594,0.17499200999736786,-,-,-,-,-,-,13.526729583740234,2021,09,16
22,23,385,Umphang (2),Northern,16.02472222,98.86444444,0.42985600233078003,2.860697031021118,3.9511287212371826,-,-,2.860697031021118,3.9511287212371826,-,-,-,-,-,-,0.09900473058223724,-,-,-,-,-,-,-,-,-,-,15.012224197387695,2021,09,16
23,24,387,Doi Muser (1),Northern,16.75,98.93333611,1.413696527481079,4.4735541343688965,5.151072025299072,0.03964412212371826,0.46634620428085327,4.4735541343688965,5.151072025299072,0.03964412212371826,0.46634620428085327,0.2548704445362091,-,-,-,-,-,-,-,-,0.05994246527552605,-,-,-,-,0.07412248104810715,24.89125633239746,2021,09,16
24,25,378,Phitsanulok,Northern,16.79622222,100.2759444,-,-,0.21829093992710114,-,-,-,0.21829093992710114,-,-,-,-,-,-,-,-,-,-,-,-,-,-,-,3.245077133178711,0.6715951561927795,4.353254318237305,2021,09,16
25,26,374,Lom Sak (2),Northern,16.77363889,101.2494722,-,-,-,-,-,-,-,-,-,-,-,-,-,-,-,-,4.702735900878906,0.30385300517082214,-,0.23533770442008972,2.9767215251922607,5.625421524047852,7.723388195037842,-,21.56745719909668,2021,09,16
26,27,379,Phetchabun,Northern,16.43333611,101.15,-,-,-,-,-,-,-,-,-,-,-,-,-,0.40554842352867126,-,-,0.2326209992170334,1.6192922592163086,0.447530597448349,0.342232882976532,2.4864017963409424,5.602343559265137,6.228573322296143,26.461368560791016,43.82591247558594,2021,09,16
27,28,413,Wichian Buri (2),Northern,15.65694444,101.1083333,-,-,-,-,-,-,-,-,-,-,-,-,-,0.6583736538887024,2.869521141052246,5.111695766448975,0.4008508324623108,2.6780073642730713,-,0.20010650157928467,1.545235276222229,0.5518273115158081,1.7317426204681396,-,15.747361183166504,2021,09,16
28,29,380,Kamphaeng Phet,Northern,16.48680556,99.52697222,3.2569661140441895,3.8879103660583496,0.16309577226638794,-,-,3.8879103660583496,0.16309577226638794,-,-,-,-,-,-,-,1.5291249752044678,0.4642251133918762,-,-,-,-,-,-,-,-,19.866260528564453,2021,09,16
29,30,386,Phicit (1),Northern,16.33861111,100.3671111,-,-,-,-,-,-,-,-,-,-,-,-,-,1.0522478818893433,1.8872730731964111,-,-,-,-,-,-,2.7332239151000977,4.062277793884277,-,9.73502254486084,2021,09,16
30,31,352,Nong Khai,Northeastern,17.86716667,102.7330278,-,-,-,-,-,-,-,-,-,-,-,-,-,-,-,-,-,-,-,-,-,-,-,-,-,2021,09,16
31,32,353,Loei,Northeastern,17.45,101.7333333,-,-,-,-,-,-,-,-,-,-,-,-,-,-,-,-,-,-,-,0.07291898131370544,-,-,-,0.11359275877475739,0.18651174008846283,2021,09,16
32,33,350,Loei (1),Northeastern,17.4,101.7333333,-,-,-,-,-,-,-,-,-,-,-,-,-,-,-,-,-,-,-,-,-,-,-,-,-,2021,09,16
33,34,354,Udon Thani,Northeastern,17.38333333,102.8,0.1611848771572113,0.2588355541229248,0.020827438682317734,-,-,0.2588355541229248,0.020827438682317734,-,-,-,-,-,-,-,1.0985074043273926,2.3163156509399414,-,-,-,-,-,-,-,-,4.457703590393066,2021,09,16
34,35,357,Nakhon Phanom,Northeastern,17.41083333,104.7825,-,-,-,-,-,-,-,-,-,-,-,-,-,-,-,-,-,-,-,-,-,-,-,-,-,2021,09,16
35,36,358,Nakhon Phanom (1),Northeastern,17.44305556,104.7736111,-,-,-,-,-,-,-,-,-,-,-,-,-,-,-,-,-,-,-,-,-,-,-,-,-,2021,09,16
36,37,356,Sakon Nakhon,Northeastern,17.15000278,104.1333361,-,-,-,-,-,-,-,-,-,-,-,-,-,-,-,-,-,-,-,-,-,-,-,-,-,2021,09,16
37,38,355,Sakon Nakhon (1),Northeastern,17.12502778,104.061,-,-,-,-,-,-,-,-,-,-,-,-,-,0.08033435046672821,-,-,-,-,-,-,-,-,-,-,0.08033435046672821,2021,09,16
38,39,360,Nong Bua Lumphu,Northeastern,17.2325,102.4294444,-,0.3647834360599518,0.010351394303143024,-,-,0.3647834360599518,0.010351394303143024,-,-,-,-,-,-,-,-,-,-,-,-,-,-,-,-,0.0788654014468193,0.8291350603103638,2021,09,16
39,40,383,Mukdahan,Northeastern,16.54955556,104.7308889,-,-,-,-,-,-,-,-,-,-,-,-,-,-,-,-,-,-,-,-,-,-,-,-,-,2021,09,16
40,41,381,Khon Kaen,Northeastern,16.46111111,102.7897222,-,-,-,-,-,-,-,-,-,-,-,-,-,-,-,-,-,-,-,0.14644017815589905,6.136455535888672,3.555034637451172,3.3022704124450684,-,13.140201568603516,2021,09,16
41,42,384,Tha Pra (1),Northeastern,16.333,102.8166667,-,-,-,-,-,-,-,-,-,-,-,-,-,-,-,-,-,-,0.5507709980010986,5.676724910736084,1.6502325534820557,1.732373833656311,-,-,9.610102653503418,2021,09,16
42,43,382,Kosum Phisai (2),Northeastern,16.24722222,103.0680556,-,-,-,-,1.0229120254516602,-,-,-,1.0229120254516602,0.8166155815124512,-,-,-,-,-,-,-,-,3.399575710296631,0.45402848720550537,-,-,-,-,6.716043949127197,2021,09,16
43,44,390,Kamalasai (2),Northeastern,16.3325,103.5883333,-,-,-,1.495069980621338,-,-,-,1.495069980621338,-,-,-,-,-,-,-,-,-,-,-,-,-,-,-,-,2.990139961242676,2021,09,16
44,45,405,Roi Et,Northeastern,16.05000028,103.68333359999998,-,-,0.8098605871200562,0.877392053604126,0.11711221933364868,-,0.8098605871200562,0.877392053604126,0.11711221933364868,-,-,-,-,-,-,-,-,-,-,-,-,-,-,-,3.608729600906372,2021,09,16
45,46,404,Roi Et (1),Northeastern,16.07322222,103.6084444,-,-,0.8098605871200562,0.877392053604126,0.11711221933364868,-,0.8098605871200562,0.877392053604126,0.11711221933364868,-,-,-,-,-,-,-,-,-,-,-,-,-,-,-,3.608729600906372,2021,09,16
46,47,403,Chaiyaphum,Northeastern,15.80000028,102.0333336,-,-,-,-,-,-,-,-,-,-,-,-,-,-,-,-,0.7373448014259338,-,1.5246435403823853,0.0779193863272667,0.02809670753777027,0.27046316862106323,1.0073301792144775,-,3.6457979679107666,2021,09,16
47,48,407,Ubon Ratchathani,Northeastern,15.25000278,104.8666694,-,-,-,-,-,-,-,-,-,-,-,-,-,-,-,-,-,-,-,-,-,-,-,-,-,2021,09,16
48,49,408,Ubon Ratchathani (1),Northeastern,15.24072222,105.01966670000002,-,-,-,-,-,-,-,-,-,-,-,-,-,-,-,-,-,-,-,-,-,-,-,-,-,2021,09,16
49,50,409,Si Saket (1),Northeastern,15.00000028,104.0500003,-,-,-,-,-,-,-,-,-,-,-,-,-,-,-,-,-,-,-,-,-,-,-,-,-,2021,09,16
50,51,416,Tha Tum (2),Northeastern,15.31666694,103.68333359999998,-,-,-,-,-,-,-,-,-,-,-,-,-,-,-,-,-,-,-,-,-,-,-,-,-,2021,09,16
51,52,432,Surin,Northeastern,14.88333361,103.5000003,-,-,-,-,-,-,-,-,-,-,-,-,-,-,-,-,-,-,-,-,-,-,-,-,-,2021,09,16
52,53,433,Surin (1),Northeastern,14.88333361,103.4500003,-,-,-,-,-,-,-,-,-,-,-,-,-,-,-,-,-,-,-,-,-,-,-,-,-,2021,09,16
53,54,431,Nakhon Ratchasima,Northeastern,14.96830556,102.0860278,-,-,-,-,-,-,-,-,-,-,-,-,-,0.7301062941551208,0.033195704221725464,-,-,-,-,-,-,-,-,-,0.7633019685745239,2021,09,16
54,55,435,Pakchong (1),Northeastern,14.64388889,101.3319444,-,-,-,-,-,-,-,-,-,-,-,-,-,-,-,2.5584676265716553,-,-,-,-,-,-,-,-,2.5584676265716553,2021,09,16
55,56,434,Chok Chai (2),Northeastern,14.71888889,102.1686111,-,-,-,-,-,-,-,-,-,-,-,-,-,1.3648779392242432,0.19035445153713226,0.18536368012428284,-,-,-,-,-,-,-,-,1.740596055984497,2021,09,16
56,57,437,Buri Ram,Northeastern,15.22575,103.2480833,-,-,-,-,-,-,-,-,-,-,-,-,-,-,-,-,-,-,-,-,-,-,-,-,-,2021,09,16
57,58,436,Nang Rong (2),Northeastern,14.58333361,102.8000003,-,-,-,-,-,-,-,-,-,-,-,-,-,-,-,-,-,-,-,-,-,-,-,-,-,2021,09,16
58,59,400,Nakhon Sawan,Central,15.67183333,100.1323611,-,-,-,-,-,-,-,-,-,-,-,-,0.6017696261405945,-,-,-,-,-,0.22689111530780792,0.3113768696784973,0.8682234883308411,1.6391791105270386,0.7293646335601807,-,4.376804351806641,2021,09,16
59,60,401,Takfa (1),Central,15.34944444,100.5302778,-,-,-,-,-,-,-,-,-,-,-,-,-,-,-,-,0.04933563247323036,-,-,0.14785858988761902,1.0000964403152466,0.2422427535057068,0.6222436428070068,-,2.061777114868164,2021,09,16
60,61,402,Chai Nat,Central,15.15000278,100.18333359999998,-,-,-,0.6517579555511475,-,-,-,0.6517579555511475,-,-,-,-,-,-,-,-,0.9829601645469666,2.1066529750823975,-,-,-,-,-,-,4.393129348754883,2021,09,16
61,62,410,U Thai Thani,Central,15.37416667,100.0388889,-,-,0.09475768357515335,-,-,-,0.09475768357515335,-,-,-,-,-,-,-,-,-,-,1.264171838760376,-,0.09114037454128265,2.076544761657715,0.8241806030273438,0.15353791415691376,-,4.914063453674316,2021,09,16
62,63,415,Ayuthaya (1),Central,14.53472222,100.725,-,-,-,0.5715341567993164,-,-,-,0.5715341567993164,-,-,-,-,-,-,-,-,-,-,-,-,-,-,-,-,1.1430683135986328,2021,09,16
63,64,418,Bua Chum (2),Central,15.10000028,101.6166669,-,-,-,-,-,-,-,-,-,-,-,-,-,1.2544240951538086,2.7231853008270264,2.2549099922180176,0.15051493048667908,3.954040050506592,-,-,-,-,-,-,10.337074279785156,2021,09,16
64,65,426,Lop Buri,Central,14.79972222,100.6283333,-,-,-,-,-,-,-,-,-,-,-,-,-,-,-,-,-,-,-,-,-,-,-,-,-,2021,09,16
65,66,425,Suphan Buri,Central,14.47444444,100.1388889,-,-,-,-,1.1997166872024536,-,-,-,1.1997166872024536,0.2040577083826065,-,-,-,-,-,-,-,1.2428516149520874,-,-,-,-,-,-,3.8463425636291504,2021,09,16
66,67,427,Uthong (1),Central,14.30361111,99.86472222,-,-,-,-,0.49484217166900635,-,-,-,0.49484217166900635,0.49734634160995483,-,-,-,-,-,-,-,-,-,-,-,-,-,-,1.4870307445526123,2021,09,16
67,68,421,Thong Pha Phum,Central,14.74222222,98.63638889,-,-,-,-,-,-,-,-,-,-,-,-,-,0.06070445477962494,2.0016369819641113,2.2661023139953613,-,-,-,-,-,-,-,-,4.32844352722168,2021,09,16
68,69,450,Kanchanaburi,Central,14.0225,99.53583333,-,-,-,-,-,-,-,-,-,-,-,-,-,1.5107414722442627,1.2144542932510376,-,-,-,-,-,-,-,-,-,2.8354249000549316,2021,09,16
69,70,464,Ratcha Buri (1),Central,13.48930556,99.79238889,-,-,-,-,-,-,-,-,-,-,-,-,-,1.2396420240402222,-,-,-,-,-,-,-,-,-,-,1.2396420240402222,2021,09,16
70,71,451,Kampheang Saen (1),Central,14.01166667,99.97,-,-,0.17215633392333984,-,0.4745412766933441,-,0.17215633392333984,-,0.4745412766933441,0.01897761970758438,-,-,-,-,-,-,-,-,-,-,-,-,-,-,1.3123729228973389,2021,09,16
71,72,419,Pathum Thani (1),Central,14.1,100.616,-,-,3.442107677459717,8.489416122436523,0.04020726680755615,-,3.442107677459717,8.489416122436523,0.04020726680755615,0.05494727939367294,-,-,-,-,-,-,-,-,-,-,-,-,-,-,23.998409271240234,2021,09,16
72,73,420,Samut Prakan,Central,13.51666694,100.7616667,3.529572010040283,0.4173567295074463,-,-,-,0.4173567295074463,-,-,-,-,-,-,-,-,-,-,-,-,-,-,-,-,-,0.30607783794403076,11.729507446289062,2021,09,16
73,74,429,Suvarnabhumi Airport,Central,13.68638889,100.7675,2.993786096572876,0.2222108244895935,-,-,-,0.2222108244895935,-,-,-,-,-,-,-,-,-,-,-,-,-,-,-,-,-,1.8364607095718384,11.262240409851074,2021,09,16
74,75,456,Don Muang Airport,Central,13.91916667,100.605,0.10370100289583206,-,3.4114952087402344,2.5752100944519043,0.07655812799930573,-,3.4114952087402344,2.5752100944519043,0.07655812799930573,1.0572729110717773,-,-,-,-,-,-,-,-,-,-,-,-,-,0.4789895713329315,13.973893165588379,2021,09,16
75,76,455,Sirikit Center,Central,13.72638889,100.56,1.9823777675628662,2.739943265914917,1.150473713874817,0.3274933695793152,-,2.739943265914917,1.150473713874817,0.3274933695793152,-,-,-,-,-,-,-,-,-,-,-,-,-,-,-,-,14.382954597473145,2021,09,16
76,77,454,Bangkok Port,Central,13.70694444,100.5680556,1.9823777675628662,2.739943265914917,1.150473713874817,0.3274933695793152,-,2.739943265914917,1.150473713874817,0.3274933695793152,-,-,-,-,-,-,-,-,-,-,-,-,-,-,-,-,14.382954597473145,2021,09,16
77,78,453,Bang Na (1),Central,13.66638889,100.6061111,2.858550548553467,1.5516074895858765,0.10875416547060013,-,-,1.5516074895858765,0.10875416547060013,-,-,-,-,-,-,-,-,-,-,-,-,-,-,-,-,-,11.896374702453613,2021,09,16
78,79,457,Bangkok Pilot,Central,13.37722222,100.5994444,0.661767303943634,0.4421778917312622,-,-,-,0.4421778917312622,-,-,-,0.3946097493171692,-,-,-,-,-,-,-,-,-,-,-,-,-,-,3.2642674446105957,2021,09,16
79,80,430,Prachin Buri,Eastern,14.05091667,101.3693056,-,-,-,-,-,-,-,-,-,-,-,-,-,-,-,-,-,-,-,-,-,-,-,-,-,2021,09,16
80,81,439,Kabin Buri (2),Eastern,13.98333361,101.7072222,-,-,-,-,-,-,-,-,-,-,-,-,1.0636556148529053,-,-,-,-,-,-,-,-,-,-,-,1.0636556148529053,2021,09,16
81,82,440,Sa Kaeo (2),Eastern,13.78888889,102.0347222,-,-,-,-,-,-,-,-,-,-,-,-,0.6179827451705933,-,-,-,-,-,-,-,-,-,-,-,1.3103001117706299,2021,09,16
82,83,462,Aranyaprathet,Eastern,13.70000028,102.5833336,-,-,-,-,-,-,-,-,-,-,-,-,0.3891443610191345,0.6998850107192993,0.04248937591910362,-,-,-,-,-,-,-,-,-,1.8421399593353271,2021,09,16
83,84,458,Chachoengsao (1),Eastern,13.51555556,101.4583333,-,-,-,-,-,-,-,-,-,-,-,-,-,-,0.8939533829689026,0.8505324125289917,-,-,-,-,-,-,-,-,1.744485855102539,2021,09,16
84,85,459,Chon Buri,Eastern,13.36666694,100.9833336,-,-,0.042558703571558,3.5848681926727295,-,-,0.042558703571558,3.5848681926727295,-,-,-,-,-,-,-,-,-,-,-,-,-,-,-,-,7.25485372543335,2021,09,16
85,86,463,Laem Chabang,Eastern,13.07694444,100.8758333,-,-,-,-,-,-,-,-,-,-,-,-,-,-,-,-,-,-,-,-,-,-,-,1.0863381624221802,1.0863381624221802,2021,09,16
86,87,460,Ko Sichang,Eastern,13.16166667,100.8019444,-,-,0.015605728141963482,0.46059080958366394,0.5347779989242554,-,0.015605728141963482,0.46059080958366394,0.5347779989242554,-,-,-,-,-,-,-,-,-,-,-,-,-,-,-,2.021949052810669,2021,09,16
87,88,461,Pattaya,Eastern,12.92,100.8694444,-,-,-,-,-,-,-,-,-,-,-,-,-,-,-,-,-,-,-,-,-,-,-,1.5427113771438599,1.5427113771438599,2021,09,16
88,89,477,Sattahip,Eastern,12.68333361,100.9833336,-,0.6087741255760193,-,-,-,0.6087741255760193,-,-,-,-,-,-,-,-,-,-,-,-,-,-,-,-,-,-,1.2175482511520386,2021,09,16
89,90,478,Rayong,Eastern,12.61702778,101.34075,-,-,-,-,-,-,-,-,-,-,-,-,-,-,-,-,-,-,-,-,-,-,-,-,-,2021,09,16
90,91,479,Huai Pong (1),Eastern,12.73333361,101.1333336,-,-,-,-,-,-,-,-,-,-,-,-,-,-,-,-,-,-,-,-,-,-,-,-,-,2021,09,16
91,92,480,Chanthaburi,Eastern,12.61666694,102.1133333,-,-,-,-,-,-,-,-,-,-,-,-,-,-,-,2.2668042182922363,-,-,-,-,-,-,-,-,2.2668042182922363,2021,09,16
92,93,481,Pluei (1),Eastern,12.50861111,102.1730556,-,-,-,-,-,-,-,-,-,-,-,-,-,-,-,-,-,-,-,-,-,-,-,-,-,2021,09,16
93,94,501,Khlong Yai,Eastern,11.76666694,102.8833336,-,-,-,-,-,-,-,-,-,-,-,-,-,-,-,-,-,-,-,-,-,-,-,-,-,2021,09,16
94,95,465,Phetchaburi,Southern EastCoast,12.99930556,100.0605278,-,-,-,-,-,-,-,-,-,-,-,-,-,-,-,-,-,-,-,-,-,-,-,-,-,2021,09,16
95,96,474,Nong Plub (1),Southern EastCoast,12.58925,99.73461111,-,-,-,-,-,-,-,-,-,-,-,-,-,-,-,-,-,-,-,-,-,-,-,-,0.4565321207046509,2021,09,16
96,97,475,Hua Hin,Southern EastCoast,12.57797222,99.95372222,-,-,-,-,-,-,-,-,-,-,-,-,5.835693836212158,-,-,-,-,-,-,-,-,-,-,-,5.835693836212158,2021,09,16
97,98,500,Prachuap Khiri Khan,Southern EastCoast,11.83497222,99.81047222,-,-,-,-,-,-,-,-,-,-,-,-,-,-,-,-,-,-,-,-,-,-,-,-,-,2021,09,16
98,99,517,Chumphon,Southern EastCoast,10.49875,99.18847222,-,-,-,-,-,-,-,-,-,-,-,-,-,-,-,-,-,-,-,-,-,-,-,-,-,2021,09,16
99,100,520,Sawee (1),Southern EastCoast,10.33063889,99.09186111,-,-,-,-,-,-,-,-,-,-,-,-,-,-,-,-,-,-,-,-,-,-,-,-,0.07293113321065903,2021,09,16
100,101,551,Surat Thani,Southern EastCoast,9.1335,99.15213889,-,-,-,-,-,-,-,-,-,-,-,-,-,-,-,-,-,-,-,-,-,-,-,-,-,2021,09,16
101,102,555,Surat Thani (1),Southern EastCoast,9.144805556,99.63361111,-,-,-,-,-,-,-,-,-,-,-,-,4.087933540344238,0.9478710889816284,2.0393259525299072,-,-,-,-,-,-,-,-,-,7.075130462646484,2021,09,16
102,103,550,Ko Samui,Southern EastCoast,9.466666667,100.05,-,-,-,-,-,-,-,-,-,-,-,-,-,-,-,-,-,-,-,-,-,-,-,-,-,2021,09,16
103,104,556,Prasang (2),Southern EastCoast,8.572083333,99.25519444,-,-,-,-,-,-,-,-,-,-,-,-,-,-,-,-,-,-,-,-,-,-,-,-,-,2021,09,16
104,105,557,Chawang (2),Southern EastCoast,8.424694444,99.50661111,-,-,-,-,-,-,-,-,-,-,-,-,-,-,-,0.040476325899362564,-,-,-,-,-,-,-,-,0.040476325899362564,2021,09,16
105,106,552,Nakhon Si Thammarat,Southern EastCoast,8.537777777999999,99.94722222,-,-,-,-,-,-,-,-,-,-,-,-,-,-,-,-,-,-,-,-,-,-,-,-,-,2021,09,16
106,107,554,Nakhon Si Thammarat (1),Southern EastCoast,8.359305556,100.0,-,-,-,-,-,-,-,-,-,-,-,-,-,0.9847724437713623,-,-,-,-,-,-,-,-,-,-,0.9847724437713623,2021,09,16
107,108,560,Pattalung (1),Southern EastCoast,7.583333611,100.1666669,-,-,-,-,-,-,-,-,-,-,-,-,-,-,-,-,-,-,1.7292253971099854,-,0.5780357122421265,0.8895679116249084,1.6006146669387817,-,4.841286659240723,2021,09,16
108,109,568,Songkhla,Southern EastCoast,7.182111111,100.6076944,-,-,-,-,-,-,-,-,-,-,-,-,-,-,-,-,-,-,0.10438823699951172,-,-,-,-,-,0.10438823699951172,2021,09,16
109,110,569,Hat Yai,Southern EastCoast,6.916666944,100.43333359999998,-,-,-,-,-,-,-,-,-,-,-,-,-,-,-,-,-,-,-,-,-,-,-,-,-,2021,09,16
110,111,571,Korhong (1),Southern EastCoast,7.0,100.5,-,-,-,-,-,-,-,-,-,-,-,-,-,-,-,-,0.3670198619365692,-,0.16424579918384552,-,-,-,-,-,0.5312656760215759,2021,09,16
111,112,574,Sa Dao (2),Southern EastCoast,6.798055556,100.3905556,-,-,-,-,-,-,-,-,-,-,-,-,-,-,-,-,3.132941961288452,8.876136779785156,0.08610701560974121,-,-,-,-,-,12.095186233520508,2021,09,16
112,113,580,Pattani,Southern EastCoast,6.7833336110000015,101.1500003,-,0.012285055592656136,-,-,-,0.012285055592656136,-,-,-,-,-,-,3.2104170322418213,0.43246781826019287,0.04760945960879326,-,-,-,-,-,-,-,-,-,3.8004612922668457,2021,09,16
113,114,581,Yala (1),Southern EastCoast,6.050000278,101.2833336,-,-,-,-,-,-,-,-,-,-,-,-,0.14201857149600983,0.11274867504835129,1.7395652532577515,0.16627104580402374,-,-,-,-,-,-,1.9549543857574463,-,9.299808502197266,2021,09,16
114,115,583,Narathiwat,Southern EastCoast,6.416666944,101.81666690000002,0.3899287283420563,0.10524524748325348,-,-,-,0.10524524748325348,-,-,-,-,-,-,-,-,-,-,-,-,0.7996634244918823,-,-,-,-,-,2.1799402236938477,2021,09,16
115,116,532,Ranong,Southern WestCoast,9.983333611,98.61666694,-,-,-,-,-,-,-,-,-,-,-,-,-,-,-,-,-,-,-,-,-,-,-,-,-,2021,09,16
116,117,561,Takua Pa,Southern WestCoast,8.684166667000001,98.25222222,-,-,-,-,-,-,-,-,-,-,-,-,-,-,-,-,-,-,-,-,-,-,-,-,-,2021,09,16
117,118,564,Phuket,Southern WestCoast,7.883333611,98.40000028,-,-,-,-,-,-,-,-,-,-,-,-,-,-,-,-,-,-,-,-,-,-,-,-,-,2021,09,16
118,119,565,Phuket Airport,Southern WestCoast,8.145,98.31444444,-,-,-,-,-,-,-,-,-,-,-,-,-,-,-,-,-,-,-,-,-,-,-,-,-,2021,09,16
119,120,563,Krabi,Southern WestCoast,8.103611111000001,98.97527778,-,-,-,-,-,-,-,-,-,-,-,-,-,-,-,-,-,-,-,-,-,-,-,-,-,2021,09,16
120,121,566,Ko Lanta,Southern WestCoast,7.5333336110000015,99.05000028,-,-,-,-,-,-,-,-,-,-,-,-,-,-,-,-,-,-,-,-,-,-,-,-,-,2021,09,16
121,122,567,Trang,Southern WestCoast,7.516666944,99.61666694,-,-,-,-,-,-,-,-,-,-,-,-,-,-,2.718837261199951,3.0131053924560547,-,-,-,-,-,-,0.27095529437065125,-,6.0028977394104,2021,09,16
122,123,570,Satun,Southern WestCoast,6.650000277999999,100.0833336,-,-,-,-,-,-,-,-,-,-,-,-,-,-,-,-,-,15.516088485717773,-,-,-,-,-,-,15.516088485717773,2021,09,16
