,ID,WMO_CODE,NAME_EN,Region,Latitude,Longitude,00Z,01Z,02Z,03Z,04Z,05Z,06Z,07Z,08Z,09Z,10Z,11Z,12Z,13Z,14Z,15Z,16Z,17Z,18Z,19Z,20Z,21Z,22Z,23Z,sum,year,month,day
0,1,300,Mae Hong Son,Northern,19.29897222,97.97577778,-,-,-,-,-,-,-,-,-,-,-,-,-,5.756433486938477,7.811210632324219,8.92911434173584,2.1020777225494385,2.8089375495910645,-,-,-,-,-,-,27.407772064208984,2021,10,01
1,2,325,Mae Sariang,Northern,18.16666667,97.93333333,-,-,-,-,-,-,-,-,-,-,-,-,-,0.07629606127738953,0.7463874816894531,3.2759480476379395,4.256401538848877,3.520555019378662,0.11974083632230759,0.1509578973054886,0.15802186727523804,-,-,-,12.304309844970703,2021,10,01
2,3,303,Chiang Rai,Northern,19.96138889,99.88138889,-,-,-,-,-,-,-,-,-,-,-,-,-,-,-,-,-,-,-,-,-,-,-,-,3.431169033050537,2021,10,01
3,4,304,Chiang Rai (1),Northern,19.87083333,99.78277778,-,-,-,-,-,-,-,-,-,-,-,-,-,-,-,-,-,-,-,-,-,-,-,-,3.210023880004883,2021,10,01
4,5,310,Phayao,Northern,19.13333333,99.9,-,-,-,-,-,-,-,-,-,-,-,-,-,1.6376034021377563,0.9851441979408264,0.5516794919967651,-,-,-,-,-,-,-,-,7.779184818267822,2021,10,01
5,6,327,Chiang Mai,Northern,18.79,98.97694444,-,-,-,-,-,-,-,-,-,-,-,-,-,0.5064117908477783,2.2267141342163086,4.101198196411133,0.25304222106933594,0.3166676461696625,-,-,-,-,-,-,7.404033660888672,2021,10,01
6,7,302,Doi Angkhlang,Northern,19.93138889,99.04833333,-,-,-,-,-,-,-,-,-,-,-,-,-,0.31033530831336975,1.4874790906906128,0.3426075279712677,-,-,-,-,-,-,-,-,5.7513346672058105,2021,10,01
7,8,331,Nan,Northern,18.77972222,100.7777778,0.021687256172299385,-,-,-,-,-,-,-,-,-,-,-,-,1.2585657835006714,2.583303689956665,1.971004843711853,-,-,-,-,-,-,-,-,5.856248378753662,2021,10,01
8,9,333,Nan (1),Northern,18.86666667,100.75,0.021628325805068016,-,-,-,-,-,-,-,-,-,-,-,-,2.04256534576416,3.134424924850464,2.0128774642944336,-,-,-,-,-,-,-,-,7.233124732971191,2021,10,01
9,10,315,Tha Wang Pha (2),Northern,19.11055556,100.8025,-,-,-,-,-,-,-,-,-,-,-,-,-,0.9708724617958069,-,0.7321983575820923,-,-,-,-,-,-,-,-,1.703070878982544,2021,10,01
10,11,307,Thung Chang (2),Northern,19.41194444,100.8835278,0.02871927060186863,-,-,-,-,-,-,-,-,-,-,-,-,0.2221316546201706,-,-,-,-,-,-,-,-,-,-,3.6865251064300537,2021,10,01
11,12,329,Lamphun,Northern,18.56666667,99.03333333,-,-,-,-,-,-,-,-,-,-,-,-,-,1.4084118604660034,3.477357864379883,5.045259475708008,-,-,-,-,-,-,-,-,11.5938720703125,2021,10,01
12,13,328,Lampang,Northern,18.33333333,99.51666667,-,-,-,-,-,-,-,-,-,-,-,-,-,0.15422499179840088,2.2552154064178467,3.4560649394989014,-,-,-,-,-,-,-,-,9.155159950256348,2021,10,01
13,14,334,Lampang (1),Northern,18.31666667,99.28333333,-,-,-,-,-,-,-,-,-,-,-,-,-,0.31463658809661865,2.605848550796509,3.4772708415985107,-,-,-,-,-,-,-,-,6.3977556228637695,2021,10,01
14,15,324,Thoen,Northern,17.63661111,99.24475,-,-,0.0794023647904396,0.04285675287246704,0.038478244096040726,-,-,-,-,-,-,-,-,-,-,-,-,-,0.15033811330795288,0.20100198686122894,-,0.5851553082466125,0.3535732924938202,0.16653390228748322,1.6173399686813354,2021,10,01
15,16,330,Phrae,Northern,18.16666667,100.1666667,-,0.012373297475278378,-,-,-,-,-,-,-,-,-,-,-,2.5098462104797363,4.283142566680908,4.629021644592285,0.05174823850393295,0.7922546863555908,-,-,-,-,-,-,16.559463500976562,2021,10,01
16,17,351,Uttaradit,Northern,17.61666667,100.1000028,-,0.13397088646888733,-,-,-,-,-,-,-,-,-,-,-,2.4311752319335938,4.75972318649292,5.445024490356445,0.23844410479068756,1.5552723407745361,0.11530033499002457,-,-,-,-,-,14.678911209106445,2021,10,01
17,18,372,Sukhothai,Northern,17.10611111,99.8,-,-,-,-,-,-,-,-,-,-,-,-,-,-,-,-,0.431188702583313,2.3393185138702393,0.13110660016536713,-,-,-,-,-,2.90161395072937,2021,10,01
18,19,373,Si Samrong (1),Northern,17.77361111,99.24944444,-,-,-,-,-,-,-,-,-,-,-,-,-,-,-,-,-,-,-,-,0.4925016462802887,0.9764934182167053,0.5483739376068115,0.2264959216117859,2.2438650131225586,2021,10,01
19,20,377,Bhumibol Dam,Northern,17.24391667,99.00252778,-,-,-,-,-,-,-,-,-,-,-,-,-,-,-,-,17.66673469543457,20.739238739013672,3.1755568981170654,0.5925577282905579,-,-,-,-,42.17408752441406,2021,10,01
20,21,376,Tak,Northern,16.87836111,99.14336111,-,-,-,-,-,-,-,-,-,-,-,-,-,-,-,-,13.564216613769531,21.66599464416504,2.4192960262298584,0.44065749645233154,-,-,-,-,38.09016418457031,2021,10,01
21,22,375,Mae Sot,Northern,16.65916667,98.55086111,-,-,-,-,-,-,-,-,-,-,-,-,-,-,-,0.34436270594596863,1.3829786777496338,5.51320219039917,8.077229499816895,6.7487568855285645,1.0484232902526855,1.5363249778747559,-,-,24.65127944946289,2021,10,01
22,23,385,Umphang (2),Northern,16.02472222,98.86444444,-,-,-,-,-,-,-,-,-,-,-,-,-,2.6733477115631104,4.840653419494629,4.911932468414307,4.056842803955078,6.471027374267578,3.917886972427368,1.9830507040023804,-,4.104537010192871,4.403151988983154,2.34805965423584,39.71049118041992,2021,10,01
23,24,387,Doi Muser (1),Northern,16.75,98.93333611,-,-,-,-,-,-,-,-,-,-,-,-,-,0.09893492609262466,-,-,18.87139320373535,27.372547149658203,3.92008113861084,1.6603559255599976,-,-,-,-,51.923309326171875,2021,10,01
24,25,378,Phitsanulok,Northern,16.79622222,100.2759444,-,-,-,-,-,-,-,-,-,-,-,-,-,-,-,-,-,-,-,-,-,-,-,-,-,2021,10,01
25,26,374,Lom Sak (2),Northern,16.77363889,101.2494722,-,-,-,-,-,-,-,-,-,-,-,-,-,-,-,-,-,-,-,-,-,-,-,-,3.584892749786377,2021,10,01
26,27,379,Phetchabun,Northern,16.43333611,101.15,-,-,-,-,-,-,-,-,-,-,-,-,-,-,-,-,-,-,-,-,-,-,-,-,3.961993932723999,2021,10,01
27,28,413,Wichian Buri (2),Northern,15.65694444,101.1083333,-,-,-,-,-,-,-,-,-,-,-,-,-,-,-,-,1.5529717206954956,0.05586443468928337,-,-,-,-,-,-,1.630279779434204,2021,10,01
28,29,380,Kamphaeng Phet,Northern,16.48680556,99.52697222,-,-,-,-,-,-,-,-,-,-,-,-,-,-,-,-,-,-,1.5374767780303955,0.24411727488040924,-,-,-,-,1.7815940380096436,2021,10,01
29,30,386,Phicit (1),Northern,16.33861111,100.3671111,-,0.01567511260509491,0.015436899848282337,-,-,-,-,-,-,-,-,-,-,-,-,-,-,-,-,-,1.4703689813613892,-,-,-,1.5014809370040894,2021,10,01
30,31,352,Nong Khai,Northeastern,17.86716667,102.7330278,-,-,2.4346139430999756,3.2352194786071777,2.6888716220855713,-,-,-,-,-,-,-,-,-,-,-,-,-,-,-,-,-,-,-,8.358704566955566,2021,10,01
31,32,353,Loei,Northeastern,17.45,101.7333333,-,-,-,-,-,-,-,-,-,-,-,-,-,-,-,-,-,-,-,-,-,-,-,-,4.776397705078125,2021,10,01
32,33,350,Loei (1),Northeastern,17.4,101.7333333,-,-,-,-,-,-,-,-,-,-,-,-,-,-,-,-,-,-,-,-,-,-,-,-,6.320960521697998,2021,10,01
33,34,354,Udon Thani,Northeastern,17.38333333,102.8,-,-,-,-,-,-,-,-,-,-,-,-,-,-,-,-,-,-,-,-,-,-,-,-,4.027939796447754,2021,10,01
34,35,357,Nakhon Phanom,Northeastern,17.41083333,104.7825,-,-,-,-,-,-,-,-,-,-,-,-,-,-,-,-,-,-,-,-,-,-,-,-,-,2021,10,01
35,36,358,Nakhon Phanom (1),Northeastern,17.44305556,104.7736111,-,-,-,-,-,-,-,-,-,-,-,-,-,-,-,-,-,-,-,-,-,-,-,-,-,2021,10,01
36,37,356,Sakon Nakhon,Northeastern,17.15000278,104.1333361,-,-,-,-,-,-,-,-,-,-,-,-,-,-,-,-,-,-,-,-,-,-,-,-,-,2021,10,01
37,38,355,Sakon Nakhon (1),Northeastern,17.12502778,104.061,-,-,0.035415325313806534,0.3714900314807892,0.8835574984550476,-,-,-,-,-,-,-,-,-,-,-,-,-,-,-,-,-,-,-,1.290462851524353,2021,10,01
38,39,360,Nong Bua Lumphu,Northeastern,17.2325,102.4294444,-,-,-,-,-,-,-,-,-,-,-,-,-,-,-,-,-,-,-,-,-,-,-,-,2.86932110786438,2021,10,01
39,40,383,Mukdahan,Northeastern,16.54955556,104.7308889,-,-,-,-,-,-,-,-,-,-,-,-,-,-,-,-,-,-,-,-,-,-,-,-,-,2021,10,01
40,41,381,Khon Kaen,Northeastern,16.46111111,102.7897222,-,-,-,-,-,-,-,-,-,-,-,-,-,-,0.8040948510169983,0.10127183049917221,-,0.4055059850215912,-,-,0.07364168763160706,-,-,-,1.384514331817627,2021,10,01
41,42,384,Tha Pra (1),Northeastern,16.333,102.8166667,-,-,-,-,-,-,-,-,-,-,-,-,-,-,0.8366697430610657,0.2584919035434723,0.1499233990907669,0.6717404723167419,-,-,-,-,-,-,1.916825532913208,2021,10,01
42,43,382,Kosum Phisai (2),Northeastern,16.24722222,103.0680556,-,-,-,-,-,-,-,-,-,-,-,-,-,-,-,-,0.36131513118743896,0.019674407318234444,-,-,-,-,-,-,0.38098955154418945,2021,10,01
43,44,390,Kamalasai (2),Northeastern,16.3325,103.5883333,-,-,-,-,-,-,-,-,-,-,-,-,-,-,-,-,-,-,-,-,-,-,-,-,-,2021,10,01
44,45,405,Roi Et,Northeastern,16.05000028,103.68333359999998,-,-,-,-,-,-,-,-,-,-,-,-,-,-,-,-,-,-,-,-,-,-,-,-,-,2021,10,01
45,46,404,Roi Et (1),Northeastern,16.07322222,103.6084444,-,-,-,-,-,-,-,-,-,-,-,-,-,-,-,-,-,-,-,-,-,-,-,-,-,2021,10,01
46,47,403,Chaiyaphum,Northeastern,15.80000028,102.0333336,-,-,-,-,-,-,-,-,-,-,-,-,-,-,-,-,-,-,-,-,-,-,-,-,-,2021,10,01
47,48,407,Ubon Ratchathani,Northeastern,15.25000278,104.8666694,-,-,-,-,-,-,-,-,-,-,-,-,-,-,-,-,-,-,-,-,-,-,-,-,-,2021,10,01
48,49,408,Ubon Ratchathani (1),Northeastern,15.24072222,105.01966670000002,-,-,-,-,-,-,-,-,-,-,-,-,-,-,-,-,-,-,-,-,-,-,-,-,-,2021,10,01
49,50,409,Si Saket (1),Northeastern,15.00000028,104.0500003,-,-,-,-,-,-,-,-,-,-,-,-,-,-,-,-,-,-,-,-,-,-,-,-,-,2021,10,01
50,51,416,Tha Tum (2),Northeastern,15.31666694,103.68333359999998,-,-,-,-,-,-,-,-,-,-,-,-,-,-,-,-,-,-,-,-,-,-,-,-,-,2021,10,01
51,52,432,Surin,Northeastern,14.88333361,103.5000003,-,-,-,-,-,-,-,-,-,-,-,-,-,-,-,-,-,-,-,-,-,-,-,-,-,2021,10,01
52,53,433,Surin (1),Northeastern,14.88333361,103.4500003,-,-,-,-,-,-,-,-,-,-,-,-,-,-,-,-,-,-,-,-,-,-,-,-,-,2021,10,01
53,54,431,Nakhon Ratchasima,Northeastern,14.96830556,102.0860278,-,-,-,-,-,-,-,-,-,-,-,-,-,0.3746199607849121,-,-,-,-,0.26489362120628357,1.4162722826004028,-,-,-,-,2.055785894393921,2021,10,01
54,55,435,Pakchong (1),Northeastern,14.64388889,101.3319444,-,-,-,-,-,-,-,-,-,-,-,-,-,2.011326551437378,0.1581396907567978,-,-,-,-,-,-,-,-,-,2.169466257095337,2021,10,01
55,56,434,Chok Chai (2),Northeastern,14.71888889,102.1686111,-,-,-,-,-,-,-,-,-,-,-,-,-,-,-,-,-,-,-,-,-,-,-,-,-,2021,10,01
56,57,437,Buri Ram,Northeastern,15.22575,103.2480833,-,-,-,-,-,-,-,-,-,-,-,-,-,-,-,-,-,-,-,-,-,-,-,-,-,2021,10,01
57,58,436,Nang Rong (2),Northeastern,14.58333361,102.8000003,-,-,-,-,-,-,-,-,-,-,-,-,-,-,-,-,-,-,-,-,-,-,-,-,-,2021,10,01
58,59,400,Nakhon Sawan,Central,15.67183333,100.1323611,-,-,-,-,-,-,-,-,-,-,-,-,-,-,-,-,-,-,0.2317022830247879,-,-,-,-,-,0.2317022830247879,2021,10,01
59,60,401,Takfa (1),Central,15.34944444,100.5302778,-,-,-,-,-,-,-,-,-,-,-,-,-,-,-,-,-,-,-,-,-,-,-,-,-,2021,10,01
60,61,402,Chai Nat,Central,15.15000278,100.18333359999998,-,-,-,-,-,-,-,-,-,-,-,-,-,-,-,-,-,-,-,-,-,-,-,-,-,2021,10,01
61,62,410,U Thai Thani,Central,15.37416667,100.0388889,-,-,-,-,-,-,-,-,-,-,-,-,-,-,-,-,-,-,-,-,-,-,-,-,-,2021,10,01
62,63,415,Ayuthaya (1),Central,14.53472222,100.725,-,-,-,-,-,-,-,-,-,-,-,-,-,-,-,-,-,-,-,-,-,-,-,-,0.24327720701694489,2021,10,01
63,64,418,Bua Chum (2),Central,15.10000028,101.6166669,-,-,-,-,-,-,-,-,-,-,-,-,-,-,-,-,-,-,-,-,4.250833034515381,0.5882771611213684,-,-,4.839110374450684,2021,10,01
64,65,426,Lop Buri,Central,14.79972222,100.6283333,-,-,-,-,-,-,-,-,-,-,-,-,-,-,-,-,-,-,-,-,-,-,-,-,-,2021,10,01
65,66,425,Suphan Buri,Central,14.47444444,100.1388889,-,-,-,-,-,-,-,-,-,-,-,-,-,-,-,-,-,-,-,-,-,-,-,-,-,2021,10,01
66,67,427,Uthong (1),Central,14.30361111,99.86472222,-,-,-,-,-,-,-,-,-,-,-,-,-,-,-,-,-,-,-,-,-,-,-,-,-,2021,10,01
67,68,421,Thong Pha Phum,Central,14.74222222,98.63638889,-,-,-,-,-,-,-,-,-,-,-,-,-,0.6025579571723938,-,-,2.43096661567688,3.2902719974517822,2.2630300521850586,2.396090030670166,-,-,-,-,10.982915878295898,2021,10,01
68,69,450,Kanchanaburi,Central,14.0225,99.53583333,-,-,-,-,-,-,-,-,-,-,-,-,-,-,-,-,-,-,-,-,2.4228155612945557,-,-,-,2.4228155612945557,2021,10,01
69,70,464,Ratcha Buri (1),Central,13.48930556,99.79238889,-,-,-,-,-,-,-,-,-,-,-,-,-,-,-,-,-,-,-,-,-,-,-,-,-,2021,10,01
70,71,451,Kampheang Saen (1),Central,14.01166667,99.97,-,-,-,-,-,-,-,-,-,-,-,-,-,-,-,-,-,-,-,-,-,-,-,-,2.6841089725494385,2021,10,01
71,72,419,Pathum Thani (1),Central,14.1,100.616,-,-,-,-,-,-,-,-,-,-,-,-,-,-,-,-,-,-,-,-,-,-,-,-,-,2021,10,01
72,73,420,Samut Prakan,Central,13.51666694,100.7616667,-,-,-,-,-,-,-,-,-,-,-,-,-,-,-,-,-,-,-,-,-,-,-,-,-,2021,10,01
73,74,429,Suvarnabhumi Airport,Central,13.68638889,100.7675,-,-,-,-,-,-,-,-,-,-,-,-,-,-,-,-,-,-,-,-,-,-,-,-,-,2021,10,01
74,75,456,Don Muang Airport,Central,13.91916667,100.605,-,-,-,-,-,-,-,-,-,-,-,-,-,-,-,-,-,-,-,-,-,-,-,-,-,2021,10,01
75,76,455,Sirikit Center,Central,13.72638889,100.56,-,-,-,-,-,-,-,-,-,-,-,-,-,-,-,-,-,-,-,-,-,-,-,-,-,2021,10,01
76,77,454,Bangkok Port,Central,13.70694444,100.5680556,-,-,-,-,-,-,-,-,-,-,-,-,-,-,-,-,-,-,-,-,-,-,-,-,-,2021,10,01
77,78,453,Bang Na (1),Central,13.66638889,100.6061111,-,-,-,-,-,-,-,-,-,-,-,-,-,-,-,-,-,-,-,-,-,-,-,-,-,2021,10,01
78,79,457,Bangkok Pilot,Central,13.37722222,100.5994444,-,-,-,-,-,-,-,-,-,-,-,-,-,-,-,-,-,-,-,-,-,-,-,-,2.9867477416992188,2021,10,01
79,80,430,Prachin Buri,Eastern,14.05091667,101.3693056,-,-,-,-,-,-,-,-,-,-,-,-,-,-,-,-,-,-,-,-,-,-,-,-,-,2021,10,01
80,81,439,Kabin Buri (2),Eastern,13.98333361,101.7072222,-,-,-,-,-,-,-,-,-,-,-,-,-,0.1277572065591812,0.6644600629806519,0.1711428165435791,-,-,-,-,-,-,-,-,0.963360071182251,2021,10,01
81,82,440,Sa Kaeo (2),Eastern,13.78888889,102.0347222,-,-,-,-,-,-,-,-,-,-,-,-,-,0.08145517855882645,-,-,-,-,-,-,-,-,-,-,0.08145517855882645,2021,10,01
82,83,462,Aranyaprathet,Eastern,13.70000028,102.5833336,-,-,-,-,-,-,-,-,-,-,-,-,-,-,-,-,-,-,-,-,-,-,-,-,-,2021,10,01
83,84,458,Chachoengsao (1),Eastern,13.51555556,101.4583333,-,-,-,-,-,-,-,-,-,-,-,-,-,2.515589952468872,0.8638203144073486,2.691122531890869,-,-,-,-,0.09344121068716049,-,0.1261669546365738,-,6.290140628814697,2021,10,01
84,85,459,Chon Buri,Eastern,13.36666694,100.9833336,-,-,-,-,-,-,-,-,-,-,-,-,-,-,-,-,-,-,-,-,-,-,-,-,-,2021,10,01
85,86,463,Laem Chabang,Eastern,13.07694444,100.8758333,-,-,-,-,-,-,-,-,-,-,-,-,-,-,-,-,-,-,-,-,-,-,-,-,7.512274265289307,2021,10,01
86,87,460,Ko Sichang,Eastern,13.16166667,100.8019444,-,-,-,-,-,-,-,-,-,-,-,-,-,-,-,-,-,-,-,-,-,-,-,-,6.9388203620910645,2021,10,01
87,88,461,Pattaya,Eastern,12.92,100.8694444,-,-,-,-,-,-,-,-,-,-,-,-,-,-,-,-,-,-,-,-,-,-,-,-,4.527345657348633,2021,10,01
88,89,477,Sattahip,Eastern,12.68333361,100.9833336,-,-,-,-,-,-,-,-,-,-,-,-,-,-,-,-,-,-,-,-,-,-,0.32519787549972534,-,0.32519787549972534,2021,10,01
89,90,478,Rayong,Eastern,12.61702778,101.34075,-,-,-,-,-,-,-,-,-,-,-,-,-,-,-,-,-,-,-,-,-,-,-,-,-,2021,10,01
90,91,479,Huai Pong (1),Eastern,12.73333361,101.1333336,-,-,-,-,-,-,-,-,-,-,-,-,-,-,-,-,-,-,-,-,-,-,-,-,-,2021,10,01
91,92,480,Chanthaburi,Eastern,12.61666694,102.1133333,-,-,-,-,-,-,-,-,-,-,-,-,-,-,3.312319278717041,1.2101433277130127,-,-,-,-,-,-,-,-,11.96933650970459,2021,10,01
92,93,481,Pluei (1),Eastern,12.50861111,102.1730556,-,-,-,-,-,-,-,-,-,-,-,-,-,-,2.633732318878174,2.988532304763794,-,-,-,-,-,-,-,-,15.20910358428955,2021,10,01
93,94,501,Khlong Yai,Eastern,11.76666694,102.8833336,-,-,-,-,-,-,-,-,-,-,-,-,-,0.4203646183013916,2.1333374977111816,0.5338608622550964,-,-,-,-,-,-,-,-,3.0875630378723145,2021,10,01
94,95,465,Phetchaburi,Southern EastCoast,12.99930556,100.0605278,-,-,-,-,-,-,-,-,-,-,-,-,-,-,-,-,-,-,-,-,-,-,-,-,-,2021,10,01
95,96,474,Nong Plub (1),Southern EastCoast,12.58925,99.73461111,-,-,-,-,-,-,-,-,-,-,-,-,-,-,-,-,-,-,-,-,-,-,-,-,-,2021,10,01
96,97,475,Hua Hin,Southern EastCoast,12.57797222,99.95372222,-,-,-,-,-,-,-,-,-,-,-,-,-,-,-,-,-,-,-,-,-,-,-,-,-,2021,10,01
97,98,500,Prachuap Khiri Khan,Southern EastCoast,11.83497222,99.81047222,-,-,-,-,-,-,-,-,-,-,-,-,-,-,-,-,-,-,-,-,-,-,-,-,-,2021,10,01
98,99,517,Chumphon,Southern EastCoast,10.49875,99.18847222,-,-,-,-,-,-,-,-,-,-,-,-,-,-,-,-,1.9367181062698364,-,2.916353702545166,4.119716644287109,2.566453218460083,0.24769055843353271,-,-,11.786931037902832,2021,10,01
99,100,520,Sawee (1),Southern EastCoast,10.33063889,99.09186111,-,-,-,-,-,-,-,-,-,-,-,-,-,-,-,-,2.822690010070801,-,2.4708285331726074,3.461071252822876,0.37862175703048706,0.503353476524353,-,-,9.636565208435059,2021,10,01
100,101,551,Surat Thani,Southern EastCoast,9.1335,99.15213889,-,-,-,-,-,-,-,-,-,-,-,-,-,-,-,-,-,-,-,-,-,-,-,-,-,2021,10,01
101,102,555,Surat Thani (1),Southern EastCoast,9.144805556,99.63361111,-,-,-,-,-,-,-,-,-,-,-,-,-,-,-,-,-,-,-,-,-,-,-,-,-,2021,10,01
102,103,550,Ko Samui,Southern EastCoast,9.466666667,100.05,-,-,-,-,-,-,-,-,-,-,-,-,-,-,-,-,-,-,-,-,-,-,-,-,-,2021,10,01
103,104,556,Prasang (2),Southern EastCoast,8.572083333,99.25519444,-,-,-,-,-,-,-,-,-,-,-,-,-,1.4262654781341553,1.9819246530532837,0.024558061733841896,-,-,-,-,-,-,-,-,3.432748317718506,2021,10,01
104,105,557,Chawang (2),Southern EastCoast,8.424694444,99.50661111,-,-,-,-,-,-,-,-,-,-,-,-,-,1.308720350265503,-,-,-,-,-,-,-,-,-,-,1.308720350265503,2021,10,01
105,106,552,Nakhon Si Thammarat,Southern EastCoast,8.537777777999999,99.94722222,-,-,-,-,-,-,-,-,-,-,-,-,-,-,-,-,-,-,-,-,-,-,-,-,-,2021,10,01
106,107,554,Nakhon Si Thammarat (1),Southern EastCoast,8.359305556,100.0,-,-,-,-,-,-,-,-,-,-,-,-,-,-,-,-,-,-,-,-,-,-,-,-,-,2021,10,01
107,108,560,Pattalung (1),Southern EastCoast,7.583333611,100.1666669,-,-,-,-,-,-,-,-,-,-,-,-,-,-,-,0.3834494352340698,-,-,-,-,-,-,-,-,0.3834494352340698,2021,10,01
108,109,568,Songkhla,Southern EastCoast,7.182111111,100.6076944,-,-,-,-,-,-,-,-,-,-,-,-,-,0.6720239520072937,-,0.728804349899292,-,-,-,-,-,-,-,-,1.4008283615112305,2021,10,01
109,110,569,Hat Yai,Southern EastCoast,6.916666944,100.43333359999998,-,-,-,-,-,-,-,-,-,-,-,-,-,0.38038548827171326,-,1.2059180736541748,-,-,-,-,-,-,-,-,1.5863035917282104,2021,10,01
110,111,571,Korhong (1),Southern EastCoast,7.0,100.5,-,-,-,-,-,-,-,-,-,-,-,-,-,-,2.005964517593384,2.6226558685302734,1.4631857872009277,0.3518613576889038,-,-,-,-,-,-,6.443667411804199,2021,10,01
111,112,574,Sa Dao (2),Southern EastCoast,6.798055556,100.3905556,-,-,-,-,-,-,-,-,-,-,-,-,-,-,-,2.726581573486328,-,0.6106643080711365,-,-,-,-,-,-,5.659187316894531,2021,10,01
112,113,580,Pattani,Southern EastCoast,6.7833336110000015,101.1500003,-,-,-,-,-,-,-,-,-,-,-,-,-,7.146106243133545,3.5901834964752197,2.5851335525512695,-,-,-,-,-,-,-,-,13.321423530578613,2021,10,01
113,114,581,Yala (1),Southern EastCoast,6.050000278,101.2833336,-,-,-,-,-,-,-,-,-,-,-,-,-,2.700453996658325,2.727400302886963,0.8302453756332397,0.8098666667938232,-,-,-,-,-,-,1.9561151266098022,9.714944839477539,2021,10,01
114,115,583,Narathiwat,Southern EastCoast,6.416666944,101.81666690000002,-,-,-,-,-,-,-,-,-,-,-,-,-,0.3453538119792938,-,-,-,-,-,-,-,-,-,-,0.3453538119792938,2021,10,01
115,116,532,Ranong,Southern WestCoast,9.983333611,98.61666694,-,-,-,-,-,-,-,-,-,-,-,-,-,0.3498208522796631,-,-,-,-,0.8247408270835876,-,-,-,-,-,1.1745617389678955,2021,10,01
116,117,561,Takua Pa,Southern WestCoast,8.684166667000001,98.25222222,-,-,-,-,-,-,-,-,-,-,-,-,-,0.3529542088508606,4.20889139175415,2.6845335960388184,-,-,-,-,-,-,-,-,7.246379375457764,2021,10,01
117,118,564,Phuket,Southern WestCoast,7.883333611,98.40000028,-,-,-,-,-,-,-,-,-,-,-,-,-,-,-,-,-,-,-,-,-,-,-,-,-,2021,10,01
118,119,565,Phuket Airport,Southern WestCoast,8.145,98.31444444,-,-,-,-,-,-,-,-,-,-,-,-,-,-,-,-,-,-,-,-,-,-,-,-,-,2021,10,01
119,120,563,Krabi,Southern WestCoast,8.103611111000001,98.97527778,-,-,-,-,-,-,-,-,-,-,-,-,-,-,-,-,-,-,-,-,-,-,-,-,-,2021,10,01
120,121,566,Ko Lanta,Southern WestCoast,7.5333336110000015,99.05000028,0.049787186086177826,0.12521986663341522,-,-,-,-,-,-,-,-,-,-,-,-,-,-,-,-,-,-,-,-,-,-,0.22479423880577087,2021,10,01
121,122,567,Trang,Southern WestCoast,7.516666944,99.61666694,-,-,-,-,-,-,-,-,-,-,-,-,-,-,-,-,-,-,-,-,-,-,-,-,-,2021,10,01
122,123,570,Satun,Southern WestCoast,6.650000277999999,100.0833336,-,-,-,-,-,-,-,-,-,-,-,-,-,-,-,-,0.9610718488693237,-,-,-,-,-,-,-,0.9610718488693237,2021,10,01
